	primary_id	primary_id_scheme	record_number	secondary_id	secondary_id_scheme	station_name	station_abbreviation	alternative_name	station_crs	longitude	latitude	local_gravity	start_date	end_date	station_type	platform_type	platform_sub_type	operating_institute	operating_territory	city	contact	role	observing_frequency	reporting_time	telecommunication_method	station_automation	measuring_system_model	measuring_system_id	observed_variables	comment	optional_data	bbox_min_longitude	bbox_max_longitude	bbox_min_latitude	bbox_max_latitude	metadata_contact	metadata_contact_role
0		0	1	['6:100411']	1				0				19710519	19710519	1	0	63			None									[38, 85, 104, 105, 106, 107, 117]							L.Haimberger	0
1		0	2	['6:100199']	1				0				19710417	19711103	1	0	63			None									[38, 85, 104, 105, 106, 107, 117]							L.Haimberger	0
2	0-20000-0-38545	0	3	['C:4676']	1	BIRATA			0	62.28	40.47		19560731	19560820	1	0	63			Gazojak									[38, 39, 85, 104, 105, 106, 107, 117]							L.Haimberger	0
3		0	4	['6:100014']	1				0				19710517	19710529	1	0	63			None									[38, 85, 104, 105, 106, 107, 117]							L.Haimberger	0
4		0	5	['6:100193']	1				0				19710606	19711103	1	0	63			None									[38, 85, 104, 105, 106, 107, 117]							L.Haimberger	0
5	0-20000-0-68024	0	6	['68024']	1	GHANZI			0	21.65	-21.7		19730704	19740320	1	0	63			Ghanzi									[104, 105, 106, 107, 117]							L.Haimberger	0
6	0-20000-0-91371	0	7	['91371']	1	WOTJE ATOLL, MARSHALL IS.			0	170.25	9.47		19730621	19760110	1	0	63			None									[104, 105, 106, 107, 117]							L.Haimberger	0
7	0-20000-0-30157	0	8	['30157']	1	MAMA			0	112.87	58.32		19620810	19630730	1	0	63			Bodaybo									[36, 38, 39, 85, 104, 105, 106, 107, 117]							L.Haimberger	0
8		0	9	['81412']	1				0				19640115	19640724	1	0	63			Cairns									[36, 38, 39, 85, 104, 105, 106, 107, 117]							L.Haimberger	0
9	0-20000-0-31174	0	10	['31174']	1	BOL'SHOJ SHANTAR			0	137.53	54.83		19620314	19630630	1	0	63			Nikolayevsk-Na-Amure									[36, 38, 39, 85, 104, 105, 106, 107, 117]							L.Haimberger	0
10	0-20000-0-62640	0	11	['C:4944']	1	ABU HAMED			0	33.32	19.53		19500101	19550216	1	0	63			Barbar									[104, 105, 106, 107]							L.Haimberger	0
11	0-20000-0-48018	0	12	['48018']	1	KATHA			0	96.33	24.17		19781211	19781211	1	0	63			Katha									[104, 105, 106, 107, 117]							L.Haimberger	0
12	0-20000-0-61979	0	13	['C:4409']	1	SAINT-DENIS/GILLOT (REUNION)			0	55.53	-20.89		19500101	19500731	1	0	63			Saint-Denis									[104, 105, 106, 107]							L.Haimberger	0
13	0-20000-0-36883	0	14	['36880']	1	ILIYSKY			0	76.98	43.48		19580318	19630316	1	0	63			Energeticheskiy									[36, 38, 39, 85, 104, 105, 106, 107, 117]							L.Haimberger	0
14	0-20000-0-36821	0	15	['1:36821']	1	BAKANAS			0	76.25	44.81		19671218	19680524	1	0	63			Ushtobe									[104, 105, 106, 107]							L.Haimberger	0
15	0-20000-0-26063	0	16	['1:26065']	1	ST.PETERSBURG (VOEJKOVO) (26063-0)			0	30.3	59.97		19540103	19561231	1	0	63			Saint Petersburg									[38, 85, 104, 105, 106, 107, 117]							L.Haimberger	0
16		0	17	['6:100194']	1				0				19710529	19710731	1	0	63			None									[38, 85, 104, 105, 106, 107, 117]							L.Haimberger	0
17	0-20000-0-83063	0	18	['1:83063']	1	PORTO NACIONAL (AERO)			0	-48.4	-10.7		19691020	19721231	1	0	63			Porto Nacional									[104, 105, 106, 107]							L.Haimberger	0
18		0	19	['6:100197']	1				0				19710521	19710521	1	0	63			None									[38, 85, 104, 105, 106, 107, 117]							L.Haimberger	0
19	0-20000-0-59362	0	20	['1:59362']	1	HUALIAN			0	121.62	24.02		19571206	19760102	1	0	63			Puli									[38, 85, 104, 105, 106, 107, 117]							L.Haimberger	0
20	0-20000-0-65602	0	21	['10103']	1	SPRIGGS PAYNE AIRPORT			0	-10.75	6.33		19671107	19680227	1	0	63			Monrovia									[36, 38, 39, 85, 104, 105, 106, 107, 117]							L.Haimberger	0
21	0-20000-0-48918	0	22	['2:40002']	1	CON SON			0	106.6	8.68		19681002	19681223	1	0	63			Bac Lieu									[38, 85, 104, 105, 106, 107, 117]							L.Haimberger	0
22	0-20000-0-67561	0	23	['1:67561']	1	NDOLA			0	28.65	-13.0		19700308	19721230	1	0	63			Ndola									[104, 105, 106, 107]							L.Haimberger	0
23	0-20000-0-62366	0	24	['C:4939']	1	HELWAN			0	31.35	29.86		19530107	19530107	1	0	63			Cairo									[104, 105, 106, 107]							L.Haimberger	0
24	0-20000-0-82764	0	25	['82764']	1	CAROLINA (82765-0)			0	-47.47	-7.33		19740622	19740622	1	0	63			Carolina									[104, 105, 106, 107, 117]							L.Haimberger	0
25		0	26	['2:10003']	1				0				19671102	19680306	1	0	63			Gbarnga									[38, 85, 104, 105, 106, 107, 117]							L.Haimberger	0
26		0	27	['6:108229']	1				0				19710517	19711021	1	0	63			None									[38, 85, 104, 105, 106, 107, 117]							L.Haimberger	0
27		0	28	['6:108289']	1				0				19710415	19710503	1	0	63			None									[38, 85, 104, 105, 106, 107, 117]							L.Haimberger	0
28	0-20000-0-96581	0	29	['96583']	1	PONTIANAK/SUPADIO			0	109.4	-0.15		19570901	19581231	1	0	63			Pontianak									[104, 105, 106, 107, 117]							L.Haimberger	0
29	0-20000-0-28552	0	30	['28552']	1	SADRINSK			0	63.65	56.07		19740521	19781209	1	0	63			Shadrinsk									[36, 38, 39, 85, 104, 105, 106, 107, 117]							L.Haimberger	0
30	0-20000-0-35746	0	31	['C:4604']	1	ARAL TENIZI			0	61.66	46.78		19541019	19550422	1	0	63			Dzhusaly									[38, 39, 85, 104, 105, 106, 107, 117]							L.Haimberger	0
31	0-20000-0-63695	0	32	['63695']	1	MERU			0	37.65	0.05		19761110	19781231	1	0	63			Meru									[104, 105, 106, 107, 117]							L.Haimberger	0
32	0-20000-0-71885	0	33	['1:71885']	1	GLENWOOD, ALTA			0	-113.52	49.33		19620312	19620910	1	0	63			Penticton									[104, 105, 106, 107]							L.Haimberger	0
33		0	34	['C:4679']	1				0				19570831	19570927	1	0	63			Ozgon									[38, 39, 85, 104, 105, 106, 107, 117]							L.Haimberger	0
34	0-20000-0-16597	0	35	['16597']	1	LUQA			0	14.48	35.85		19740922	19740922	1	0	63			Qormi									[36, 38, 39, 85, 104, 105, 106, 107, 117]							L.Haimberger	0
35		0	36	['2:11633']	1				0				19500101	19500228	1	0	63			Ponce									[104, 105, 106, 107]							L.Haimberger	0
36	0-246-0-101267	0	37	['6:101267']	1	PORI TAHKOLUOTO HARBOUR			0	21.38	61.63		19710724	19710724	1	0	63			Ishigaki									[38, 85]							L.Haimberger	0
37	0-20000-0-23933	0	38	['C:4585']	1	HANTY-MANSIJSK			0	69.12	61.03		19540419	19540922	1	0	63			Nefteyugansk									[38, 39, 85, 104, 105, 106, 107, 117]							L.Haimberger	0
38	0-20000-0-48024	0	39	['48024']	1	KALEMYO			0	94.07	23.2		19730106	19770208	1	0	63			Mawlaik									[104, 105, 106, 107, 117]							L.Haimberger	0
39	0-20000-0-65460	0	40	['65460']	1	AKUSE			0	0.12	6.1		19740730	19740810	1	0	63			Akropong									[36, 38, 39, 85, 104, 105, 106, 107, 117]							L.Haimberger	0
40	0-20000-0-74788	0	41	['1:74788']	1	TAMPA BAY AREA, FL.			0	-82.4	27.71		19510702	19510728	1	0	63			Tampa									[104, 105, 106, 107]							L.Haimberger	0
41		0	42	['6:100017']	1				0				19710622	19710712	1	0	63			None									[38, 85, 104, 105, 106, 107, 117]							L.Haimberger	0
42		0	43	['6:101358']	1				0				19711021	19711021	1	0	63			None									[38, 85, 104, 105, 106, 107, 117]							L.Haimberger	0
43	0-20001-0-37055	0	44	['1:37050']	1	MINERAL'NYE VODY (37055-1)			0	43.1	44.22		19510707	19521215	1	0	63			Pyatigorsk									[38, 85, 104, 105, 106, 107, 117]							L.Haimberger	0
44	0-20000-0-23330	0	45	['C:4644']	1	SALEHARD			0	66.67	66.53		19541020	19550422	1	0	63			Salekhard									[38, 39, 85, 104, 105, 106, 107, 117]							L.Haimberger	0
45		0	46	['6:100190']	1				0				19710523	19711015	1	0	63			None									[38, 85, 104, 105, 106, 107, 117]							L.Haimberger	0
46		0	47	['82409']	1				0				19640602	19640720	1	0	63			Townsville									[36, 38, 39, 85, 104, 105, 106, 107, 117]							L.Haimberger	0
47		0	48	['1:72968']	1				0				19540101	19560213	1	0	63			None									[38, 85, 104, 105, 106, 107, 117]							L.Haimberger	0
48	0-20000-0-94998	0	49	['93998']	1	MACQUARIE ISLAND			0	158.94	-54.5		19661118	19720626	1	0	63			None									[36, 38, 39, 85, 104, 105, 106, 107, 117]							L.Haimberger	0
49		0	50	['65333']	1				0				19640109	19641228	1	0	63			Tchaourou									[36, 38, 39, 85, 104, 105, 106, 107, 117]							L.Haimberger	0
50	0-20000-0-36535	0	51	['36535']	1	KOKPEKTY			0	82.37	48.75		19680120	19680429	1	0	63			Serebryansk									[36, 38, 39, 85, 104, 105, 106, 107, 117]							L.Haimberger	0
51		0	52	['6:100332']	1				0				19711006	19711006	1	0	63			None									[38, 85, 104, 105, 106, 107, 117]							L.Haimberger	0
52	0-20000-0-63450	0	53	['2:30302']	1	ADDIS ABABA-BOLE			0	38.75	9.03		19650603	19670222	1	0	63			Addis Abeba									[38, 85, 104, 105, 106, 107, 117]							L.Haimberger	0
53	0-20000-0-82100	0	54	['82100']	1	PARI-CACHOEIRA			0	-69.97	-0.17		19740911	19740911	1	0	63			Sao Gabriel Da Cachoeira									[104, 105, 106, 107, 117]							L.Haimberger	0
54		0	55	['2:88701']	1				0				19571113	19581010	1	0	63			None									[104, 105, 106, 107]							L.Haimberger	0
55	0-20000-0-57046	0	56	['1:57046']	1	HUA SHAN			0	110.08	34.48		19730118	19771027	1	0	63			Weinan									[38, 85, 104, 105, 106, 107, 117]							L.Haimberger	0
56	0-20000-0-35700	0	57	['C:4615']	1	ATYRAU			0	51.88	47.12		19541020	19550422	1	0	63			Atyrau									[38, 39, 85, 104, 105, 106, 107, 117]							L.Haimberger	0
57	0-20000-0-64550	0	58	['64550']	1	MOUILA			0	11.02	-1.87		19740822	19740912	1	0	63			Mouila									[36, 38, 39, 85, 104, 105, 106, 107, 117]							L.Haimberger	0
58	0-20000-0-83220	0	59	['83220']	1	RIO XINGU			0	-53.4	-12.0		19740806	19740906	1	0	63			Alta Floresta									[104, 105, 106, 107, 117]							L.Haimberger	0
59	0-20000-0-10172	0	60	['10172']	1	LAAGE (FLUGPLATZ)			0	12.28	53.92		19720618	19720618	1	0	63			Bairnsdale									[36, 38, 39, 85, 104, 105, 106, 107, 117]							L.Haimberger	0
60	0-20000-0-25563	0	61	['C:4603']	1	ANADYR'			0	177.57	64.78		19541019	19550421	1	0	63			Anadyr									[38, 39, 85, 104, 105, 106, 107, 117]							L.Haimberger	0
61	0-20000-0-35188	0	62	['1:35188']	1	ASTANA			0	71.39	51.17		19550102	19771130	1	0	63			Astana									[38, 85, 104, 105, 106, 107, 117]							L.Haimberger	0
62	0-20000-0-43128	0	63	['C:5987']	1	HYDERABAD AIRPORT			0	78.47	17.45		19500607	19500607	1	0	63			Hyderabad									[104, 105, 106, 107]							L.Haimberger	0
63	0-20000-0-63023	0	64	['2:31305']	1	MASSAWA			0	39.45	15.62		19640518	19641209	1	0	63			Ginda									[38, 85, 104, 105, 106, 107, 117]							L.Haimberger	0
64		0	65	['9:3992']	1				0				19520701	19540331	1	0	63			Bien Hoa									[85, 117]							L.Haimberger	0
65	0-20000-0-71127	0	66	['1:71127']	1	EDMONTON STONY PLAIN CS, ALTA			0	-114.11	53.55		19700413	19700506	1	0	63			Grand Centre									[104, 105, 106, 107]							L.Haimberger	0
66	0-20000-0-67581	0	67	['67581']	1	CHIPATA			0	32.58	-13.55		19730625	19780221	1	0	63			Chipata									[36, 38, 39, 85, 104, 105, 106, 107, 117]							L.Haimberger	0
67		0	68	['C:5983']	1				0				19530517	19530517	1	0	63			Gat									[104, 105, 106, 107]							L.Haimberger	0
68	0-20000-0-38599	0	69	['1:38599']	1	KHUDJANT			0	69.73	40.22		19730205	19771224	1	0	63			Gafurov									[104, 105, 106, 107]							L.Haimberger	0
69	0-20000-0-84027	0	70	['84027']	1	TULCAN AEROPUERTO			0	-77.71	0.81		19740828	19740828	1	0	63			Esmeraldas									[36, 38, 39, 85, 104, 105, 106, 107, 117]							L.Haimberger	0
70	0-20000-0-65404	0	71	['65404']	1	WA			0	-2.5	10.05		19740721	19740721	1	0	63			Wa									[36, 38, 39, 85, 104, 105, 106, 107, 117]							L.Haimberger	0
71	0-20000-0-38836	0	72	['C:4589']	1	DUSHANBE			0	68.73	38.58		19540419	19540922	1	0	63			Dushanbe									[38, 39, 85, 104, 105, 106, 107, 117]							L.Haimberger	0
72	0-20000-0-72260	0	73	['1:72260']	1	STEPHENVILLE/CLARK FIELD MUN., TX.			0	-98.18	32.22		19731130	19731212	1	0	63			Stephenville									[38, 85, 104, 105, 106, 107, 117]							L.Haimberger	0
73		0	74	['6:105252']	1				0				19710602	19711021	1	0	63			None									[38, 85, 104, 105, 106, 107, 117]							L.Haimberger	0
74	0-20000-0-91527	0	75	['91527']	1	KIRA KIRA			0	161.92	-10.42		19781222	19781222	1	0	63			Honiara									[104, 105, 106, 107, 117]							L.Haimberger	0
75	0-20000-0-94393	0	76	['6:100800']	1	FREDERICK REEF			0	154.4	-20.94		19720508	19720508	1	0	63			Yeppoon									[38, 85, 104, 105, 106, 107, 117]							L.Haimberger	0
76	0-246-0-101533	0	77	['6:101533']	1	ALAJARVI MOKSY			0	24.26	63.09		19710620	19710620	1	0	63			None									[38, 85]							L.Haimberger	0
77	0-20000-0-74693	0	78	['1:74693']	1	POPE AFB, NC.			0	-79.03	35.17		19700212	19720622	1	0	63			Fayetteville									[38, 85, 104, 105, 106, 107, 117]							L.Haimberger	0
78	0-20000-0-33837	0	79	['33838']	1	Odesa			0	30.77	46.44		19571129	19620531	1	0	63			Odesa									[36, 38, 39, 85, 104, 105, 106, 107, 117]							L.Haimberger	0
79	0-20000-0-41170	0	80	['40428']	1	HAMAD INTERNATIONAL AIRPORT			0	51.61	25.27		19770731	19781231	1	0	63			Doha									[104, 105, 106, 107, 117]							L.Haimberger	0
80	0-20000-0-80044	0	81	['80044']	1	COROZAL/LAS BRUJAS			0	-75.28	9.33		19740711	19740830	1	0	63			Corozal									[36, 38, 39, 85, 104, 105, 106, 107, 117]							L.Haimberger	0
81	0-20000-0-92035	0	82	['9:4129']	1	PORT MORESBY W.O.			0	147.22	-9.38		19750522	19771001	1	0	63			Port Moresby									[85, 117]							L.Haimberger	0
82	0-20000-0-38687	0	83	['C:4669']	1	TURKMENABAT			0	63.6	39.08		19570219	19570308	1	0	63			Turkmenabat									[38, 39, 85, 104, 105, 106, 107, 117]							L.Haimberger	0
83		0	84	['6:104941']	1				0				19710503	19711121	1	0	63			None									[38, 85, 104, 105, 106, 107, 117]							L.Haimberger	0
84	0-20000-0-47644	0	85	['1:47644']	1	KIYOSE			0	139.53	35.78		19500513	19500531	1	0	63			Niiza									[38, 104, 105, 106, 107]							L.Haimberger	0
85	0-20000-0-64402	0	86	['64402']	1	MOUYONDZI			0	13.95	-4.0		19740722	19740722	1	0	63			Madingou									[104, 105, 106, 107, 117]							L.Haimberger	0
86	0-20000-0-96253	0	87	['96103']	1	BENGKULU/PADANG KEMILING			0	102.33	-3.88		19781220	19781220	1	0	63			Bengkulu									[104, 105, 106, 107, 117]							L.Haimberger	0
87	0-20000-0-62671	0	88	['62671']	1	TOKAR			0	37.73	18.43		19740617	19740617	1	0	63			Tawkar									[36, 38, 39, 85, 104, 105, 106, 107, 117]							L.Haimberger	0
88		0	89	['31307']	1				0				19660220	19670227	1	0	63			Asosa									[36, 38, 39, 85, 104, 105, 106, 107, 117]							L.Haimberger	0
89	0-20000-0-62770	0	90	['C:4947']	1	GENINA			0	22.45	13.48		19530503	19550317	1	0	63			Adre									[104, 105, 106, 107]							L.Haimberger	0
90	0-20000-0-10139	0	91	['10139']	1	BREMERVOERDE			0	9.14	53.44		19710503	19710503	1	0	63			None									[36, 38, 39, 85, 104, 105, 106, 107, 117]							L.Haimberger	0
91	0-246-0-101023	0	92	['6:101023']	1	PORVOO EMASALO			0	25.63	60.2		19711021	19711021	1	0	63			Teguise									[38, 85, 117]							L.Haimberger	0
92		0	93	['6:99286']	1				0				19600615	19610311	1	0	63			Penzance									[38, 85, 104, 105, 106, 107, 117]							L.Haimberger	0
93		0	94	['80517']	1				0				19621105	19630114	1	0	63			Arawa									[36, 38, 39, 85, 104, 105, 106, 107, 117]							L.Haimberger	0
94	0-20000-0-64701	0	95	['64701']	1	MAO			0	15.32	14.12		19740817	19740817	1	0	63			Mao									[104, 105, 106, 107, 117]							L.Haimberger	0
95	0-20000-0-10042	0	96	['10042']	1	SCHOENHAGEN (OSTSEEBAD)			0	10.02	54.64		19721009	19721010	1	0	63			Ha Tinh									[36, 38, 39, 85, 104, 105, 106, 107, 117]							L.Haimberger	0
96	0-20000-0-91629	0	97	['2:80707']	1	ARORAE			0	176.83	-2.67		19650704	19650905	1	0	63			Bairiki									[38, 85, 104, 105, 106, 107, 117]							L.Haimberger	0
97	0-20000-0-62750	0	98	['62750']	1	ED DUEIM			0	32.33	14.0		19740706	19740906	1	0	63			Kinanah									[36, 38, 39, 85, 104, 105, 106, 107, 117]							L.Haimberger	0
98	0-20000-0-89564	0	99	['9:3282']	1	MAWSON			0	62.88	-67.6		19560301	19571222	1	0	63			None									[104, 105, 106, 107]							L.Haimberger	0
99	0-20000-0-92087	0	100	['94087']	1	MISIMA W.O.			0	152.83	-10.68		19751203	19780911	1	0	63			Alotau									[104, 105, 106, 107, 117]							L.Haimberger	0
100	0-20000-0-72607	0	101	['2:14601']	1	BANGOR, ME BANGOR INT. ARPT			0	-68.82	44.81		19520715	19520930	1	0	63			Bangor									[104, 105, 106, 107]							L.Haimberger	0
101	0-20000-0-30157	0	102	['1:30157']	1	MAMA			0	112.87	58.32		19620810	19630124	1	0	63			Bodaybo									[104, 105, 106, 107]							L.Haimberger	0
102	0-20000-0-48426	0	103	['1:48426']	1	LOP BURI			0	100.63	14.8		19760128	19760303	1	0	63			Lop Buri									[104, 105, 106, 107]							L.Haimberger	0
103		0	104	['6:100158']	1				0				19711006	19711006	1	0	63			None									[38, 85, 104, 105, 106, 107, 117]							L.Haimberger	0
104	0-20000-0-41515	0	105	['6:20354']	1	DROSH			0	71.78	35.57		19510205	19550823	1	0	63			Chitral									[104, 105, 106, 107]							L.Haimberger	0
105	0-20000-0-72407	0	106	['13753']	1	ATLANTIC CITY, NJ.			0	-74.57	39.45		19570903	19580612	1	0	63			Pleasantville									[104, 105, 106, 107, 117]							L.Haimberger	0
106	0-20000-0-67485	0	107	['67485']	1	MZIMBA			0	33.62	-11.88		19740112	19740912	1	0	63			Mzimba									[104, 105, 106, 107, 117]							L.Haimberger	0
107	0-20000-0-25705	0	108	['25705']	1	SREDNIKAN			0	152.32	62.45		19620326	19630707	1	0	63			Magadan									[36, 38, 39, 85, 104, 105, 106, 107, 117]							L.Haimberger	0
108	0-20000-0-42206	0	109	['2:42206']	1	HALDIA			0	88.07	22.07		19520915	19530212	1	0	63			Tomigusuku									[104, 105, 106, 107]							L.Haimberger	0
109	0-20000-0-65208	0	110	['65208']	1	IBADAN			0	3.9	7.43		19740808	19740808	1	0	63			Ibadan									[106, 107, 117]							L.Haimberger	0
110	0-20000-0-71831	0	111	['1:71831']	1	KAPUSKASING A, ONT			0	-82.47	49.41		19620308	19620915	1	0	63			Timmins									[104, 105, 106, 107]							L.Haimberger	0
111		0	112	['6:100320']	1				0				19720803	19720803	1	0	63			Nichinan									[38, 85, 104, 105, 106, 107, 117]							L.Haimberger	0
112	0-20000-0-91690	0	113	['91690']	1	LAUTHALA BAY			0	178.45	-18.15		19690309	19710813	1	0	63			None									[36, 38, 39, 85, 104, 105, 106, 107, 117]							L.Haimberger	0
113		0	114	['10842']	1				0				19710503	19711006	1	0	63			None									[36, 38, 39, 85, 104, 105, 106, 107, 117]							L.Haimberger	0
114		0	115	['6:104656']	1				0				19711021	19711021	1	0	63			None									[38, 85, 104, 105, 106, 107, 117]							L.Haimberger	0
115		0	116	['1:54723']	1				0				19771020	19771130	1	0	63			Binzhou									[38, 85, 104, 105, 106, 107, 117]							L.Haimberger	0
116	0-20000-0-80448	0	117	['80448']	1	GUASDUALITO			0	-70.8	7.23		19740802	19771023	1	0	63			Guasdualito									[36, 38, 39, 85, 104, 105, 106, 107, 117]							L.Haimberger	0
117	0-20000-0-07471	0	118	['07470']	1	LE PUY-LOUDES			0	3.76	45.07		19691018	19740927	1	0	63			Firminy									[36, 38, 39, 85, 104, 105, 106, 107, 117]							L.Haimberger	0
118	0-20000-0-87828	0	119	['1:87828']	1	TRELEW AERO			0	-65.28	-43.21		19500310	19570824	1	0	63			Trelew									[38, 104, 105, 106, 107]							L.Haimberger	0
119		0	120	['03137']	1				0				19570901	19570923	1	0	63			Boulder City									[104, 105, 106, 107, 117]							L.Haimberger	0
120	0-20001-0-34731	0	121	['C:4583']	1	ROSTOV-NA-DONU (34731-1)			0	39.82	47.25		19540419	19540922	1	0	63			Aksay									[38, 39, 85, 104, 105, 106, 107, 117]							L.Haimberger	0
121	0-20000-0-71928	0	122	['1:72928']	1	ROCKY MTN HOUSE (AUT), ALTA			0	-114.91	52.42		19710610	19730829	1	0	63			Sylvan Lake									[38, 85, 104, 105, 106, 107, 117]							L.Haimberger	0
122	0-20000-0-72712	0	123	['2:14623']	1	CARIBOU/MUN., ME.			0	-68.01	46.87		19510218	19520326	1	0	63			Edmundston									[104, 105, 106, 107]							L.Haimberger	0
123	0-20000-0-20292	0	124	['C:4569']	1	GMO IM.E.K. FEDOROVA			0	104.29	77.71		19540419	19540922	1	0	63			None									[38, 39, 85, 104, 105, 106, 107, 117]							L.Haimberger	0
124	0-20000-0-83437	0	125	['83437']	1	MONTES CLAROS (83437-0)			0	-43.87	-16.72		19740927	19780320	1	0	63			Montes Claros									[104, 105, 106, 107, 117]							L.Haimberger	0
125		0	126	['6:100410']	1				0				19710423	19711109	1	0	63			None									[38, 85, 104, 105, 106, 107, 117]							L.Haimberger	0
126	0-20000-0-74504	0	127	['2:93222']	1	PILAR POINT AFS, CA.			0	-122.5	37.5		19691105	19700527	1	0	63			Half Moon Bay									[38, 85, 104, 105, 106, 107, 117]							L.Haimberger	0
127	0-20000-0-12772	0	128	['12772']	1	MISKOLC			0	20.73	48.09		19730620	19740304	1	0	63			Miskolc									[104, 105, 106, 107, 117]							L.Haimberger	0
128	0-20000-0-82184	0	129	['82184']	1	PORTO DE MOZ			0	-52.23	-1.73		19740901	19740901	1	0	63			Almeirim									[106, 107, 117]							L.Haimberger	0
129	0-20000-0-07650	0	130	['1:7650']	1	MARIGNANE			0	5.22	43.44		19620505	19651024	1	0	63			Vitrolles									[104, 105, 106, 107]							L.Haimberger	0
130		0	131	['C:5972']	1				0				19520805	19521129	1	0	63			Malanje									[104, 105, 106, 107]							L.Haimberger	0
131	0-20000-0-40290	0	132	['40290']	1	JERUSALEM AIRPORT			0	35.22	31.87		19611017	19670511	1	0	63			Jerusalem									[104, 105, 106, 107, 117]							L.Haimberger	0
132		0	133	['2:30403']	1				0				19650630	19670103	1	0	63			Ginir									[38, 85, 104, 105, 106, 107, 117]							L.Haimberger	0
133	0-20000-0-29594	0	134	['29594']	1	TAJSHET			0	98.0	55.95		19781225	19781225	1	0	63			Tayshet									[36, 38, 39, 85, 104, 105, 106, 107, 117]							L.Haimberger	0
134	0-20000-0-15014	0	135	['1:15014']	1	BAIA MARE			0	23.47	47.66		19760204	19771229	1	0	63			Baia Mare									[104, 105, 106, 107]							L.Haimberger	0
135	0-20000-0-15150	0	136	['1:15150']	1	BACAU			0	26.9	46.56		19730323	19771231	1	0	63			Bacau									[104, 105, 106, 107]							L.Haimberger	0
136	0-20000-0-74754	0	137	['74754']	1	ENGLAND AFB, LA.			0	-92.55	31.32		19700211	19740729	1	0	63			Alexandria									[36, 38, 39, 85, 104, 105, 106, 107, 117]							L.Haimberger	0
137	0-20000-0-15023	0	138	['1:15023']	1	SUCEAVA			0	26.24	47.63		19760210	19771231	1	0	63			Suceava									[104, 105, 106, 107]							L.Haimberger	0
138		0	139	['6:100510']	1				0				19710419	19711109	1	0	63			None									[38, 85, 104, 105, 106, 107, 117]							L.Haimberger	0
139	0-20000-0-74630	0	140	['1:74630']	1	STALLION AAF, NM			0	-106.67	33.82		19560119	19610127	1	0	63			Los Lunas									[85, 117]							L.Haimberger	0
140	0-20000-0-32540	0	141	['C:4636']	1	PETROPAVLOVSK-KAMCHATSKIJ (32540-0)			0	158.58	53.08		19541019	19550421	1	0	63			Yelizovo									[38, 39, 85, 104, 105, 106, 107, 117]							L.Haimberger	0
141		0	142	['1:67194']	1				0				19700310	19711224	1	0	63			Tsihombe									[104, 105, 106, 107]							L.Haimberger	0
142	0-20000-0-30683	0	143	['30683']	1	EROFEJ PAVLOVIC			0	121.93	53.97		19740904	19740904	1	0	63			Skovorodino									[36, 38, 39, 85, 104, 105, 106, 107, 117]							L.Haimberger	0
143	0-20000-0-48087	0	144	['48087']	1	HINTHADA			0	95.42	17.67		19740804	19750504	1	0	63			Henzada									[104, 105, 106, 107, 117]							L.Haimberger	0
144	0-20000-0-94393	0	145	['10080']	1	FREDERICK REEF			0	154.4	-20.94		19720508	19720508	1	0	63			Yeppoon									[36, 38, 39, 85, 104, 105, 106, 107, 117]							L.Haimberger	0
145	0-20000-0-96751	0	146	['1:96755']	1	BOGOR/CITEKO			0	106.95	-6.7		19590323	19691229	1	0	63			Sukaraja									[38, 85, 104, 105, 106, 107, 117]							L.Haimberger	0
146		0	147	['C:4685']	1				0				19600904	19600923	1	0	63			Mikhaylovka									[38, 39, 85, 104, 105, 106, 107, 117]							L.Haimberger	0
147	0-20000-0-87934	0	148	['1:87934']	1	RIO GRANDE B.A.			0	-67.76	-53.78		19770804	19771231	1	0	63			Ushuaia									[38, 85, 104, 105, 106, 107, 117]							L.Haimberger	0
148	0-20000-0-30054	0	149	['C:4596']	1	VITIM			0	112.58	59.45		19540419	19540922	1	0	63			Lensk									[38, 39, 85, 104, 105, 106, 107, 117]							L.Haimberger	0
149	0-20000-0-47660	0	150	['2:43307']	1	TACHIKAWA AB			0	139.4	35.71		19520803	19540526	1	0	63			Tachikawa									[104, 105, 106, 107]							L.Haimberger	0
150	0-20000-0-91176	0	151	['91176']	1	KANEOHE BAY (MCAS),  OAHU, HAWAII			0	-157.77	21.45		19740424	19781228	1	0	63			Kaneohe									[104, 105, 106, 107, 117]							L.Haimberger	0
151	0-20000-0-59362	0	152	['46699']	1	HUALIAN			0	121.62	24.02		19610703	19620726	1	0	63			Puli									[104, 105, 106, 107, 117]							L.Haimberger	0
152	0-20000-0-12822	0	153	['1:12822']	1	GYOR			0	17.68	47.72		19730127	19770903	1	0	63			Gyor									[104, 105, 106, 107]							L.Haimberger	0
153		0	154	['1:20357']	1				0				19530219	19541231	1	0	63			None									[104, 105, 106, 107, 117]							L.Haimberger	0
154	0-20000-0-96179	0	155	['96179']	1	SINGKEP/DABO			0	104.58	-0.48		19781001	19781231	1	0	63			Simpang									[104, 105, 106, 107, 117]							L.Haimberger	0
155	0-20000-0-10427	0	156	['10427']	1	KAHLER ASTEN			0	8.49	51.18		19720613	19730531	1	0	63			Bridgetown									[36, 38, 39, 85, 104, 105, 106, 107, 117]							L.Haimberger	0
156	0-70-0-Butmir	0	157	['1:13353']	1	BUTMIR			0	18.32	43.83		19660520	19690823	1	0	63			Sarajevo									[104, 105, 106, 107]							L.Haimberger	0
157		0	158	['96273']	1				0				19760401	19781230	1	0	63			Metro									[104, 105, 106, 107, 117]							L.Haimberger	0
158	0-20000-0-72405	0	159	['2:13710']	1	WASHINGTON/NAT., VA.			0	-77.03	38.85		19500803	19510428	1	0	63			Washington									[104, 105, 106, 107]							L.Haimberger	0
159	0-20000-0-82583	0	160	['82583']	1	CRATEUS (82583-0)			0	-40.67	-5.17		19740611	19740819	1	0	63			Crateus									[36, 38, 39, 85, 104, 105, 106, 107, 117]							L.Haimberger	0
160	0-20000-0-59985	0	161	['59985']	1	SANHU DAO			0	111.62	16.53		19781229	19781229	1	0	63			Wanning									[36, 38, 39, 85, 104, 105, 106, 107, 117]							L.Haimberger	0
161	0-20000-0-59158	0	162	['46749']	1	TAIZHONG			0	120.68	24.15		19610708	19620728	1	0	63			Taichung									[104, 105, 106, 107, 117]							L.Haimberger	0
162	0-20000-0-29752	0	163	['29658']	1	NENASTNAYA			0	88.82	54.75		19740427	19740915	1	0	63			Uzhur									[36, 38, 39, 85, 104, 105, 106, 107, 117]							L.Haimberger	0
163	0-20000-0-47133	0	164	['2:43214']	1	DAEJEON			0	127.37	36.37		19510318	19510321	1	0	63			Seoul									[104, 105, 106, 107]							L.Haimberger	0
164	0-20000-0-40712	0	165	['40712']	1	ORUMIEH			0	45.06	37.66		19650406	19650413	1	0	63			Bairiki									[36, 38, 39, 85, 104, 105, 106, 107, 117]							L.Haimberger	0
165		0	166	['80518']	1				0				19630513	19631014	1	0	63			Alotau									[36, 38, 39, 85, 104, 105, 106, 107, 117]							L.Haimberger	0
166	0-20000-0-87436	0	167	['1:87436']	1	SAN LUIS AERO			0	-66.35	-33.27		19570806	19720422	1	0	63			San Luis									[38, 104, 105, 106, 107]							L.Haimberger	0
167		0	168	['6:101671']	1				0				19711028	19711028	1	0	63			Brigantine									[38, 85, 104, 105, 106, 107, 117]							L.Haimberger	0
168	0-20000-0-07502	0	169	['1:7502']	1	CAZAUX			0	-1.13	44.53		19691107	19721130	1	0	63			La Teste-De-Buch									[104, 105, 106, 107]							L.Haimberger	0
169	0-20000-0-40039	0	170	['1:40039']	1	RAQQA			0	39.02	35.93		19700505	19760806	1	0	63			Manbij									[85, 104, 105, 106, 107]							L.Haimberger	0
170	0-20000-0-87270	0	171	['87270']	1	RECONQUISTA AERO			0	-59.69	-29.2		19570909	19581009	1	0	63			Reconquista									[104, 105, 106, 107, 117]							L.Haimberger	0
171	0-152-0-85484	0	172	['6:85487']	1	Freirina Nicolasa			0	-71.01	-28.52		19580508	19581231	1	0	63			Vallenar									[38, 104, 105, 106, 107]							L.Haimberger	0
172	0-20000-0-63043	0	173	['31403']	1	ASSAB			0	42.72	13.07		19640808	19640819	1	0	63			Zabid									[36, 38, 39, 85, 104, 105, 106, 107, 117]							L.Haimberger	0
173	0-20000-0-22802	0	174	['C:4588']	1	SORTAVALA			0	30.72	61.72		19540419	19540922	1	0	63			Sortavala									[38, 39, 85, 104, 105, 106, 107, 117]							L.Haimberger	0
174	0-20000-0-62680	0	175	['C:4957']	1	ATBARA			0	33.97	17.7		19530502	19550401	1	0	63			Barbar									[104, 105, 106, 107]							L.Haimberger	0
175	0-20000-0-87345	0	176	['87345']	1	CORDOBA OBSERVATORIO			0	-64.2	-31.42		19570901	19570926	1	0	63			Cordoba									[36, 38, 39, 85, 104, 105, 106, 107, 117]							L.Haimberger	0
176		0	177	['03151']	1				0				19640518	19640529	1	0	63			Bullhead City									[36, 38, 39, 85, 104, 105, 106, 107, 117]							L.Haimberger	0
177	0-20000-0-76612	0	178	['1:76612']	1	GUADALAJARA, JAL.			0	-103.39	20.71		19630301	19671229	1	0	63			Zapopan									[104, 105, 106, 107]							L.Haimberger	0
178	0-20000-0-97048	0	179	['1:97048']	1	GORONTALO/JALALUDDIN			0	122.85	0.64		19630406	19631029	1	0	63			Gorontalo									[38, 104, 105, 106, 107]							L.Haimberger	0
179	0-20000-0-96073	0	180	['1:96073']	1	SIBOLGA/PINANGSORI			0	98.88	1.55		19690205	19720122	1	0	63			Sibolga									[104, 105, 106, 107]							L.Haimberger	0
180	0-20000-0-40001	0	181	['1:40001']	1	KAMISHLI			0	41.22	37.05		19700526	19770920	1	0	63			Nusaybin									[38, 85, 104, 105, 106, 107, 117]							L.Haimberger	0
181	0-20000-0-10365	0	182	['10365']	1	GENTHIN			0	12.16	52.39		19730507	19730507	1	0	63			Mersing									[36, 38, 39, 85, 104, 105, 106, 107, 117]							L.Haimberger	0
182	0-20000-0-30815	0	183	['30812']	1	HAMAR-DABAN			0	103.6	51.53		19620809	19680627	1	0	63			Slyudyanka									[36, 38, 39, 85, 104, 105, 106, 107, 117]							L.Haimberger	0
183	0-20000-0-27612	0	184	['C:4567']	1	MOSKVA VDNH			0	37.62	55.83		19540419	19540922	1	0	63			Dolgoprudnyy									[38, 39, 85, 104, 105, 106, 107, 117]							L.Haimberger	0
184		0	185	['2:31307']	1				0				19660220	19670227	1	0	63			Asosa									[38, 85, 104, 105, 106, 107, 117]							L.Haimberger	0
185		0	186	['9:4116']	1				0				19570701	19571119	1	0	63			None									[85, 117]							L.Haimberger	0
186	0-20000-0-91801	0	187	['9:2230']	1	PENRHYN			0	-158.05	-9.03		19530328	19580228	1	0	63			None									[104, 105, 106, 107]							L.Haimberger	0
187	0-20000-0-40610	0	188	['2:40610']	1	BAAJ			0	41.73	36.03		19641006	19641129	1	0	63			None									[38, 85, 104, 105, 106, 107, 117]							L.Haimberger	0
188	0-20001-0-22522	0	189	['C:4556']	1	KEM'			0	34.65	64.95		19540419	19540922	1	0	63			Kem									[38, 39, 85, 104, 105, 106, 107, 117]							L.Haimberger	0
189	0-20000-0-35746	0	190	['C:4542']	1	ARAL TENIZI			0	61.66	46.78		19540419	19540922	1	0	63			Dzhusaly									[38, 39, 85, 104, 105, 106, 107, 117]							L.Haimberger	0
190		0	191	['2:41022']	1				0				19680317	19680509	1	0	63			Phan Rang									[38, 85, 104, 105, 106, 107, 117]							L.Haimberger	0
191		0	192	['6:110112']	1				0				19720906	19720908	1	0	63			Santa Rosa									[38, 85, 104, 105, 106, 107, 117]							L.Haimberger	0
192	0-20000-0-10261	0	193	['10261']	1	SEEHAUSEN			0	11.73	52.89		19730209	19730225	1	0	63			Katsuura									[36, 38, 39, 85, 104, 105, 106, 107, 117]							L.Haimberger	0
193	0-246-0-101632	0	194	['6:101632']	1	JOENSUU LINNUNLAHTI			0	29.72	62.6		19710711	19710711	1	0	63			Noumea									[38, 85, 104, 105, 106, 107, 117]							L.Haimberger	0
194	0-20000-0-43555	0	195	['1:43555']	1	MALE			0	73.53	4.19		19661025	19690202	1	0	63			Male									[38, 85, 104, 105, 106, 107, 117]							L.Haimberger	0
195	0-20000-0-66285	0	196	['C:5974']	1	LUENA (LUSO)			0	19.92	-11.78		19521111	19521231	1	0	63			Luena									[104, 105, 106, 107]							L.Haimberger	0
196		0	197	['24048']	1				0				19620103	19620103	1	0	63			Sheridan									[36, 38, 39, 85, 104, 105, 106, 107, 117]							L.Haimberger	0
197	0-20000-0-80405	0	198	['80405']	1	LA ORCHILA			0	-66.18	11.8		19740817	19740819	1	0	63			Caraballeda									[104, 105, 106, 107, 117]							L.Haimberger	0
198	0-20000-0-80438	0	199	['2:80438']	1	MERIDA			0	-71.18	8.6		19631107	19631219	1	0	63			Kimbe									[38, 85, 104, 105, 106, 107, 117]							L.Haimberger	0
199	0-20000-0-28445	0	200	['C:4595']	1	EKATERINBURG (VERHNEE DUBROVO)			0	61.07	56.73		19540419	19540922	1	0	63			Aramil									[38, 39, 85, 104, 105, 106, 107, 117]							L.Haimberger	0
200	0-20000-0-71401	0	201	['94115']	1	WARFIELD RCS			0	-117.74	49.11		19570901	19581224	1	0	63			Penticton									[104, 105, 106, 107, 117]							L.Haimberger	0
201	0-20000-0-89866	0	202	['87602']	1	MARBLE POINT			0	163.75	-77.44		19580101	19581231	1	0	63			None									[104, 105, 106, 107, 117]							L.Haimberger	0
202	0-20000-0-28445	0	203	['28445']	1	EKATERINBURG (VERHNEE DUBROVO)			0	61.07	56.73		19571211	19571211	1	0	63			Aramil									[36, 38, 39, 85, 104, 105, 106, 107, 117]							L.Haimberger	0
203		0	204	['6:100191']	1				0				19710423	19710807	1	0	63			None									[38, 85, 104, 105, 106, 107, 117]							L.Haimberger	0
204	0-20000-0-82571	0	205	['82571']	1	BARRA DO CORDA (82571-0)			0	-45.27	-5.5		19740615	19781216	1	0	63			Barra Do Corda									[36, 38, 39, 85, 104, 105, 106, 107, 117]							L.Haimberger	0
205	0-20000-0-28952	0	206	['C:4626']	1	KOSTANAY			0	63.74	53.24		19541019	19550422	1	0	63			Qostanay									[38, 39, 85, 104, 105, 106, 107, 117]							L.Haimberger	0
206	0-20000-0-30925	0	207	['1:30925']	1	KJAHTA			0	106.45	50.36		19740807	19750223	1	0	63			Kyakhta									[38, 85, 104, 105, 106, 107, 117]							L.Haimberger	0
207		0	208	['C:4688']	1				0				19580701	19580714	1	0	63			Kosonsoy									[38, 39, 85, 104, 105, 106, 107, 117]							L.Haimberger	0
208	0-20000-0-20674	0	209	['C:4641']	1	OSTROV DIKSON			0	80.41	73.51		19541019	19550422	1	0	63			None									[38, 39, 85, 104, 105, 106, 107, 117]							L.Haimberger	0
209	0-20001-0-28695	0	210	['C:4580']	1	OMSK (RS)			0	73.4	54.93		19540419	19540922	1	0	63			Omsk									[38, 39, 85, 104, 105, 106, 107, 117]							L.Haimberger	0
210	0-20000-0-63021	0	211	['31302']	1	ASMARA			0	38.92	15.28		19650301	19650512	1	0	63			Asmara									[36, 38, 39, 85, 104, 105, 106, 107, 117]							L.Haimberger	0
211		0	212	['6:100551']	1				0				19711012	19711012	1	0	63			None									[38, 85, 104, 105, 106, 107, 117]							L.Haimberger	0
212	0-20000-0-41941	0	213	['1:41941']	1	CHITTAGONG (AMBAGAN)			0	91.82	22.35		19640902	19691119	1	0	63			Patiya									[38, 85, 104, 105, 106, 107, 117]							L.Haimberger	0
213	0-20000-0-10055	0	214	['10055']	1	FEHMARN			0	11.06	54.53		19711012	19711012	1	0	63			None									[36, 38, 39, 85, 104, 105, 106, 107, 117]							L.Haimberger	0
214		0	215	['10140']	1				0				19710227	19710923	1	0	63			None									[36, 38, 39, 85, 104, 105, 106, 107, 117]							L.Haimberger	0
215	0-20000-0-82686	0	216	['82686']	1	IGUATU (82686-0)			0	-39.3	-6.37		19740918	19740918	1	0	63			Iguatu									[106, 107, 117]							L.Haimberger	0
216	0-20000-0-41506	0	217	['1:41506']	1	CHITRAL			0	71.83	35.85		19730129	19771229	1	0	63			Chitral									[104, 105, 106, 107]							L.Haimberger	0
217		0	218	['6:100241']	1				0				19710829	19710829	1	0	63			Townsville									[38, 85, 117]							L.Haimberger	0
218	0-20000-0-65602	0	219	['2:10103']	1	SPRIGGS PAYNE AIRPORT			0	-10.75	6.33		19671107	19680227	1	0	63			Monrovia									[38, 85, 104, 105, 106, 107, 117]							L.Haimberger	0
219	0-20000-0-30230	0	220	['C:4620']	1	KIRENSK			0	108.07	57.77		19541019	19550422	1	0	63			Kirensk									[38, 39, 85, 104, 105, 106, 107, 117]							L.Haimberger	0
220	0-20000-0-74695	0	221	['1:74695']	1	DARE COUNTY GUNNERY RANGE, NC.			0	-75.9	35.67		19700212	19721227	1	0	63			Elizabeth City									[104, 105, 106, 107]							L.Haimberger	0
221	0-20000-0-91631	0	222	['80701']	1	NANUMEA			0	176.13	-5.67		19650902	19651022	1	0	63			None									[36, 38, 39, 85, 104, 105, 106, 107, 117]							L.Haimberger	0
222	0-20000-0-80434	0	223	['80434']	1	VALLE DE LA PASCUA			0	-66.02	9.22		19630730	19631210	1	0	63			Wewak									[36, 38, 39, 85, 104, 105, 106, 107, 117]							L.Haimberger	0
223	0-20000-0-30405	0	224	['2:30405']	1	TANGUJ			0	101.03	55.38		19660712	19661201	1	0	63			Xuddur									[38, 85, 104, 105, 106, 107, 117]							L.Haimberger	0
224	0-20000-0-72281	0	225	['72281']	1	EL CENTRO NAF, CA.			0	-115.68	32.82		19730104	19750711	1	0	63			Imperial									[36, 38, 39, 85, 104, 105, 106, 107, 117]							L.Haimberger	0
225	0-20000-0-59134	0	226	['1:59137']	1	XIAMEN			0	118.08	24.48		19600502	19610730	1	0	63			Xiamen									[38, 85, 104, 105, 106, 107, 117]							L.Haimberger	0
226	0-20000-0-67131	0	227	['1:67131']	1	MOROMBE			0	43.37	-21.75		19700405	19771231	1	0	63			Ankazoabo									[104, 105, 106, 107]							L.Haimberger	0
227	0-20000-0-61612	0	228	['61612']	1	PODOR			0	-14.93	16.65		19740624	19740624	1	0	63			Dagana									[36, 38, 39, 85, 104, 105, 106, 107, 117]							L.Haimberger	0
228	0-246-0-101064	0	229	['6:101064']	1	PORI RAILWAY STATION			0	21.78	61.48		19710627	19710627	1	0	63			None									[38, 85, 104, 105, 106, 107, 117]							L.Haimberger	0
229		0	230	['9:1215']	1				0				19570302	19591231	1	0	63			Aksu									[104, 105, 106, 107]							L.Haimberger	0
230	0-20000-0-32562	0	231	['32564']	1	BOL' SHERETZK			0	156.3	52.83		19650909	19661228	1	0	63			Yelizovo									[36, 38, 39, 85, 104, 105, 106, 107, 117]							L.Haimberger	0
231	0-20000-0-41977	0	232	['9:3364']	1	CHITTAGONG (AMBAGAN)			0	91.82	22.35		19680101	19781213	1	0	63			Patiya									[85, 117]							L.Haimberger	0
232	0-20000-0-87548	0	233	['1:87548']	1	JUNIN AERO			0	-60.93	-34.55		19500610	19540528	1	0	63			Junin									[38, 104, 105, 106, 107]							L.Haimberger	0
233	0-20000-0-47116	0	234	['47111']	1	GWANAKSAN			0	126.96	37.45		19780301	19781231	1	0	63			Seoul									[104, 105, 106, 107, 117]							L.Haimberger	0
234	0-20000-0-96145	0	235	['1:96145']	1	TAREMPA			0	106.22	3.22		19570711	19570711	1	0	63			Mersing									[38, 104, 105, 106, 107]							L.Haimberger	0
235	0-20000-0-08284	0	236	['08284']	1	VALENCIA/AEROPUERTO			0	-0.47	39.48		19691114	19711022	1	0	63			Manises									[36, 38, 39, 85, 104, 105, 106, 107, 117]							L.Haimberger	0
236	0-20000-0-41891	0	237	['1:41900']	1	SYLHET			0	91.88	24.9		19630307	19770924	1	0	63			Chhatak									[38, 85, 104, 105, 106, 107, 117]							L.Haimberger	0
237	0-20000-0-48432	0	238	['48432']	1	SURIN			0	103.5	14.87		19771110	19771117	1	0	63			Surin									[104, 105, 106, 107, 117]							L.Haimberger	0
238	0-20000-0-25563	0	239	['C:4541']	1	ANADYR'			0	177.57	64.78		19540419	19540922	1	0	63			Anadyr									[38, 39, 85, 104, 105, 106, 107, 117]							L.Haimberger	0
239		0	240	['6:100354']	1				0				19710417	19710417	1	0	63			None									[38, 85, 104, 105, 106, 107, 117]							L.Haimberger	0
240	0-20000-0-63402	0	241	['30306']	1	JIMMA			0	36.83	7.67		19661219	19670227	1	0	63			Jimma									[36, 38, 39, 85, 104, 105, 106, 107, 117]							L.Haimberger	0
241	0-20000-0-83361	0	242	['1:83361']	1	CUIABA (AERO)			0	-56.1	-15.65		19660603	19661230	1	0	63			Cuiaba									[104, 105, 106, 107]							L.Haimberger	0
242		0	243	['6:100334']	1				0				19710529	19710529	1	0	63			None									[38, 85, 104, 105, 106, 107, 117]							L.Haimberger	0
243	0-20000-0-47116	0	244	['47116']	1	GWANAKSAN			0	126.96	37.45		19740810	19751230	1	0	63			Seoul									[104, 105, 106, 107, 117]							L.Haimberger	0
244	0-20000-0-48855	0	245	['1:48856']	1	DA NANG			0	108.35	16.07		19660405	19670731	1	0	63			Da Nang									[38, 104, 105, 106, 107]							L.Haimberger	0
245	0-20000-0-21432	0	246	['C:4642']	1	OSTROV KOTEL'NYJ			0	137.87	76.0		19541019	19550422	1	0	63			None									[38, 39, 85, 104, 105, 106, 107, 117]							L.Haimberger	0
246	0-20000-0-89070	0	247	['9:2223']	1	GABRIEL DE CASTILLA			0	-60.68	-62.98		19530102	19580626	1	0	63			None									[104, 105, 106, 107]							L.Haimberger	0
247	0-20000-0-64659	0	248	['64659']	1	OBO			0	26.5	5.4		19740712	19740918	1	0	63			Obo									[36, 38, 39, 85, 104, 105, 106, 107, 117]							L.Haimberger	0
248	0-246-0-101651	0	249	['6:101651']	1	ILOMANTSI MEKRIJARVI			0	30.98	62.77		19710710	19710710	1	0	63			Noumea									[38, 85, 117]							L.Haimberger	0
249	0-20000-0-66215	0	250	['1:66215']	1	MALANGE			0	16.37	-9.55		19660510	19740706	1	0	63			Malanje									[104, 105, 106, 107]							L.Haimberger	0
250	0-20000-0-41749	0	251	['1:41749']	1	NAWABSHAH			0	68.37	26.25		19650904	19771227	1	0	63			Nawabshah									[104, 105, 106, 107]							L.Haimberger	0
251	0-20000-0-61099	0	252	['61099']	1	GAYA (61099-0)			0	3.45	11.88		19740603	19740603	1	0	63			Gaya									[104, 105, 106, 107, 117]							L.Haimberger	0
252	0-20000-0-07412	0	253	['1:7412']	1	COGNAC			0	-0.32	45.66		19691102	19720810	1	0	63			Cognac									[104, 105, 106, 107]							L.Haimberger	0
253	0-20000-0-17200	0	254	['1:17200']	1	MALATYA/ERHAC			0	38.09	38.43		19670513	19680222	1	0	63			Malatya									[104, 105, 106, 107]							L.Haimberger	0
254	0-20000-0-41685	0	255	['41685']	1	BARKHAN			0	69.72	29.88		19730622	19781212	1	0	63			Kohlu									[104, 105, 106, 107, 117]							L.Haimberger	0
255	0-20000-0-37575	0	256	['1:37575']	1	ZAKATALA			0	46.65	41.67		19661202	19771227	1	0	63			Zaqatala									[38, 85, 104, 105, 106, 107, 117]							L.Haimberger	0
256	0-20000-0-62722	0	257	['62722']	1	AROMA			0	36.15	15.83		19740726	19740726	1	0	63			Wagar									[104, 105, 106, 107, 117]							L.Haimberger	0
257	0-20000-0-36535	0	258	['36358']	1	KOKPEKTY			0	82.37	48.75		19680105	19680430	1	0	63			Serebryansk									[36, 38, 39, 85, 104, 105, 106, 107, 117]							L.Haimberger	0
258	0-20000-0-63995	0	259	['61971']	1	ALDABRA			0	46.53	-9.35		19740611	19740910	1	0	63			Domoni									[36, 38, 39, 85, 104, 105, 106, 107, 117]							L.Haimberger	0
259	0-20000-0-38599	0	260	['38599']	1	KHUDJANT			0	69.73	40.22		19740215	19780207	1	0	63			Gafurov									[104, 105, 106, 107, 117]							L.Haimberger	0
260	0-20000-0-61230	0	261	['61230']	1	NIORO DU SAHEL			0	-9.35	15.23		19740922	19740922	1	0	63			Nioro									[36, 38, 39, 85, 104, 105, 106, 107, 117]							L.Haimberger	0
261	0-20000-0-72212	0	262	['72212']	1	CROSS CITY/CROSS CITY A., FL.			0	-83.1	29.62		19680501	19690620	1	0	63			Ocala									[36, 38, 39, 85, 104, 105, 106, 107, 117]							L.Haimberger	0
262	0-20000-0-10146	0	263	['10146']	1	QUICKBORN			0	9.88	53.73		19710720	19710720	1	0	63			None									[36, 38, 39, 85, 104, 105, 106, 107, 117]							L.Haimberger	0
263	0-20000-0-72258	0	264	['2:13907']	1	DALLAS, TX, DALLAS LOVE FIELD ARPT			0	-96.85	32.85		19501218	19521128	1	0	63			Grand Prairie									[104, 105, 106, 107]							L.Haimberger	0
264		0	265	['10106']	1				0				19710627	19710627	1	0	63			None									[36, 38, 39, 85, 104, 105, 106, 107, 117]							L.Haimberger	0
265	0-20000-0-15490	0	266	['1:15490']	1	TURNU-MAGURELE			0	24.88	43.76		19760520	19771222	1	0	63			Turnu Magurele									[104, 105, 106, 107]							L.Haimberger	0
266	0-20000-0-74718	0	267	['23164']	1	SALTON SEA, CA. (AFS)			0	-115.87	33.22		19630930	19640305	1	0	63			Brawley									[36, 38, 39, 85, 104, 105, 106, 107, 117]							L.Haimberger	0
267	0-20000-0-08202	0	268	['08202']	1	SALAMANCA/MATACAN			0	-5.5	40.96		19680116	19760908	1	0	63			Santa Marta De Tormes									[36, 38, 39, 85, 104, 105, 106, 107, 117]							L.Haimberger	0
268	0-20000-0-82975	0	269	['82975']	1	BOM JESUS DO PIAUI (82975-0)			0	-44.37	-9.07		19770502	19781229	1	0	63			Bom Jesus									[104, 105, 106, 107, 117]							L.Haimberger	0
269	0-20000-0-65416	0	270	['65416']	1	BOLE			0	-2.48	9.03		19781219	19781226	1	0	63			Bouna									[104, 105, 106, 107, 117]							L.Haimberger	0
270		0	271	['10633']	1				0				19711113	19711113	1	0	63			None									[36, 38, 39, 85, 104, 105, 106, 107, 117]							L.Haimberger	0
271	0-20000-0-87765	0	272	['87765']	1	BARILOCHE AERO			0	-71.16	-41.15		19570905	19581231	1	0	63			San Carlos De Bariloche									[104, 105, 106, 107, 117]							L.Haimberger	0
272	0-20000-0-64757	0	273	['64757']	1	FADA			0	21.55	17.17		19740730	19740730	1	0	63			Faya									[104, 105, 106, 107, 117]							L.Haimberger	0
273	0-20000-2-29842	0	274	['1:29843']	1	Novokuznetsk			0	87.1	53.9		19550102	19561230	1	0	63			Novokuznetsk									[104, 105, 106, 107, 117]							L.Haimberger	0
274	0-20000-0-14031	0	275	['1:13030']	1	MURSKA SOBOTA			0	16.19	46.65		19570601	19591225	1	0	63			Murska Sobota									[38, 104, 105, 106, 107]							L.Haimberger	0
275	0-20000-0-15145	0	276	['1:15145']	1	TARGU-MURES			0	24.52	46.53		19760125	19771212	1	0	63			Targu-Mures									[104, 105, 106, 107]							L.Haimberger	0
276		0	277	['10829']	1				0				19710517	19711121	1	0	63			Kopavogur									[36, 38, 39, 85, 104, 105, 106, 107, 117]							L.Haimberger	0
277	0-20000-0-08391	0	278	['08391']	1	SEVILLA/SAN PABLO			0	-5.88	37.42		19691106	19701022	1	0	63			Sevilla									[36, 38, 39, 85, 104, 105, 106, 107, 117]							L.Haimberger	0
278	0-20000-0-86580	0	279	['1:86580']	1	CARRASCO			0	-56.01	-34.83		19570705	19670519	1	0	63			Paso De Carrasco									[38, 104, 105, 106, 107]							L.Haimberger	0
279	0-20000-0-40607	0	280	['2:40607']	1	AQRAA			0	43.88	36.75		19580327	19580710	1	0	63			None									[104, 105, 106, 107]							L.Haimberger	0
280	0-20000-0-30729	0	281	['30729']	1	KABANSK			0	106.64	52.05		19620809	19641231	1	0	63			Selenginsk									[36, 38, 39, 85, 104, 105, 106, 107, 117]							L.Haimberger	0
281	0-20000-0-64220	0	282	['64220']	1	KINSHASA/BINZA			0	15.25	-4.37		19750820	19760202	1	0	63			Kinshasa									[36, 38, 39, 85, 104, 105, 106, 107, 117]							L.Haimberger	0
282	0-20000-0-31168	0	283	['C:4606']	1	AYAN			0	138.15	56.45		19541020	19550422	1	0	63			Nikolayevsk-Na-Amure									[38, 39, 85, 104, 105, 106, 107, 117]							L.Haimberger	0
283	0-20000-0-43150	0	284	['43150']	1	VISHAKHAPATNAM/WALTAIR			0	83.3	17.68		19680712	19680712	1	0	63			Visakhapatnam									[36, 38, 39, 85, 104, 105, 106, 107, 117]							L.Haimberger	0
284	0-20000-0-37531	0	285	['1:37420']	1	GORI			0	44.11	42.0		19730306	19750831	1	0	63			Gori									[104, 105, 106, 107]							L.Haimberger	0
285		0	286	['2:3920']	1				0				19520314	19520326	1	0	63			Copperas Cove									[104, 105, 106, 107]							L.Haimberger	0
286		0	287	['1:51701']	1				0				19730103	19760119	1	0	63			At-Bashi									[38, 85, 104, 105, 106, 107, 117]							L.Haimberger	0
287	0-20000-0-82586	0	288	['82586']	1	QUIXERAMOBIM (82586-0)			0	-39.3	-5.2		19740623	19781228	1	0	63			Quixeramobim									[36, 38, 39, 85, 104, 105, 106, 107, 117]							L.Haimberger	0
288	0-20000-0-38687	0	289	['C:4611']	1	TURKMENABAT			0	63.6	39.08		19541019	19550422	1	0	63			Turkmenabat									[38, 39, 85, 104, 105, 106, 107, 117]							L.Haimberger	0
289	0-20000-0-80241	0	290	['1:80241']	1	LAS GAVIOTAS			0	-70.92	4.55		19730607	19731213	1	0	63			Villanueva									[38, 85, 104, 105, 106, 107, 117]							L.Haimberger	0
290	0-20000-0-64560	0	291	['64560']	1	LASTOURVILLE			0	12.72	-0.83		19740808	19740924	1	0	63			Koulamoutou									[36, 38, 39, 85, 104, 105, 106, 107, 117]							L.Haimberger	0
291	0-20000-0-63870	0	292	['63870']	1	ZANZIBAR/KISAUNI			0	39.22	-6.22		19740826	19740826	1	0	63			Zanzibar									[104, 105, 106, 107, 117]							L.Haimberger	0
292	0-20000-0-91631	0	293	['2:80701']	1	NANUMEA			0	176.13	-5.67		19650902	19651022	1	0	63			None									[38, 85, 104, 105, 106, 107, 117]							L.Haimberger	0
293	0-20000-0-25282	0	294	['25282']	1	MYS VANKAREM			0	-175.83	67.83		19740731	19740903	1	0	63			None									[36, 38, 39, 85, 104, 105, 106, 107, 117]							L.Haimberger	0
294	0-20000-0-38232	0	295	['38232']	1	AKKUDUK			0	54.09	42.97		19620315	19691125	1	0	63			Zhanaozen									[36, 38, 39, 85, 104, 105, 106, 107, 117]							L.Haimberger	0
295	0-20000-0-38836	0	296	['C:4671']	1	DUSHANBE			0	68.73	38.58		19570831	19570930	1	0	63			Dushanbe									[38, 39, 85, 104, 105, 106, 107, 117]							L.Haimberger	0
296		0	297	['6:100189']	1				0				19710519	19710710	1	0	63			None									[38, 85, 104, 105, 106, 107, 117]							L.Haimberger	0
297	0-20000-0-87637	0	298	['1:87637']	1	CORONEL SUAREZ AERO			0	-61.89	-37.45		19500101	19560502	1	0	63			Bahia Blanca									[38, 104, 105, 106, 107]							L.Haimberger	0
298		0	299	['6:100712']	1				0				19711101	19711101	1	0	63			Brigantine									[38, 85, 104, 105, 106, 107, 117]							L.Haimberger	0
299		0	300	['57701']	1				0				19621201	19630121	1	0	63			None									[36, 38, 39, 85, 104, 105, 106, 107, 117]							L.Haimberger	0
300	0-20000-0-08314	0	301	['08314']	1	MENORCA/AEROPUERTO			0	4.22	39.85		19700501	19760830	1	0	63			Mahon									[36, 38, 39, 85, 104, 105, 106, 107, 117]							L.Haimberger	0
301	0-20000-0-15080	0	302	['1:15080']	1	ORADEA			0	21.9	47.04		19730323	19771216	1	0	63			Oradea									[38, 85, 104, 105, 106, 107, 117]							L.Haimberger	0
302	0-152-0-85798	0	303	['54701']	1	PUERTO MONTT			0	-73.1	-41.43		19580211	19580228	1	0	63			Puerto Montt									[104, 105, 106, 107, 117]							L.Haimberger	0
303	0-20000-0-87393	0	304	['1:87393']	1	MONTE CASEROS AERO			0	-57.64	-30.26		19500102	19720829	1	0	63			Bella Union									[38, 104, 105, 106, 107]							L.Haimberger	0
304	0-20000-0-64454	0	305	['64454']	1	GAMBOMA			0	15.85	-1.9		19740627	19740627	1	0	63			Gamboma									[104, 105, 106, 107, 117]							L.Haimberger	0
305	0-20000-0-78347	0	306	['78347']	1	CAMILO CIENFUEGOS,  CIEGO DE AVILA			0	-78.75	22.15		19740724	19740724	1	0	63			Moron									[36, 38, 39, 85, 104, 105, 106, 107, 117]							L.Haimberger	0
306	0-20000-0-48877	0	307	['2:41015']	1	NHA TRANG			0	109.22	12.22		19680402	19690604	1	0	63			Cam Ranh									[38, 85, 104, 105, 106, 107, 117]							L.Haimberger	0
307	0-20000-0-80410	0	308	['1:80410']	1	BARQUISIMETO			0	-69.32	10.07		19650613	19720918	1	0	63			Barquisimeto									[104, 105, 106, 107]							L.Haimberger	0
308		0	309	['25621']	1				0				19620311	19631229	1	0	63			None									[36, 38, 39, 85, 104, 105, 106, 107, 117]							L.Haimberger	0
309	0-20000-0-84135	0	310	['84120']	1	PORTOVIEJO			0	-80.46	-1.04		19740619	19740711	1	0	63			Portoviejo									[36, 38, 39, 85, 104, 105, 106, 107, 117]							L.Haimberger	0
310		0	311	['6:100161']	1				0				19710417	19711109	1	0	63			None									[38, 85, 104, 105, 106, 107, 117]							L.Haimberger	0
311	0-20000-0-67241	0	312	['C:4832']	1	LUMBO			0	40.67	-15.03		19560408	19561231	1	0	63			Mocambique									[104, 105, 106, 107]							L.Haimberger	0
312		0	313	['C:4673']	1				0				19560727	19560821	1	0	63			Toktogul									[38, 39, 85, 104, 105, 106, 107, 117]							L.Haimberger	0
313	0-20000-0-63740	0	314	['63740']	1	DAGORETTI CORNER			0	36.76	-1.3		19570901	19581021	1	0	63			Nairobi									[104, 105, 106, 107, 117]							L.Haimberger	0
314		0	315	['99021']	1				0				19700611	19701217	1	0	63			None									[36, 38, 39, 85, 104, 105, 106, 107, 117]							L.Haimberger	0
315		0	316	['2:81412']	1				0				19640115	19640724	1	0	63			Cairns									[38, 85, 104, 105, 106, 107, 117]							L.Haimberger	0
316	0-20000-0-28552	0	317	['1:28552']	1	SADRINSK			0	63.65	56.07		19730502	19771228	1	0	63			Shadrinsk									[38, 85, 104, 105, 106, 107, 117]							L.Haimberger	0
317		0	318	['6:105262']	1				0				19710503	19711028	1	0	63			None									[38, 85, 104, 105, 106, 107, 117]							L.Haimberger	0
318		0	319	['10934']	1				0				19720806	19720806	1	0	63			None									[36, 38, 39, 85, 104, 105, 106, 107, 117]							L.Haimberger	0
319	0-20000-0-78016	0	320	['13602']	1	L F WADE INTERNATIONAL AIRPORT			0	-64.68	32.37		19620706	19620706	1	0	63			None									[36, 38, 39, 85, 104, 105, 106, 107, 117]							L.Haimberger	0
320	0-20000-0-64971	0	321	['64971']	1	KRIBI			0	9.9	2.95		19740904	19740908	1	0	63			Kribi									[104, 105, 106, 107, 117]							L.Haimberger	0
321	0-20000-0-67775	0	322	['1:67775']	1	HARARE (BELVEDERE)			0	31.02	-17.83		19660707	19721227	1	0	63			Chitungwiza									[38, 85, 104, 105, 106, 107, 117]							L.Haimberger	0
322	0-404-300-472781389CO63741	0	323	['63739']	1	DAGORETTI CORNER			0	36.76	-1.3		19740911	19740911	1	0	63			Nairobi									[36, 38, 39, 85, 104, 105, 106, 107, 117]							L.Haimberger	0
323		0	324	['C:4613']	1				0				19541019	19550421	1	0	63			Dudinka									[38, 39, 85, 104, 105, 106, 107, 117]							L.Haimberger	0
324	0-20000-0-48402	0	325	['2:41012']	1	CHAI NAT AGROMET			0	100.19	15.16		19680602	19680605	1	0	63			Takhli									[38, 85, 104, 105, 106, 107, 117]							L.Haimberger	0
325	0-20000-0-64920	0	326	['64920']	1	BAFIA			0	11.25	4.73		19740603	19740603	1	0	63			Bafia									[104, 105, 106, 107, 117]							L.Haimberger	0
326	0-20000-0-07650	0	327	['07650']	1	MARIGNANE			0	5.22	43.44		19620505	19651024	1	0	63			Vitrolles									[36, 38, 39, 85, 104, 105, 106, 107, 117]							L.Haimberger	0
327	0-20000-0-91650	0	328	['2:81705']	1	ROTUMA			0	177.05	-12.5		19651209	19651231	1	0	63			None									[38, 85, 104, 105, 106, 107, 117]							L.Haimberger	0
328	0-20000-0-91568	0	329	['91568']	1	ANEITYUM			0	169.77	-20.23		19700630	19781006	1	0	63			We									[36, 38, 39, 85, 104, 105, 106, 107, 117]							L.Haimberger	0
329		0	330	['2:14793']	1				0				19500126	19500830	1	0	63			Horsham									[104, 105, 106, 107]							L.Haimberger	0
330	0-20000-0-28445	0	331	['C:4655']	1	EKATERINBURG (VERHNEE DUBROVO)			0	61.07	56.73		19541019	19550422	1	0	63			Aramil									[38, 39, 85, 104, 105, 106, 107, 117]							L.Haimberger	0
331	0-20000-0-72408	0	332	['6:110053']	1	PHILADELPHIA/INT., PA.			0	-75.25	39.88		19700723	19710902	1	0	63			Pennsauken									[38, 85, 104, 105, 106, 107, 117]							L.Haimberger	0
332	0-20000-0-31388	0	333	['1:31388']	1	NORSK			0	129.92	52.35		19620818	19680304	1	0	63			Shimanovsk									[104, 105, 106, 107]							L.Haimberger	0
333	0-20000-0-30957	0	334	['30954']	1	AKSA			0	113.27	50.27		19781229	19781229	1	0	63			Aginskoye									[36, 38, 39, 85, 104, 105, 106, 107, 117]							L.Haimberger	0
334	0-20000-0-74370	0	335	['2:14715']	1	FORT DRUM/WHEELER-SACK AAF, NY			0	-75.73	44.05		19530112	19530312	1	0	63			Watertown									[104, 105, 106, 107]							L.Haimberger	0
335	0-20000-0-47688	0	336	['47688']	1	TATEYAMA AB			0	139.83	34.99		19700527	19781227	1	0	63			Tateyama									[36, 38, 39, 85, 104, 105, 106, 107, 117]							L.Haimberger	0
336		0	337	['6:100710']	1				0				19710622	19711006	1	0	63			None									[38, 85, 104, 105, 106, 107, 117]							L.Haimberger	0
337	0-20000-0-47771	0	338	['1:47771']	1	OSAKA INTERNATIONAL AIRPORT			0	135.44	34.78		19501103	19501103	1	0	63			Ikeda									[38, 85, 104, 105, 106, 107, 117]							L.Haimberger	0
338		0	339	['2:3151']	1				0				19640518	19640529	1	0	63			Bullhead City									[38, 85, 104, 105, 106, 107, 117]							L.Haimberger	0
339		0	340	['9:3711']	1				0				19570918	19580815	1	0	63			None									[85, 117]							L.Haimberger	0
340	0-20000-0-63210	0	341	['63210']	1	BOSASO			0	49.18	11.28		19781207	19781207	1	0	63			Bosaso									[36, 38, 39, 85, 104, 105, 106, 107, 117]							L.Haimberger	0
341		0	342	['6:101348']	1				0				19711111	19711111	1	0	63			None									[38, 85, 104, 105, 106, 107, 117]							L.Haimberger	0
342	0-20000-0-58265	0	343	['1:58265']	1	LUSI			0	121.53	32.08		19730121	19751015	1	0	63			Huilong									[38, 85, 104, 105, 106, 107, 117]							L.Haimberger	0
343	0-20000-0-47041	0	344	['2:43235']	1	HAMHEUNG			0	127.55	39.93		19501113	19501205	1	0	63			Linjiang									[104, 105, 106, 107]							L.Haimberger	0
344	0-20000-0-38527	0	345	['38527']	1	DAVALY			0	57.38	40.07		19781229	19781229	1	0	63			Baherden									[36, 38, 39, 85, 104, 105, 106, 107, 117]							L.Haimberger	0
345	0-20000-0-68244	0	346	['68244']	1	SERETSE KHAMA INTERNATIONAL AIRPORT			0	25.92	-24.55		19700408	19760614	1	0	63			Gaborone									[36, 38, 39, 85, 104, 105, 106, 107, 117]							L.Haimberger	0
346	0-20000-0-07434	0	347	['07434']	1	LIMOGES-BELLEGARDE			0	1.18	45.86		19730708	19780612	1	0	63			Limoges									[104, 105, 106, 107, 117]							L.Haimberger	0
347	0-20000-0-30385	0	348	['30385']	1	UST'-NJUKZHA			0	121.5	56.58		19781229	19781229	1	0	63			Neryungri									[36, 38, 39, 85, 104, 105, 106, 107, 117]							L.Haimberger	0
348	0-20000-0-43230	0	349	['2:43230']	1	DAVANGERE			0	75.92	14.5		19510219	19510228	1	0	63			Seoul									[104, 105, 106, 107]							L.Haimberger	0
349		0	350	['C:4682']	1				0				19580702	19580715	1	0	63			Taraz									[38, 39, 85, 104, 105, 106, 107, 117]							L.Haimberger	0
350		0	351	['2:24048']	1				0				19620103	19620103	1	0	63			Sheridan									[38, 85, 104, 105, 106, 107, 117]							L.Haimberger	0
351	0-20000-0-47940	0	352	['47940']	1	NAGO			0	127.97	26.59		19741226	19750415	1	0	63			Nago									[104, 105, 106, 107, 117]							L.Haimberger	0
352	0-20000-0-88963	0	353	['6:88940']	1	BASE ESPERANZA			0	-57.0	-63.4		19530104	19580627	1	0	63			None									[38, 104, 105, 106, 107]							L.Haimberger	0
353		0	354	['C:4690']	1				0				19560320	19560331	1	0	63			Taraz									[38, 39, 85, 104, 105, 106, 107, 117]							L.Haimberger	0
354	0-20000-0-47154	0	355	['1:47154']	1	GUMI			0	128.32	36.13		19620304	19621231	1	0	63			Fukuma									[104, 105, 106, 107]							L.Haimberger	0
355	0-20000-0-63674	0	356	['1:63674']	1	KASESE			0	30.1	0.18		19700319	19770516	1	0	63			Kasese									[38, 85, 104, 105, 106, 107]							L.Haimberger	0
356	0-20000-0-20107	0	357	['C:4545']	1	BARENTSBURG			0	14.22	78.06		19540419	19540921	1	0	63			None									[38, 39, 85, 104, 105, 106, 107, 117]							L.Haimberger	0
357	0-20000-0-72483	0	358	['2:23208']	1	SACRAMENTO/EXECUTIVE CA.			0	-121.5	38.52		19500424	19510214	1	0	63			North Highlands									[104, 105, 106, 107]							L.Haimberger	0
358	0-20000-0-20891	0	359	['C:4617']	1	HATANGA			0	102.47	71.98		19541019	19550422	1	0	63			None									[38, 39, 85, 104, 105, 106, 107, 117]							L.Haimberger	0
359	0-20000-0-12295	0	360	['1:12295']	1	BIALYSTOK			0	23.17	53.11		19731007	19740808	1	0	63			Bialystok									[104, 105, 106, 107]							L.Haimberger	0
360		0	361	['9:3347']	1				0				19500912	19501231	1	0	63			None									[85, 117]							L.Haimberger	0
361	0-20000-0-51431	0	362	['1:51430']	1	YINING			0	81.33	43.95		19570303	19580804	1	0	63			Yining									[38, 85, 104, 105, 106, 107, 117]							L.Haimberger	0
362	0-20000-0-29122	0	363	['29122']	1	KARGASOK			0	80.85	59.07		19650902	19670316	1	0	63			Kolpashevo									[104, 105, 106, 107, 117]							L.Haimberger	0
363	0-20000-0-80438	0	364	['80438']	1	MERIDA			0	-71.18	8.6		19631107	19631219	1	0	63			Kimbe									[36, 38, 39, 85, 104, 105, 106, 107, 117]							L.Haimberger	0
364	0-20000-0-65502	0	365	['65502']	1	OUAHIGOUYA			0	-2.43	13.58		19740624	19740630	1	0	63			Ouahigouya									[104, 105, 106, 107, 117]							L.Haimberger	0
365		0	366	['C:4570']	1				0				19540419	19540922	1	0	63			None									[38, 39, 85, 104, 105, 106, 107, 117]							L.Haimberger	0
366		0	367	['6:100356']	1				0				19710923	19710923	1	0	63			None									[38, 85, 104, 105, 106, 107, 117]							L.Haimberger	0
367	0-20000-0-10954	0	368	['1:10953']	1	ALTENSTADT			0	10.87	47.83		19720908	19721117	1	0	63			Kaufbeuren									[104, 105, 106, 107]							L.Haimberger	0
368	0-20000-0-64655	0	369	['64655']	1	BRIA			0	21.98	6.53		19740714	19740731	1	0	63			Bria									[36, 38, 39, 85, 104, 105, 106, 107, 117]							L.Haimberger	0
369	0-20000-0-10929	0	370	['10929']	1	KONSTANZ			0	9.13	47.7		19720730	19730914	1	0	63			Pascagoula									[36, 38, 39, 85, 104, 105, 106, 107, 117]							L.Haimberger	0
370		0	371	['6:100331']	1				0				19711015	19711015	1	0	63			None									[38, 85, 104, 105, 106, 107, 117]							L.Haimberger	0
371		0	372	['88701']	1				0				19571113	19581010	1	0	63			None									[104, 105, 106, 107, 117]							L.Haimberger	0
372	0-20000-0-60770	0	373	['60770']	1	MEDENINE			0	10.48	33.35		19770531	19780116	1	0	63			Jarjis									[104, 105, 106, 107, 117]							L.Haimberger	0
373		0	374	['1:91254']	1				0				19540120	19540301	1	0	63			None									[38, 85, 104, 105, 106, 107, 117]							L.Haimberger	0
374	0-20000-0-61809	0	375	['1:61809']	1	LABE			0	-12.3	11.32		19650117	19680523	1	0	63			Labe									[104, 105, 106, 107]							L.Haimberger	0
375	0-20000-0-28676	0	376	['28679']	1	PETROPAVLOVSK (28676-0)			0	69.12	54.79		19660610	19680430	1	0	63			Petropavl									[36, 38, 39, 85, 104, 105, 106, 107, 117]							L.Haimberger	0
376		0	377	['10930']	1				0				19710107	19710107	1	0	63			None									[36, 38, 39, 85, 104, 105, 106, 107, 117]							L.Haimberger	0
377	0-20000-0-62440	0	378	['C:4941']	1	ISMAILIA			0	32.25	30.59		19540329	19540329	1	0	63			Ismailia									[104, 105, 106, 107]							L.Haimberger	0
378	0-20000-0-38616	0	379	['C:4678']	1	KARA-SUU			0	72.9	40.7		19570831	19570927	1	0	63			Andijon									[38, 39, 85, 104, 105, 106, 107, 117]							L.Haimberger	0
379	0-20000-0-03136	0	380	['03136']	1	PRESTWICK, GANNET			0	-4.58	55.52		19570901	19570923	1	0	63			Pahrump									[104, 105, 106, 107, 117]							L.Haimberger	0
380	0-705-0-1884	0	381	['9:1884']	1	GORNJI GRAD			0	14.81	46.3		19540703	19570301	1	0	63			Male									[104, 105, 106, 107]							L.Haimberger	0
381	0-20000-0-48375	0	382	['48375']	1	MAE SOT			0	98.54	16.7		19781220	19781220	1	0	63			Mae Sot									[104, 105, 106, 107, 117]							L.Haimberger	0
382	0-20000-0-63866	0	383	['1:63866']	1	MOROGORO			0	37.65	-6.83		19730814	19770708	1	0	63			Morogoro									[104, 105, 106, 107]							L.Haimberger	0
383		0	384	['6:100202']	1				0				19711030	19711030	1	0	63			None									[38, 85, 104, 105, 106, 107, 117]							L.Haimberger	0
384	0-20000-0-70265	0	385	['2:26407']	1	FAIRBANKS/EIELSON AFB			0	-147.07	64.65		19500829	19640713	1	0	63			Fairbanks									[38, 85, 104, 105, 106, 107, 117]							L.Haimberger	0
385	0-20000-0-38687	0	386	['C:4549']	1	TURKMENABAT			0	63.6	39.08		19540419	19540922	1	0	63			Turkmenabat									[38, 39, 85, 104, 105, 106, 107, 117]							L.Haimberger	0
386	0-20000-0-42367	0	387	['1:42367']	1	KANPUR/CHAKERI			0	80.4	26.4		19760910	19771018	1	0	63			Kanpur									[104, 105, 106, 107]							L.Haimberger	0
387		0	388	['2:94142']	1				0				19530512	19530629	1	0	63			Tooele									[104, 105, 106, 107]							L.Haimberger	0
388	0-20000-0-43243	0	389	['43243']	1	KAVALI			0	80.0	14.92		19680719	19701004	1	0	63			Seoul									[36, 38, 39, 85, 104, 105, 106, 107, 117]							L.Haimberger	0
389	0-20000-0-42623	0	390	['6:42623']	1	IMPHAL/TULIHAL			0	93.9	24.77		19641101	19710404	1	0	63			Imphal									[104, 105, 106, 107]							L.Haimberger	0
390	0-20000-0-95719	0	391	['94719']	1	DUBBO AIRPORT AWS			0	148.58	-32.22		19781227	19781227	1	0	63			Dubbo									[104, 105, 106, 107, 117]							L.Haimberger	0
391	0-20000-0-40857	0	392	['C:5535']	1	BUSHEHR			0	50.82	28.9		19520126	19520408	1	0	63			Bushehr									[104, 105, 106, 107]							L.Haimberger	0
392	0-20000-0-42895	0	393	['1:42895']	1	BALASORE			0	86.93	21.52		19770622	19770819	1	0	63			Baleshwar									[38, 85, 104, 105, 106, 107, 117]							L.Haimberger	0
393	0-20000-0-82240	0	394	['82240']	1	PARINTINS (82240-0)			0	-56.73	-2.63		19740706	19740706	1	0	63			Parintins									[36, 38, 39, 85, 104, 105, 106, 107, 117]							L.Haimberger	0
394	0-20000-0-67403	0	395	['67403']	1	KAWAMBWA			0	29.08	-9.8		19740603	19740607	1	0	63			Kawambwa									[36, 38, 39, 85, 104, 105, 106, 107, 117]							L.Haimberger	0
395	0-20000-0-31989	0	396	['1:31989']	1	PREOBRAZHENIE			0	133.9	42.9		19750105	19771110	1	0	63			Partizansk									[38, 85, 104, 105, 106, 107, 117]							L.Haimberger	0
396	0-246-0-101421	0	397	['6:101421']	1	VARKAUS KOLSUANNIEMI			0	27.91	62.32		19710124	19710124	1	0	63			None									[38, 85]							L.Haimberger	0
397	0-20000-0-74671	0	398	['2:13806']	1	FORT CAMPBELL AAF, KY.			0	-87.5	36.67		19510116	19510126	1	0	63			Clarksville									[104, 105, 106, 107]							L.Haimberger	0
398	0-20000-0-10168	0	399	['10168']	1	GOLDBERG			0	12.1	53.61		19711010	19711010	1	0	63			Brigantine									[36, 38, 39, 85, 104, 105, 106, 107, 117]							L.Haimberger	0
399		0	400	['6:100187']	1				0				19710612	19710612	1	0	63			None									[38, 85, 104, 105, 106, 107, 117]							L.Haimberger	0
400		0	401	['15606']	1				0				19570902	19581228	1	0	63			None									[104, 105, 106, 107, 117]							L.Haimberger	0
401	0-20000-0-61450	0	402	['61450']	1	TIDJIKJA			0	-11.43	18.57		19740914	19740914	1	0	63			Atar									[104, 105, 106, 107, 117]							L.Haimberger	0
402		0	403	['6:109565']	1				0				19710406	19710406	1	0	63			None									[38, 85, 104, 105, 106, 107, 117]							L.Haimberger	0
403	0-20000-0-80403	0	404	['80403']	1	CORO			0	-69.68	11.42		19740701	19740819	1	0	63			Coro									[36, 38, 39, 85, 104, 105, 106, 107, 117]							L.Haimberger	0
404	0-20000-0-48377	0	405	['48377']	1	BHUMIBOL DAM			0	99.0	17.24		19781223	19781223	1	0	63			Ban Tak									[104, 105, 106, 107, 117]							L.Haimberger	0
405	0-20000-0-48698	0	406	['6:48698']	1	SINGAPORE/CHANGI AIRPORT			0	103.98	1.37		19710616	19711114	1	0	63			Pasir Gudang									[104, 105, 106, 107]							L.Haimberger	0
406	0-20000-0-15302	0	407	['1:15302']	1	PREDEAL			0	25.58	45.51		19760204	19771231	1	0	63			Rasnov									[104, 105, 106, 107]							L.Haimberger	0
407	0-20000-0-07168	0	408	['1:7160']	1	TROYES-BARBEREY			0	4.02	48.32		19691115	19720817	1	0	63			Romilly-Sur-Seine									[38, 85, 104, 105, 106, 107, 117]							L.Haimberger	0
408	0-20000-0-47629	0	409	['47629']	1	MITO			0	140.47	36.38		19691019	19701229	1	0	63			Oarai									[36, 38, 39, 85, 104, 105, 106, 107, 117]							L.Haimberger	0
409	0-20000-0-47642	0	410	['2:43313']	1	YOKOTA			0	139.35	35.75		19501126	19540513	1	0	63			Fussa									[104, 105, 106, 107]							L.Haimberger	0
410	0-20000-0-41517	0	411	['41517']	1	SKARDU			0	75.68	35.3		19760202	19781228	1	0	63			Hunza									[104, 105, 106, 107, 117]							L.Haimberger	0
411	0-20000-0-10963	0	412	['10963']	1	GARMISCH-PARTENKIRCHEN			0	11.06	47.48		19710721	19710721	1	0	63			None									[36, 38, 39, 85, 104, 105, 106, 107, 117]							L.Haimberger	0
412		0	413	['10041']	1				0				19710501	19711109	1	0	63			None									[36, 38, 39, 85, 104, 105, 106, 107, 117]							L.Haimberger	0
413	0-20000-0-87774	0	414	['1:87774']	1	MAQUINCHAO			0	-68.71	-41.24		19570726	19581225	1	0	63			San Carlos De Bariloche									[38, 104, 105, 106, 107]							L.Haimberger	0
414	0-20000-0-92076	0	415	['2:80516']	1	KAVIENG W.O.			0	150.82	-2.57		19630611	19630709	1	0	63			Kavieng									[38, 85, 104, 105, 106, 107, 117]							L.Haimberger	0
415		0	416	['2:93036']	1				0				19540113	19540326	1	0	63			Golden									[104, 105, 106, 107]							L.Haimberger	0
416	0-20000-0-61934	0	417	['61934']	1	PRINCIPE			0	7.42	1.65		19740810	19740810	1	0	63			Bata									[36, 38, 39, 85, 104, 105, 106, 107, 117]							L.Haimberger	0
417	0-20000-0-30758	0	418	['C:4612']	1	CHITA			0	113.48	52.08		19541019	19550422	1	0	63			Chita									[38, 39, 85, 104, 105, 106, 107, 117]							L.Haimberger	0
418	0-20000-0-32071	0	419	['32071']	1	TYMOVSKOE			0	142.72	50.73		19750131	19750131	1	0	63			Aleksandrovsk-Sakhalinskiy									[36, 38, 39, 85, 104, 105, 106, 107, 117]							L.Haimberger	0
419	0-20000-0-41196	0	420	['C:5552']	1	SHARJAH INTERNATIONAL AIRPORT			0	55.52	25.33		19520126	19520126	1	0	63			Sharjah									[104, 105, 106, 107]							L.Haimberger	0
420	0-20000-0-64210	0	421	['1:64210']	1	KINSHASA/N'DJILI			0	15.43	-4.38		19660608	19730706	1	0	63			Kinshasa									[38, 85, 104, 105, 106, 107, 117]							L.Haimberger	0
421		0	422	['6:100160']	1				0				19710510	19711030	1	0	63			None									[38, 85, 104, 105, 106, 107, 117]							L.Haimberger	0
422	0-20000-0-64452	0	423	['64452']	1	M'POUYA			0	16.22	-2.62		19740712	19740901	1	0	63			Bolobo									[36, 38, 39, 85, 104, 105, 106, 107, 117]							L.Haimberger	0
423	0-20000-0-17607	0	424	['17607']	1	ATHALASSA			0	33.4	35.14		19690602	19691028	1	0	63			Nicosia									[36, 38, 39, 85, 104, 105, 106, 107, 117]							L.Haimberger	0
424	0-20000-0-33946	0	425	['C:4586']	1	Simferopol			0	33.97	45.04		19540419	19540922	1	0	63			Bakhchysaray									[38, 39, 85, 104, 105, 106, 107, 117]							L.Haimberger	0
425	0-20000-0-64707	0	426	['64707']	1	MOUSSORO			0	16.5	13.65		19740724	19740724	1	0	63			Moussoro									[104, 105, 106, 107, 117]							L.Haimberger	0
426	0-20000-0-07139	0	427	['07139']	1	ALENCON			0	0.11	48.45		19680401	19780612	1	0	63			Alencon									[36, 38, 39, 85, 104, 105, 106, 107, 117]							L.Haimberger	0
427	0-20000-0-72290	0	428	['2:23196']	1	SAN DIEGO/LINDBERGH,  CA.			0	-117.17	32.73		19550712	19550928	1	0	63			Tijuana									[104, 105, 106, 107]							L.Haimberger	0
428	0-20000-0-87374	0	429	['87374']	1	PARANA AERO			0	-60.48	-31.79		19570901	19571012	1	0	63			Parana									[104, 105, 106, 107, 117]							L.Haimberger	0
429	0-20000-0-40582	0	430	['1:40582']	1	KUWAIT INTERNATIONAL AIRPORT (40582-1)			0	47.97	29.24		19680129	19691229	1	0	63			Bayan									[38, 85, 104, 105, 106, 107, 117]							L.Haimberger	0
430	0-20000-0-74509	0	431	['1:74505']	1	MOUNTAIN VIEW (SUNNY-VALE)/MOFFETT NAS,  CA.			0	-122.05	37.42		19711013	19720628	1	0	63			San Jose									[38, 85, 104, 105, 106, 107, 117]							L.Haimberger	0
431	0-20000-0-65010	0	432	['65010']	1	SOKOTO			0	5.25	13.02		19740715	19740823	1	0	63			Sokoto									[36, 38, 39, 85, 104, 105, 106, 107, 117]							L.Haimberger	0
432	0-20000-0-31532	0	433	['31532']	1	CEKUNDA			0	132.25	50.87		19781202	19781202	1	0	63			Chegdomyn									[36, 38, 39, 85, 104, 105, 106, 107, 117]							L.Haimberger	0
433		0	434	['6:102022']	1				0				19710513	19710517	1	0	63			None									[38, 85, 104, 105, 106, 107, 117]							L.Haimberger	0
434	0-20000-0-89601	0	435	['9:4118']	1	OAZIC BANGERA			0	100.75	-66.27		19570630	19581117	1	0	63			None									[85, 117]							L.Haimberger	0
435	0-20000-0-43110	0	436	['1:43110']	1	RATNAGIRI			0	73.33	16.98		19730810	19750831	1	0	63			Ratnagiri									[104, 105, 106, 107]							L.Haimberger	0
436		0	437	['2:3139']	1				0				19580203	19581031	1	0	63			Sunrise Manor									[104, 105, 106, 107]							L.Haimberger	0
437	0-20000-0-30823	0	438	['1:30823']	1	ULAN-UDE			0	107.6	51.83		19620809	19680831	1	0	63			Ulan-Ude									[104, 105, 106, 107]							L.Haimberger	0
438	0-246-0-101398	0	439	['6:101398']	1	MIKKELI AIRPORT			0	27.2	61.69		19710503	19710503	1	0	63			None									[38, 85, 104, 105, 106, 107, 117]							L.Haimberger	0
439	0-20000-0-03153	0	440	['03153']	1	DUNDRENNAN			0	-4.01	54.8		19650516	19650528	1	0	63			Lake Forest									[36, 38, 39, 85, 104, 105, 106, 107, 117]							L.Haimberger	0
440		0	441	['6:101400']	1				0				19710227	19710923	1	0	63			None									[38, 85, 104, 105, 106, 107, 117]							L.Haimberger	0
441	0-20000-0-74413	0	442	['74413']	1	SAYLOR CREEK GUNNERY RANGE, ID.			0	-115.7	42.53		19700212	19730824	1	0	63			Mountain Home									[36, 38, 39, 85, 104, 105, 106, 107, 117]							L.Haimberger	0
442	0-20000-0-87480	0	443	['1:87480']	1	ROSARIO AERO			0	-60.78	-32.91		19500630	19540812	1	0	63			Rosario									[38, 104, 105, 106, 107]							L.Haimberger	0
443	0-20000-0-37815	0	444	['1:37815']	1	MASRIK			0	45.76	40.21		19691023	19701027	1	0	63			Martuni									[104, 105, 106, 107]							L.Haimberger	0
444		0	445	['2:23008']	1				0				19530626	19550430	1	0	63			Clovis									[104, 105, 106, 107]							L.Haimberger	0
445	0-20000-0-82824	0	446	['82824']	1	PORTO VELHO (AERO)			0	-63.92	-8.77		19771001	19781229	1	0	63			Porto Velho									[104, 105, 106, 107, 117]							L.Haimberger	0
446	0-20000-0-30692	0	447	['C:4647']	1	SKOVORODINO			0	123.97	54.0		19541019	19550422	1	0	63			Skovorodino									[38, 39, 85, 104, 105, 106, 107, 117]							L.Haimberger	0
447	0-20000-0-70162	0	448	['2:26537']	1	UMIAT			0	-152.13	69.37		19540501	19540804	1	0	63			College									[104, 105, 106, 107]							L.Haimberger	0
448	0-20000-0-83498	0	449	['1:83498']	1	CARAVELAS (83498-0)			0	-39.25	-17.73		19720804	19721127	1	0	63			Caravelas									[38, 85, 104, 105, 106, 107, 117]							L.Haimberger	0
449	0-20000-0-41923	0	450	['1:41920']	1	DHAKA			0	90.38	23.77		19620701	19630131	1	0	63			Dhaka									[38, 85, 117]							L.Haimberger	0
450	0-20000-0-64456	0	451	['64456']	1	MAKOUA			0	15.65	-0.02		19740619	19740619	1	0	63			Owando									[36, 38, 39, 85, 104, 105, 106, 107, 117]							L.Haimberger	0
451		0	452	['6:104655']	1				0				19711121	19711121	1	0	63			None									[38, 85, 104, 105, 106, 107, 117]							L.Haimberger	0
452	0-20000-0-64405	0	453	['64405']	1	SIBITI			0	13.35	-3.68		19740625	19740828	1	0	63			Sibiti									[36, 38, 39, 85, 104, 105, 106, 107, 117]							L.Haimberger	0
453	0-20000-0-65557	0	454	['65557']	1	GAGNOA			0	-5.95	6.13		19740618	19740920	1	0	63			Gagnoa									[36, 38, 39, 85, 104, 105, 106, 107, 117]							L.Haimberger	0
454	0-20000-0-80234	0	455	['80234']	1	VILLAVICENCIO/VANGUARDIA			0	-73.62	4.17		19740920	19740920	1	0	63			Villavicencio									[104, 105, 106, 107, 117]							L.Haimberger	0
455		0	456	['6:105261']	1				0				19711010	19711010	1	0	63			None									[38, 85, 104, 105, 106, 107, 117]							L.Haimberger	0
456	0-20000-0-93891	0	457	['9:1491']	1	DUNEDIN AERO AWS			0	170.2	-45.93		19491231	19550331	1	0	63			Dunedin									[104, 105, 106, 107]							L.Haimberger	0
457	0-20000-0-38457	0	458	['C:4591']	1	TASHKENT			0	69.3	41.33		19540419	19540922	1	0	63			Tashkent									[38, 39, 85, 104, 105, 106, 107, 117]							L.Haimberger	0
458	0-20000-0-15410	0	459	['1:15410']	1	DROBETA-TURNU SEVERIN			0	22.63	44.63		19730523	19771223	1	0	63			Drobeta-Turnu Severin									[38, 85, 104, 105, 106, 107, 117]							L.Haimberger	0
459	0-20000-0-78730	0	460	['6:78730']	1	PUERTO CABEZAS			0	-83.63	14.07		19670810	19720415	1	0	63			Puerto Cabezas									[104, 105, 106, 107]							L.Haimberger	0
460		0	461	['1:46746']	1				0				19741216	19760114	1	0	63			Taipao									[38, 85, 104, 105, 106, 107, 117]							L.Haimberger	0
461	0-20000-0-37897	0	462	['37897']	1	SISIAN			0	46.03	39.52		19620507	19781231	1	0	63			Sisian									[36, 38, 39, 85, 104, 105, 106, 107, 117]							L.Haimberger	0
462	0-20000-0-41907	0	463	['41855']	1	ISHWARDI			0	89.05	24.13		19691017	19781226	1	0	63			Ishurdi									[36, 38, 39, 85, 104, 105, 106, 107, 117]							L.Haimberger	0
463	0-20000-0-22113	0	464	['C:4630']	1	MURMANSK (22113-0)			0	33.04	68.96		19541019	19550422	1	0	63			Murmansk									[38, 39, 85, 104, 105, 106, 107, 117]							L.Haimberger	0
464	0-20000-0-95717	0	465	['94717']	1	PARKES AIRPORT AWS			0	148.24	-33.13		19740507	19740507	1	0	63			Parkes									[104, 105, 106, 107, 117]							L.Haimberger	0
465	0-20000-0-61666	0	466	['61666']	1	DIOURBEL			0	-16.23	14.65		19740612	19740612	1	0	63			Diourbel									[36, 38, 39, 85, 104, 105, 106, 107, 117]							L.Haimberger	0
466	0-20000-0-47671	0	467	['1:47671']	1	TOKYO INTERNATIONAL AIRPORT			0	139.78	35.55		19500508	19500518	1	0	63			Kawasaki									[38, 104, 105, 106, 107]							L.Haimberger	0
467	0-20000-0-74788	0	468	['2:12810']	1	TAMPA BAY AREA, FL.			0	-82.4	27.71		19510702	19510728	1	0	63			Tampa									[104, 105, 106, 107]							L.Haimberger	0
468	0-20000-0-72698	0	469	['72698']	1	PORTLAND/INT., OR.			0	-122.6	45.6		19721031	19730618	1	0	63			Vancouver									[36, 38, 39, 85, 104, 105, 106, 107, 117]							L.Haimberger	0
469		0	470	['6:100407']	1				0				19710513	19711119	1	0	63			None									[38, 85, 104, 105, 106, 107, 117]							L.Haimberger	0
470		0	471	['10493']	1				0				19710415	19710515	1	0	63			None									[36, 38, 39, 85, 104, 105, 106, 107, 117]							L.Haimberger	0
471	0-20000-0-48992	0	472	['48992']	1	KOMPONG SPEU			0	104.57	11.47		19741205	19750413	1	0	63			Phnum Penh									[104, 105, 106, 107, 117]							L.Haimberger	0
472	0-246-0-100951	0	473	['6:100951']	1	KEMIONSAARI KEMIO			0	22.76	60.17		19720713	19720713	1	0	63			Kushima									[38, 85, 117]							L.Haimberger	0
473	0-20000-0-14445	0	474	['13333']	1	SPLIT/MARJAN			0	16.43	43.51		19691031	19710626	1	0	63			Split									[36, 38, 39, 85, 104, 105, 106, 107, 117]							L.Haimberger	0
474		0	475	['6:108661']	1				0				19711021	19711125	1	0	63			None									[38, 85, 104, 105, 106, 107, 117]							L.Haimberger	0
475	0-20000-0-81415	0	476	['1:81415']	1	MARIPASOULA			0	-54.03	3.64		19660302	19711110	1	0	63			Kourou									[38, 85, 104, 105, 106, 107, 117]							L.Haimberger	0
476	0-20000-0-62366	0	477	['C:4950']	1	HELWAN			0	31.35	29.86		19510715	19540819	1	0	63			Cairo									[104, 105, 106, 107]							L.Haimberger	0
477	0-20000-0-30815	0	478	['1:30812']	1	HAMAR-DABAN			0	103.6	51.53		19620809	19680627	1	0	63			Slyudyanka									[104, 105, 106, 107]							L.Haimberger	0
478	0-20000-0-87374	0	479	['1:87374']	1	PARANA AERO			0	-60.48	-31.79		19520902	19571012	1	0	63			Parana									[38, 104, 105, 106, 107]							L.Haimberger	0
479	0-20000-0-64751	0	480	['64751']	1	ATI			0	18.32	13.22		19740623	19740912	1	0	63			Ati									[36, 38, 39, 85, 104, 105, 106, 107, 117]							L.Haimberger	0
480	0-20000-0-62733	0	481	['62733']	1	HALFA EL GAIDIDA			0	35.6	15.32		19740820	19740820	1	0	63			Kassala									[36, 38, 39, 85, 104, 105, 106, 107, 117]							L.Haimberger	0
481		0	482	['2:30404']	1				0				19650721	19650909	1	0	63			Xuddur									[38, 85, 104, 105, 106, 107, 117]							L.Haimberger	0
482	0-20000-0-10860	0	483	['10862']	1	INGOLSTADT (FLUGPLATZ)			0	11.54	48.71		19740207	19781228	1	0	63			Abensberg									[104, 105, 106, 107, 117]							L.Haimberger	0
483	0-20000-0-78073	0	484	['78074']	1	NASSAU AIRPORT NEW PROVIDENCE			0	-77.47	25.05		19620306	19630828	1	0	63			Nassau									[36, 38, 39, 85, 104, 105, 106, 107, 117]							L.Haimberger	0
484	0-20000-0-76491	0	485	['1:76491']	1	CIUDAD VICTORIA, TAMPS.			0	-99.17	23.74		19500401	19620830	1	0	63			Gonzalez									[38, 85, 104, 105, 106, 107, 117]							L.Haimberger	0
485	0-20000-0-31909	0	486	['C:4652']	1	TERNEJ			0	136.6	45.0		19541019	19550422	1	0	63			Dalnegorsk									[38, 39, 85, 104, 105, 106, 107, 117]							L.Haimberger	0
486		0	487	['6:104930']	1				0				19710415	19710515	1	0	63			None									[38, 85, 104, 105, 106, 107, 117]							L.Haimberger	0
487	0-20000-0-62318	0	488	['C:4942']	1	NOUZHA			0	29.95	31.18		19511101	19511221	1	0	63			Alexandria									[104, 105, 106, 107]							L.Haimberger	0
488		0	489	['03138']	1				0				19570901	19570923	1	0	63			Pahrump									[104, 105, 106, 107, 117]							L.Haimberger	0
489	0-20000-0-15090	0	490	['1:15090']	1	IASI			0	27.63	47.16		19730327	19771230	1	0	63			Iasi									[104, 105, 106, 107]							L.Haimberger	0
490		0	491	['6:100480']	1				0				19710421	19711109	1	0	63			None									[38, 85, 104, 105, 106, 107, 117]							L.Haimberger	0
491		0	492	['2:3150']	1				0				19640522	19640525	1	0	63			Lake Havasu City									[38, 85, 104, 105, 106, 107, 117]							L.Haimberger	0
492	0-20000-0-65167	0	493	['1:65167']	1	YOLA			0	12.47	9.23		19630801	19751218	1	0	63			Yola									[104, 105, 106, 107]							L.Haimberger	0
493	0-20000-0-88963	0	494	['88940']	1	BASE ESPERANZA			0	-57.0	-63.4		19571204	19580627	1	0	63			None									[104, 105, 106, 107, 117]							L.Haimberger	0
494		0	495	['6:100016']	1				0				19710519	19710806	1	0	63			None									[38, 85, 104, 105, 106, 107, 117]							L.Haimberger	0
495	0-20000-0-91690	0	496	['1:91690']	1	LAUTHALA BAY			0	178.45	-18.15		19690309	19710813	1	0	63			None									[38, 85, 104, 105, 106, 107, 117]							L.Haimberger	0
496	0-20000-0-56786	0	497	['56786']	1	ZHANYI			0	103.83	25.58		19580608	19591231	1	0	63			Qujing									[36, 38, 39, 85, 104, 105, 106, 107, 117]							L.Haimberger	0
497		0	498	['2:82409']	1				0				19640602	19640720	1	0	63			Townsville									[38, 85, 104, 105, 106, 107, 117]							L.Haimberger	0
498	0-20000-0-15247	0	499	['1:15247']	1	TIMISOARA			0	21.26	45.77		19760125	19771212	1	0	63			Timisoara									[104, 105, 106, 107]							L.Haimberger	0
499	0-20000-0-74545	0	500	['6:74545']	1	SMOKEY HILL GUNNERY RANGE, KS.			0	-97.8	38.65		19700526	19720515	1	0	63			Salina									[104, 105, 106, 107]							L.Haimberger	0
500	0-20000-0-08391	0	501	['1:8391']	1	SEVILLA/SAN PABLO			0	-5.88	37.42		19691106	19701022	1	0	63			Sevilla									[104, 105, 106, 107]							L.Haimberger	0
501	0-20000-0-92076	0	502	['80516']	1	KAVIENG W.O.			0	150.82	-2.57		19630611	19630709	1	0	63			Kavieng									[36, 38, 39, 85, 104, 105, 106, 107, 117]							L.Haimberger	0
502	0-20000-0-10526	0	503	['10526']	1	BAD MARIENBERG			0	7.96	50.66		19710503	19711028	1	0	63			None									[36, 38, 39, 85, 104, 105, 106, 107, 117]							L.Haimberger	0
503	0-20000-0-41506	0	504	['41506']	1	CHITRAL			0	71.83	35.85		19730620	19781231	1	0	63			Chitral									[104, 105, 106, 107, 117]							L.Haimberger	0
504	0-20000-0-20292	0	505	['C:4631']	1	GMO IM.E.K. FEDOROVA			0	104.29	77.71		19541019	19550421	1	0	63			None									[38, 39, 85, 104, 105, 106, 107, 117]							L.Haimberger	0
505	0-20000-0-20353	0	506	['C:4634']	1	MYS ZELANIYA			0	68.55	76.95		19541019	19550422	1	0	63			None									[38, 39, 85, 104, 105, 106, 107, 117]							L.Haimberger	0
506	0-20000-0-91554	0	507	['1:91554']	1	PEKOA AIRPORT (SANTO)			0	167.22	-15.52		19660513	19721229	1	0	63			Luganville									[104, 105, 106, 107]							L.Haimberger	0
507	0-20000-0-91650	0	508	['81705']	1	ROTUMA			0	177.05	-12.5		19651209	19651231	1	0	63			None									[36, 38, 39, 85, 104, 105, 106, 107, 117]							L.Haimberger	0
508	0-20000-0-15350	0	509	['15350']	1	BUZAU			0	26.85	45.13		19730719	19781228	1	0	63			Buzau									[104, 105, 106, 107, 117]							L.Haimberger	0
509	0-20000-0-94266	0	510	['81411']	1	NORMANTON AIRPORT			0	141.07	-17.69		19640219	19640423	1	0	63			Mount Isa									[36, 38, 39, 85, 104, 105, 106, 107, 117]							L.Haimberger	0
510		0	511	['10465']	1				0				19711021	19711121	1	0	63			None									[36, 38, 39, 85, 104, 105, 106, 107, 117]							L.Haimberger	0
511	0-20000-0-72561	0	512	['94007']	1	SIDNEY/MUN., NE.			0	-102.98	41.1		19570901	19570915	1	0	63			Sterling									[36, 38, 39, 85, 104, 105, 106, 107, 117]							L.Haimberger	0
512	0-20000-0-76499	0	513	['76499']	1	SOTO LA MARINA,  TAMPS.			0	-98.21	23.76		19630402	19680817	1	0	63			Aldama									[36, 38, 39, 85, 104, 105, 106, 107, 117]							L.Haimberger	0
513	0-20000-0-78700	0	514	['1:78700']	1	AMAPALA			0	-87.65	13.27		19570705	19581111	1	0	63			San Lorenzo									[38, 104, 105, 106, 107]							L.Haimberger	0
514	0-20000-0-85201	0	515	['85203']	1	LA PAZ/ALTO			0	-68.18	-16.52		19680109	19710513	1	0	63			La Paz									[36, 38, 39, 85, 104, 105, 106, 107, 117]							L.Haimberger	0
515	0-20000-0-65271	0	516	['65271']	1	MAKURDI			0	8.53	7.73		19631122	19770107	1	0	63			Makurdi									[36, 38, 39, 85, 104, 105, 106, 107, 117]							L.Haimberger	0
516	0-20000-0-78108	0	517	['1:78107']	1	ABRAHAM'S BAY, MAYAGUANA			0	-73.02	22.38		19620304	19650724	1	0	63			Port-De-Paix									[38, 85, 104, 105, 106, 107, 117]							L.Haimberger	0
517	0-20000-0-10856	0	518	['2:34169']	1	ALTENSTADT			0	10.87	47.83		19520306	19520730	1	0	63			Landsberg									[104, 105, 106, 107]							L.Haimberger	0
518	0-20000-0-63682	0	519	['63682']	1	JINJA			0	33.18	0.45		19740603	19740603	1	0	63			Bugembe									[36, 38, 39, 85, 104, 105, 106, 107, 117]							L.Haimberger	0
519	0-20000-0-13586	0	520	['1:13586']	1	SKOPJE PETROVEC			0	21.65	41.97		19710710	19771021	1	0	63			Skopje									[38, 85, 104, 105, 106, 107, 117]							L.Haimberger	0
520	0-20000-0-87909	0	521	['1:87909']	1	SAN JULIAN AERO			0	-67.8	-49.31		19500101	19550729	1	0	63			Rio Gallegos									[38, 104, 105, 106, 107]							L.Haimberger	0
521	0-20000-0-31416	0	522	['1:31416']	1	IM POLINY OSIPENKO			0	136.5	52.42		19620818	19680303	1	0	63			Solnechnyy									[104, 105, 106, 107]							L.Haimberger	0
522		0	523	['6:100355']	1				0				19710509	19710728	1	0	63			None									[38, 85, 104, 105, 106, 107, 117]							L.Haimberger	0
523	0-20000-0-63791	0	524	['1:63791']	1	KILIMANJARO INT			0	37.06	-3.42		19760120	19771228	1	0	63			Kingori									[104, 105, 106, 107]							L.Haimberger	0
524		0	525	['2:13707']	1				0				19510605	19530129	1	0	63			Dover									[104, 105, 106, 107]							L.Haimberger	0
525	0-20000-0-30731	0	526	['1:30731']	1	GORJACINSK			0	108.29	52.99		19620815	19641124	1	0	63			Onokhoy									[104, 105, 106, 107]							L.Haimberger	0
526		0	527	['C:4618']	1				0				19541019	19550422	1	0	63			Abay									[38, 39, 85, 104, 105, 106, 107, 117]							L.Haimberger	0
527	0-20000-0-54324	0	528	['1:54326']	1	CHAOYANG			0	120.45	41.55		19590921	19771203	1	0	63			Beipiao									[38, 85, 104, 105, 106, 107, 117]							L.Haimberger	0
528		0	529	['2:3117']	1				0				19511012	19511129	1	0	63			Cedar City									[104, 105, 106, 107]							L.Haimberger	0
529		0	530	['6:100192']	1				0				19710923	19711006	1	0	63			None									[38, 85, 104, 105, 106, 107, 117]							L.Haimberger	0
530	0-20000-0-48402	0	531	['41012']	1	CHAI NAT AGROMET			0	100.19	15.16		19680602	19680605	1	0	63			Takhli									[36, 38, 39, 85, 104, 105, 106, 107, 117]							L.Haimberger	0
531	0-20000-0-40255	0	532	['40255']	1	IRBED			0	35.85	32.55		19780705	19781231	1	0	63			Irbid									[104, 105, 106, 107, 117]							L.Haimberger	0
532		0	533	['2:80436']	1				0				19630106	19630417	1	0	63			Kimbe									[38, 85, 104, 105, 106, 107, 117]							L.Haimberger	0
533	0-20000-0-65064	0	534	['65064']	1	NGURU			0	10.47	12.88		19740718	19740718	1	0	63			Nguru									[36, 38, 39, 85, 104, 105, 106, 107, 117]							L.Haimberger	0
534	0-20000-0-30758	0	535	['C:4550']	1	CHITA			0	113.48	52.08		19540419	19540922	1	0	63			Chita									[38, 39, 85, 104, 105, 106, 107, 117]							L.Haimberger	0
535	0-20000-0-28445	0	536	['1:28445']	1	EKATERINBURG (VERHNEE DUBROVO)			0	61.07	56.73		19530219	19571211	1	0	63			Aramil									[38, 85, 104, 105, 106, 107, 117]							L.Haimberger	0
536	0-20000-0-89070	0	537	['88938']	1	GABRIEL DE CASTILLA			0	-60.68	-62.98		19570923	19580626	1	0	63			None									[104, 105, 106, 107, 117]							L.Haimberger	0
537	0-20000-0-07627	0	538	['07627']	1	SAINT GIRONS			0	1.11	43.01		19691102	19780612	1	0	63			Saint-Gaudens									[36, 38, 39, 85, 104, 105, 106, 107, 117]							L.Haimberger	0
538		0	539	['12103']	1				0				19750727	19770702	1	0	63			Kushima									[36, 38, 39, 85, 104, 105, 106, 107, 117]							L.Haimberger	0
539	0-20000-0-78361	0	540	['78361']	1	JUCARITO, GRANMA			0	-76.9	20.67		19740821	19740821	1	0	63			Banes									[36, 38, 39, 85, 104, 105, 106, 107, 117]							L.Haimberger	0
540	0-20000-0-08314	0	541	['1:8314']	1	MENORCA/AEROPUERTO			0	4.22	39.85		19700501	19711117	1	0	63			Mahon									[104, 105, 106, 107]							L.Haimberger	0
541	0-20000-0-47580	0	542	['44403']	1	MISAWA AB			0	141.37	40.71		19570901	19580220	1	0	63			Misawa									[104, 105, 106, 107, 117]							L.Haimberger	0
542	0-20000-0-24959	0	543	['C:4598']	1	JAKUTSK			0	129.72	62.02		19540419	19540922	1	0	63			Markha									[38, 39, 85, 104, 105, 106, 107, 117]							L.Haimberger	0
543		0	544	['20047']	1				0				19570902	19610312	1	0	63			None									[36, 38, 39, 85, 104, 105, 106, 107, 117]							L.Haimberger	0
544	0-20000-0-62336	0	545	['62336']	1	EL ARISH-AGRIMET			0	33.82	31.09		19630705	19650317	1	0	63			Ashqelon									[36, 38, 39, 85, 104, 105, 106, 107, 117]							L.Haimberger	0
545	0-20000-0-12822	0	546	['12822']	1	GYOR			0	17.68	47.72		19730706	19740304	1	0	63			Gyor									[104, 105, 106, 107, 117]							L.Haimberger	0
546	0-20000-0-43185	0	547	['43185']	1	MACHILIPATNAM/FRANCHPET			0	81.15	16.2		19600707	19610719	1	0	63			Machilipatnam									[104, 105, 106, 107, 117]							L.Haimberger	0
547	0-20000-0-76750	0	548	['1:76750']	1	CHETUMAL, Q.R.			0	-88.33	18.5		19620309	19671229	1	0	63			Chetumal									[104, 105, 106, 107]							L.Haimberger	0
548	0-20000-0-58911	0	549	['1:58912']	1	CHANGTING			0	116.37	25.85		19600601	19610314	1	0	63			Yongan									[38, 85, 104, 105, 106, 107, 117]							L.Haimberger	0
549	0-20000-0-72772	0	550	['24144']	1	HELENA/COUNTY-CITY,  MT.			0	-112.0	46.6		19570901	19571130	1	0	63			Helena									[104, 105, 106, 107, 117]							L.Haimberger	0
550	0-20000-0-80453	0	551	['80453']	1	TUMEREMO			0	-61.45	7.3		19740724	19781222	1	0	63			Upata									[36, 38, 39, 85, 104, 105, 106, 107, 117]							L.Haimberger	0
551	0-20000-0-17124	0	552	['17124']	1	ESKISEHIR HAVALIMANI			0	30.58	39.78		19670513	19680222	1	0	63			Eskisehir									[36, 38, 39, 85, 104, 105, 106, 107, 117]							L.Haimberger	0
552	0-20000-0-65271	0	553	['1:65271']	1	MAKURDI			0	8.53	7.73		19631122	19710918	1	0	63			Makurdi									[104, 105, 106, 107]							L.Haimberger	0
553	0-20000-0-74777	0	554	['2:3862']	1	VALPARAISO/EGLIN AFB, FL.			0	-86.52	30.48		19601005	19640929	1	0	63			Wright									[104, 105, 106, 107]							L.Haimberger	0
554	0-20000-0-72293	0	555	['2:93107']	1	SAN DIEGO/MIRAMAR,  NAS, CA.			0	-117.12	32.83		19500308	19540301	1	0	63			Poway									[104, 105, 106, 107]							L.Haimberger	0
555	0-20000-0-23933	0	556	['C:4645']	1	HANTY-MANSIJSK			0	69.12	61.03		19541020	19550422	1	0	63			Nefteyugansk									[38, 39, 85, 104, 105, 106, 107, 117]							L.Haimberger	0
556	0-20000-0-48351	0	557	['48351']	1	UTTARADIT			0	100.1	17.62		19740111	19740207	1	0	63			Uttaradit									[104, 105, 106, 107, 117]							L.Haimberger	0
557	0-20000-0-96147	0	558	['1:96147']	1	RANAI			0	108.39	3.91		19600109	19711223	1	0	63			Pemangkat									[38, 104, 105, 106, 107]							L.Haimberger	0
558		0	559	['6:109300']	1				0				19710107	19710107	1	0	63			None									[38, 85, 104, 105, 106, 107, 117]							L.Haimberger	0
559	0-20000-0-47058	0	560	['2:43210']	1	PYONGYANG			0	125.78	39.03		19501025	19501031	1	0	63			Dandong									[104, 105, 106, 107]							L.Haimberger	0
560	0-20000-0-42299	0	561	['42299']	1	GANGTOK			0	88.62	27.33		19731005	19741005	1	0	63			Gangtok									[104, 105, 106, 107, 117]							L.Haimberger	0
561	0-20000-0-65401	0	562	['65401']	1	NAVRONGO			0	-1.1	10.9		19740625	19740625	1	0	63			Navrongo									[36, 38, 39, 85, 104, 105, 106, 107, 117]							L.Haimberger	0
562	0-20000-0-41744	0	563	['1:41744']	1	KHUZDAR			0	66.63	27.83		19700103	19771028	1	0	63			Khuzdar									[38, 85, 104, 105, 106, 107, 117]							L.Haimberger	0
563	0-20000-0-83362	0	564	['1:83362']	1	CUIABA (AERO)			0	-56.1	-15.65		19700212	19721026	1	0	63			Varzea Grande									[104, 105, 106, 107]							L.Haimberger	0
564	0-20000-0-07607	0	565	['1:7607']	1	MONT-DE-MARSAN			0	-0.5	43.91		19691113	19720913	1	0	63			Mont-De-Marsan									[104, 105, 106, 107]							L.Haimberger	0
565		0	566	['10120']	1				0				19710110	19710110	1	0	63			Molde									[36, 38, 39, 85, 104, 105, 106, 107, 117]							L.Haimberger	0
566	0-20000-0-67107	0	567	['67107']	1	ANTSIRABE			0	47.07	-19.82		19691215	19781229	1	0	63			Antsirabe									[36, 38, 39, 85, 104, 105, 106, 107, 117]							L.Haimberger	0
567	0-20000-0-89250	0	568	['88934']	1	KING GEORGE ISLAND			0	-58.4	-62.08		19580130	19580618	1	0	63			None									[104, 105, 106, 107, 117]							L.Haimberger	0
568	0-20000-0-07061	0	569	['07061']	1	SAINT-QUENTIN			0	3.21	49.82		19700506	19720624	1	0	63			Saint-Quentin									[36, 38, 39, 85, 104, 105, 106, 107, 117]							L.Haimberger	0
569	0-20000-0-47515	0	570	['47515']	1	MISAWA AB			0	141.37	40.71		19700629	19780711	1	0	63			Hachinohe									[36, 38, 39, 85, 104, 105, 106, 107, 117]							L.Haimberger	0
570	0-20000-0-80437	0	571	['2:80437']	1	EL VIGIA			0	-71.65	8.63		19631010	19631124	1	0	63			Daru									[38, 85, 117]							L.Haimberger	0
571	0-20000-0-94857	0	572	['94856']	1	GEELONG RACECOURSE			0	144.38	-38.17		19691201	19710517	1	0	63			Geelong									[36, 38, 39, 85, 104, 105, 106, 107, 117]							L.Haimberger	0
572	0-20000-0-67441	0	573	['1:67441']	1	MWINILUNGA			0	24.43	-11.75		19701006	19720714	1	0	63			Mwinilunga									[104, 105, 106, 107]							L.Haimberger	0
573	0-20000-0-23330	0	574	['C:4584']	1	SALEHARD			0	66.67	66.53		19540419	19540922	1	0	63			Salekhard									[38, 39, 85, 104, 105, 106, 107, 117]							L.Haimberger	0
574	0-20000-0-42339	0	575	['6:20387']	1	JODHPUR			0	73.02	26.3		19500101	19510330	1	0	63			Jodhpur									[38, 85, 117]							L.Haimberger	0
575	0-20000-0-91533	0	576	['80606']	1	BANABA			0	169.53	-0.9		19650416	19650730	1	0	63			Bairiki									[36, 38, 39, 85, 104, 105, 106, 107, 117]							L.Haimberger	0
576	0-20000-0-58968	0	577	['9:3968']	1	TAIBEI			0	121.52	25.03		19540706	19630330	1	0	63			Panchiao									[85, 117]							L.Haimberger	0
577	0-20000-0-40180	0	578	['1:40180']	1	BET DAGAN			0	34.82	32.0		19570630	19761211	1	0	63			Qiryat Ono									[38, 85, 104, 105, 106, 107, 117]							L.Haimberger	0
578	0-20000-0-91939	0	579	['C:4426']	1	TAHITI-FAAA			0	-149.61	-17.56		19500101	19511231	1	0	63			Faaa									[104, 105, 106, 107]							L.Haimberger	0
579	0-20000-0-57845	0	580	['57845']	1	TONGDAO			0	109.78	26.17		19780804	19781231	1	0	63			Hongjiang									[104, 105, 106, 107, 117]							L.Haimberger	0
580	0-20000-0-43226	0	581	['2:43226']	1	BAENGNYEONGDO			0	124.71	37.97		19510511	19510906	1	0	63			Seoul									[104, 105, 106, 107]							L.Haimberger	0
581	0-20000-0-38232	0	582	['1:38232']	1	AKKUDUK			0	54.09	42.97		19680201	19691125	1	0	63			Zhanaozen									[104, 105, 106, 107]							L.Haimberger	0
582		0	583	['C:4674']	1				0				19570831	19570924	1	0	63			Toktogul									[38, 39, 85, 104, 105, 106, 107, 117]							L.Haimberger	0
583	0-20000-0-65501	0	584	['65501']	1	DORI			0	-0.03	14.03		19740622	19740622	1	0	63			Dori									[36, 38, 39, 85, 104, 105, 106, 107, 117]							L.Haimberger	0
584	0-20000-0-87311	0	585	['1:87312']	1	SAN JUAN AERO			0	-68.42	-31.57		19570701	19581216	1	0	63			San Juan									[38, 104, 105, 106, 107]							L.Haimberger	0
585	0-20000-0-67283	0	586	['1:67283']	1	QUELIMANE			0	36.88	-17.88		19670603	19691029	1	0	63			Quelimane									[104, 105, 106, 107]							L.Haimberger	0
586	0-20000-0-61721	0	587	['61721']	1	JANJANGBUREH (GEORGETOWN)			0	-14.77	13.54		19740721	19740721	1	0	63			Kuntaur									[36, 38, 39, 85, 104, 105, 106, 107, 117]							L.Haimberger	0
587	0-20000-0-30688	0	588	['1:30688']	1	POKROVKA			0	121.55	53.35		19620813	19641228	1	0	63			Mogocha									[104, 105, 106, 107]							L.Haimberger	0
588	0-20000-0-81001	0	589	['81001']	1	GEORGETOWN (81001-0)			0	-58.15	6.8		19740731	19740731	1	0	63			Georgetown									[36, 38, 39, 85, 104, 105, 106, 107, 117]							L.Haimberger	0
589	0-20000-0-94857	0	590	['1:94856']	1	GEELONG RACECOURSE			0	144.38	-38.17		19691201	19710517	1	0	63			Geelong									[38, 85, 104, 105, 106, 107, 117]							L.Haimberger	0
590	0-20000-0-35700	0	591	['C:4553']	1	ATYRAU			0	51.88	47.12		19540420	19540922	1	0	63			Atyrau									[38, 39, 85, 104, 105, 106, 107, 117]							L.Haimberger	0
591	0-20000-0-07535	0	592	['1:7535']	1	GOURDON			0	1.4	44.74		19700309	19720826	1	0	63			Cahors									[104, 105, 106, 107]							L.Haimberger	0
592		0	593	['10024']	1				0				19710829	19710829	1	0	63			Townsville									[36, 38, 39, 85, 104, 105, 106, 107, 117]							L.Haimberger	0
593	0-20000-0-38836	0	594	['C:4649']	1	DUSHANBE			0	68.73	38.58		19541019	19550422	1	0	63			Dushanbe									[38, 39, 85, 104, 105, 106, 107, 117]							L.Haimberger	0
594	0-20000-0-84203	0	595	['84203']	1	GUAYAQUIL AEROPUERTO			0	-79.88	-2.16		19781121	19781231	1	0	63			Guayaquil									[36, 38, 39, 85, 104, 105, 106, 107, 117]							L.Haimberger	0
595	0-20000-0-74504	0	596	['93222']	1	PILAR POINT AFS, CA.			0	-122.5	37.5		19691105	19700527	1	0	63			Half Moon Bay									[36, 38, 39, 85, 104, 105, 106, 107, 117]							L.Haimberger	0
596	0-20000-0-57071	0	597	['1:57073']	1	MENGJIN			0	112.47	34.8		19641215	19750909	1	0	63			Luoyang									[38, 85, 104, 105, 106, 107, 117]							L.Haimberger	0
597	0-20000-0-72793	0	598	['24244']	1	SEATTLE/S.-TACOMA, WA.			0	-122.3	47.45		19570902	19570921	1	0	63			Kirkland									[104, 105, 106, 107, 117]							L.Haimberger	0
598	0-20000-0-36397	0	599	['1:36403']	1	ZHALGYZTOBE			0	81.22	49.22		19670101	19680430	1	0	63			Oskemen									[104, 105, 106, 107]							L.Haimberger	0
599		0	600	['93101']	1				0				19570904	19590331	1	0	63			Lake Forest									[104, 105, 106, 107, 117]							L.Haimberger	0
600	0-20000-0-15335	0	601	['15335']	1	TULCEA			0	28.82	45.19		19731110	19771209	1	0	63			Tulcea									[104, 105, 106, 107, 117]							L.Haimberger	0
601	0-20000-0-71842	0	602	['1:71842']	1	SIOUX LOOKOUT A, ONT			0	-91.9	50.12		19620304	19621012	1	0	63			Kenora									[104, 105, 106, 107]							L.Haimberger	0
602	0-20000-0-12375	0	603	['12375']	1	LEGIONOWO			0	20.96	52.41		19580121	19710110	1	0	63			Warsaw									[36, 38, 39, 85, 104, 105, 106, 107, 117]							L.Haimberger	0
603		0	604	['2:3921']	1				0				19520324	19520405	1	0	63			Gatesville									[104, 105, 106, 107]							L.Haimberger	0
604		0	605	['10494']	1				0				19710503	19711121	1	0	63			None									[36, 38, 39, 85, 104, 105, 106, 107, 117]							L.Haimberger	0
605	0-20000-0-93834	0	606	['2:93834']	1	LUMSDEN AWS			0	168.45	-45.74		19500304	19500813	1	0	63			Whitehall									[104, 105, 106, 107]							L.Haimberger	0
606	0-20000-0-47727	0	607	['1:47727']	1	SHIMOFUSA AB			0	140.01	35.8		19750121	19771227	1	0	63			Kamagaya									[38, 85, 104, 105, 106, 107, 117]							L.Haimberger	0
607	0-20000-0-32540	0	608	['C:4574']	1	PETROPAVLOVSK-KAMCHATSKIJ (32540-0)			0	158.58	53.08		19540419	19540921	1	0	63			Yelizovo									[38, 39, 85, 104, 105, 106, 107, 117]							L.Haimberger	0
608	0-20000-0-15014	0	609	['15014']	1	BAIA MARE			0	23.47	47.66		19740316	19781231	1	0	63			Baia Mare									[104, 105, 106, 107, 117]							L.Haimberger	0
609	0-20000-0-65507	0	610	['65507']	1	FADA N'GOURMA			0	0.35	12.07		19740616	19740616	1	0	63			Ouargaye									[36, 38, 39, 85, 104, 105, 106, 107, 117]							L.Haimberger	0
610	0-20000-0-07149	0	611	['07149']	1	TRAPPES			0	2.01	48.77		19741001	19750425	1	0	63			Villeneuve-Le-Roi									[104, 105, 106, 107, 117]							L.Haimberger	0
611	0-20000-0-63402	0	612	['2:30306']	1	JIMMA			0	36.83	7.67		19661219	19670227	1	0	63			Jimma									[38, 85, 104, 105, 106, 107, 117]							L.Haimberger	0
612		0	613	['2:23246']	1				0				19511206	19511231	1	0	63			Santa Rosa									[104, 105, 106, 107]							L.Haimberger	0
613	0-20000-0-37735	0	614	['1:37735']	1	GANDJA			0	46.42	40.72		19670113	19771231	1	0	63			Xanlar									[38, 85, 104, 105, 106, 107, 117]							L.Haimberger	0
614	0-20000-0-29915	0	615	['1:29915']	1	SLAVGOROD (29915-0)			0	78.65	52.97		19650901	19660416	1	0	63			Krasnozerskoye									[104, 105, 106, 107]							L.Haimberger	0
615		0	616	['6:100159']	1				0				19710519	19711015	1	0	63			None									[38, 85, 104, 105, 106, 107, 117]							L.Haimberger	0
616		0	617	['10167']	1				0				19711028	19711028	1	0	63			Brigantine									[36, 38, 39, 85, 104, 105, 106, 107, 117]							L.Haimberger	0
617		0	618	['2:13711']	1				0				19510716	19510831	1	0	63			Hope Mills									[104, 105, 106, 107]							L.Haimberger	0
618	0-20000-0-38989	0	619	['C:4590']	1	TAGTABAZAR			0	62.92	35.95		19540419	19540922	1	0	63			Sarakhs									[38, 39, 85, 104, 105, 106, 107, 117]							L.Haimberger	0
619	0-20000-0-66152	0	620	['C:4204']	1	DUNDO			0	20.82	-7.4		19520701	19521231	1	0	63			Tshikapa									[104, 105, 106, 107]							L.Haimberger	0
620		0	621	['2:41610']	1				0				19580317	19580710	1	0	63			None									[104, 105, 106, 107]							L.Haimberger	0
621	0-20000-0-67665	0	622	['1:67665']	1	LUSAKA CITY AIRPORT			0	28.47	-15.42		19700512	19711126	1	0	63			Lusaka									[104, 105, 106, 107]							L.Haimberger	0
622		0	623	['C:4633']	1				0				19541119	19550422	1	0	63			Petropavlovsk-Kamchatskiy									[38, 39, 85, 104, 105, 106, 107, 117]							L.Haimberger	0
623		0	624	['10102']	1				0				19711021	19711021	1	0	63			Teguise									[36, 38, 39, 85, 104, 105, 106, 107, 117]							L.Haimberger	0
624		0	625	['2:93224']	1				0				19700526	19700528	1	0	63			Morgan Hill									[38, 85, 104, 105, 106, 107, 117]							L.Haimberger	0
625	0-20000-0-65028	0	626	['65028']	1	KATSINA			0	7.68	13.02		19740620	19740630	1	0	63			Katsina									[36, 38, 39, 85, 104, 105, 106, 107, 117]							L.Haimberger	0
626		0	627	['C:5977']	1				0				19510702	19510702	1	0	63			Marawi									[104, 105, 106, 107]							L.Haimberger	0
627	0-20000-0-07072	0	628	['1:7070']	1	REIMS-PRUNAY			0	4.16	49.21		19680407	19720911	1	0	63			Reims									[104, 105, 106, 107]							L.Haimberger	0
628	0-20000-0-08202	0	629	['1:8202']	1	SALAMANCA/MATACAN			0	-5.5	40.96		19680116	19691029	1	0	63			Santa Marta De Tormes									[38, 85, 104, 105, 106, 107, 117]							L.Haimberger	0
629		0	630	['10134']	1				0				19711111	19711111	1	0	63			None									[36, 38, 39, 85, 104, 105, 106, 107, 117]							L.Haimberger	0
630	0-20000-0-72662	0	631	['2:24006']	1	RAPID CITY WFO, SD.			0	-103.21	44.07		19510220	19510228	1	0	63			Rapid City									[104, 105, 106, 107]							L.Haimberger	0
631	0-20000-0-40439	0	632	['40439']	1	YENBO			0	38.07	24.13		19740629	19740926	1	0	63			Umm Lajj									[36, 38, 39, 85, 104, 105, 106, 107, 117]							L.Haimberger	0
632		0	633	['1:96801']	1				0				19580317	19640722	1	0	63			Tasikmalaya									[38, 104, 105, 106, 107]							L.Haimberger	0
