	primary_id	primary_id_scheme	record_number	secondary_id	secondary_id_scheme	station_name	station_abbreviation	alternative_name	station_crs	longitude	latitude	local_gravity	start_date	end_date	station_type	platform_type	platform_sub_type	operating_institute	operating_territory	city	contact	role	observing_frequency	reporting_time	telecommunication_method	station_automation	measuring_system_model	measuring_system_id	observed_variables	comment	optional_data	bbox_min_longitude	bbox_max_longitude	bbox_min_latitude	bbox_max_latitude	metadata_contact	metadata_contact_role
0	0-20400-0-5415	0	1	['C:5415']	3	De Quervain Havn			0	-50.37	69.78		19120803	19120810	1	0	63	NMS		None									[106, 107]							L.Haimberger	0
1	0-20000-0-20107	0	2	['C:4707']	3	BARENTSBURG			0	14.22	78.06		19350625	19350625	1	0	63	NMS	104	None									[85, 117]							L.Haimberger	0
2	0-20500-0-4794	0	3	['C:4794']	3	HIGH WATER			0	-71.53	45.03		19370628	19370628	1	0	63	NMS	9	Zapolyarnyy									[38, 85, 117]							L.Haimberger	0
3	0-20400-0-4996	0	4	['C:4996']	3	Alexandrovsk			0	57.6	59.16		19310113	19310116	1	0	63	NMS	190	Aleksandrovsk									[85]							L.Haimberger	0
4	0-20000-0-62414	0	5	['C:5774']	3	ASSWAN			0	32.82	23.96		19071214	19090427	1	0	63	NMS		Aswan									[106, 107]							L.Haimberger	0
5	0-20000-0-62053	0	6	['C:5052']	3	BENINA			0	20.27	32.1		19260507	19281117	1	0	63	NMS	195	Benghazi									[106, 107, 117]							L.Haimberger	0
6	0-20000-0-71271	0	7	['C:4878']	3	ATHABASCA AGCM, ALTA			0	-113.38	54.63		19320901	19330720	1	0	63	NMS		Edmonton									[106, 107]							L.Haimberger	0
7	0-20000-0-67323	0	8	['C:4813']	3	INHAMBANE			0	35.38	-23.87		19081028	19081030	1	0	63	NMS		Inhambane									[38, 85, 106, 107]							L.Haimberger	0
8	0-20000-0-38064	0	9	['C:5182']	3	Tasboget AMS			0	65.53	44.77		19270615	19280316	1	0	63	NMS	190	Tasbuget									[106, 107, 117]							L.Haimberger	0
9	0-20000-0-43476	0	10	['C:4897']	3	BANDARAWELA			0	80.98	6.83		19230612	19231020	1	0	63	NMS		Badulla									[106, 107]							L.Haimberger	0
10	0-20001-0-37259	0	11	['C:5282']	3	MAHACHKALA (37259-1)			0	47.5	43.0		19271018	19280310	1	0	63	NMS	190	Makhachkala									[106, 107]							L.Haimberger	0
11	0-20400-0-5559	0	12	['C:5559']	3	Shaibah (near Basrah)			0	47.0	30.5		19250921	19250921	1	0	63	NMS	228	Khorramshahr									[106, 107]							L.Haimberger	0
12	0-20000-0-62680	0	13	['C:4957']	3	ATBARA			0	33.97	17.7		19540505	19540914	1	0	63	NMS		Barbar									[106, 107]							L.Haimberger	0
13	0-20000-0-38457	0	14	['C:5354']	3	TASHKENT			0	69.3	41.33		19280302	19281117	1	0	63	NMS		Tashkent									[106, 107, 117]							L.Haimberger	0
14	0-20000-0-72268	0	15	['C:5306']	3	ROSWELL/INDUSTRIAL AIR CENTER, NM			0	-104.53	33.3		19280315	19280315	1	0	63	NMS		Roswell									[38, 85, 117]							L.Haimberger	0
15	0-20000-0-40270	0	16	['C:5037']	3	AMMAN AIRPORT			0	35.98	31.98		19250124	19250124	1	0	63	NMS		Jawa									[106, 107, 117]							L.Haimberger	0
16	0-20000-0-63894	0	17	['C:4811']	3	DAR ES SALAAM INT			0	39.21	-6.88		19081011	19081124	1	0	63	NMS	67	Dar Es Salaam									[106, 107]							L.Haimberger	0
17	0-20000-0-41564	0	18	['C:5185']	3	KOHAT			0	71.43	33.57		19271015	19271015	1	0	63	NMS		Kohat									[38, 85, 117]							L.Haimberger	0
18	0-20000-0-63820	0	19	['C:4814']	3	MOMBASA INTERNATIONAL AIRPORT			0	39.56	-4.05		19080927	19081003	1	0	63	NMS	67	Mombasa									[106, 107]							L.Haimberger	0
19	0-20300-0-94937	0	20	['C:5126']	3	ELLENDALE			0	-98.5667	45.9833		19271014	19271015	1	0	63	NMS		Aberdeen									[38, 85, 117]							L.Haimberger	0
20	0-20000-0-62375	0	21	['C:5984']	3	GIZA - AGRIMET			0	31.22	30.05		19510311	19520321	1	0	63	NMS	64	Madinat Sittah Uktubar									[85, 106, 107]							L.Haimberger	0
21	0-20000-0-02562	0	22	['C:5226']	3	LINKOPING/MALMSLATT			0	15.53	58.4		19260507	19260507	1	0	63	NMS		Linkoping									[106, 107, 117]							L.Haimberger	0
22	0-20000-0-02562	0	23	['C:6098']	3	LINKOPING/MALMSLATT			0	15.53	58.4		19231119	19240828	1	0	63	NMS		Linkoping									[38, 85]							L.Haimberger	0
23	0-300-0-16768	0	24	['C:5207']	3	Leros (Airport)			0	26.8	37.18		19270617	19281112	1	0	63	NMS	192	Kalimnos									[106, 107, 117]							L.Haimberger	0
24	0-20000-0-72777	0	25	['C:5153']	3	HAVRE/CITY COUNTY,  MT.			0	-109.77	48.55		19271015	19280317	1	0	63	NMS		Great Falls									[106, 107, 117]							L.Haimberger	0
25	0-20000-0-43476	0	26	['C:5116']	3	BANDARAWELA			0	80.98	6.83		19270613	19270618	1	0	63	NMS		Badulla									[106, 107]							L.Haimberger	0
26	0-20000-0-96749	0	27	['C:5487']	3	JAKARTA/SOEKARNO-HATTA			0	106.65	-6.12		19100801	19100820	1	0	63	NMS		Jakarta									[38, 85]							L.Haimberger	0
27	0-20000-0-72357	0	28	['C:5261']	3	NORMAN/MAX WESTHEIMER A, OK.			0	-97.44	35.18		19280315	19280316	1	0	63	NMS		Oklahoma City									[38, 85, 117]							L.Haimberger	0
28	0-20000-0-82900	0	29	['C:5262']	3	RECIFE (82900-0)			0	-34.92	-8.05		19280717	19281117	1	0	63	NMS		Olinda									[106, 107, 117]							L.Haimberger	0
29	0-20000-0-83649	0	30	['C:5390']	3	VITORIA (AERO)			0	-40.28	-20.27		19280717	19281117	1	0	63	NMS		Serra									[106, 107, 117]							L.Haimberger	0
30	0-20000-0-34523	0	31	['C:5216']	3	Luhansk			0	39.23	48.57		19271014	19271015	1	0	63	NMS	16	Krasnodon									[106, 107]							L.Haimberger	0
31	0-20300-0-00073	0	32	['C:4924']	3	SLUTSK			0	30.45	59.68		19230104	19231017	1	0	63	NMS	107	Pavlovsk									[38, 85]							L.Haimberger	0
32	0-20000-0-74455	0	33	['C:5111']	3	QUAD CITY, IA.			0	-90.58	41.61		19271014	19271022	1	0	63	NMS		Rock Island									[106, 107, 117]							L.Haimberger	0
33	0-246-0-101103	0	34	['C:5512']	3	KOKEMAKI TULKKILA			0	22.35	61.25		19350215	19350217	1	0	63	NMS		Vammala									[38, 85, 117]							L.Haimberger	0
34	0-20000-0-63820	0	35	['C:4815']	3	MOMBASA INTERNATIONAL AIRPORT			0	39.56	-4.05		19080930	19081003	1	0	63	NMS	67	Mombasa									[38, 85, 106, 107]							L.Haimberger	0
35	0-620-2001-08522	0	36	['C:6125']	3	FUNCHAL			0	-16.89	32.65		19350608	19350613	1	0	63	NMS	248	Funchal									[85]							L.Haimberger	0
36	0-20000-0-04219	0	37	['C:5422']	3	QEQERTARSUAQ HELIPORT			0	-53.53	69.25		19130310	19130529	1	0	63	NMS		None									[85]							L.Haimberger	0
37	0-20000-0-16324	0	38	['C:5624']	3	GROTTAGLIE			0	17.4	40.52		19260216	19260919	1	0	63	NMS		Taranto									[106, 107]							L.Haimberger	0
38	0-246-0-101636	0	39	['C:5210']	3	LIEKSA LAMPELA			0	30.05	63.32		19270613	19281113	1	0	63	NMS	2	Lieksa									[106, 107, 117]							L.Haimberger	0
39	0-20000-0-41533	0	40	['C:5300']	3	RISALPUR			0	71.98	34.07		19271021	19271027	1	0	63	NMS		Risalpur									[38, 85, 117]							L.Haimberger	0
40	0-20300-0-21965	0	41	['C:4718']	3	OSTROV CHETYREKHSTOLBO			0	162.4	70.63		19361123	19361203	1	0	63	NMS		None									[85, 117]							L.Haimberger	0
41	0-20000-0-21824	0	42	['C:4767']	3	TIKSI			0	128.92	71.58		19480312	19480424	1	0	63	NMS		None									[38, 85, 117]							L.Haimberger	0
42	0-20000-0-20292	0	43	['C:4734']	3	GMO IM.E.K. FEDOROVA			0	104.29	77.71		19380718	19380724	1	0	63	NMS		None									[85, 117]							L.Haimberger	0
43	0-20000-0-45004	0	44	['C:4905']	3	KOWLOON (45004-0)			0	114.17	22.31		19230907	19231020	1	0	63	NMS		Shenzhen									[106, 107]							L.Haimberger	0
44	0-20000-0-07667	0	45	['C:5106']	3	HYERES			0	6.15	43.09		19270217	19271012	1	0	63	NMS	68	Sollies-Pont									[106, 107]							L.Haimberger	0
45	0-20000-0-83630	0	46	['C:4902']	3	FRANCA (83630-0)			0	-47.43	-20.55		19230612	19231020	1	0	63	NMS		Franca									[106, 107]							L.Haimberger	0
46	0-20000-0-28445	0	47	['C:5347']	3	EKATERINBURG (VERHNEE DUBROVO)			0	61.07	56.73		19250415	19250822	1	0	63	NMS	190	Yekaterinburg									[106, 107, 117]							L.Haimberger	0
47	0-20300-0-21965	0	48	['C:4761']	3	OSTROV CHETYREKHSTOLBO			0	162.4	70.63		19470619	19470619	1	0	63	NMS		None									[38, 39, 85, 117]							L.Haimberger	0
48	0-20000-0-07747	0	49	['C:8022']	3	PERPIGNAN			0	2.87	42.74		19230513	19231013	1	0	63	NMS	205	Perpignan									[106, 107]							L.Haimberger	0
49	0-20000-0-07747	0	50	['C:4347']	3	PERPIGNAN			0	2.87	42.74		19230513	19240727	1	0	63	NMS	205	Perpignan									[106, 107]							L.Haimberger	0
50	0-20300-0-93871	0	51	['C:4899']	3	DUE WEST			0	-82.3667	34.35		19230212	19231108	1	0	63	NMS	9	Greenwood									[38, 85]							L.Haimberger	0
51	0-20000-0-16531	0	52	['C:5359']	3	OLBIA COSTA SMERALDA			0	9.52	40.9		19271014	19271014	1	0	63	NMS	68	Olbia									[106, 107, 117]							L.Haimberger	0
52	0-246-0-101219	0	53	['C:5528']	3	KOUVOLA UTTI LENTOPORTINTIE			0	26.93	60.89		19340803	19350813	1	0	63	NMS	107	Valkeala									[38, 85, 117]							L.Haimberger	0
53	0-20000-0-72226	0	54	['C:5245']	3	MONTGOMERY/DANNELLY,  AL.			0	-86.4	32.3		19280315	19280316	1	0	63	NMS	9	Montgomery									[38, 85, 117]							L.Haimberger	0
54	0-246-0-151049	0	55	['C:5522']	3	TAMPERE SATAKUNNANKATU			0	23.76	61.5		19340518	19340519	1	0	63	NMS		Tampere									[38, 85, 117]							L.Haimberger	0
55	0-20000-0-07024	0	56	['C:5099']	3	MAUPERTUS GONNEVILLE			0	-1.46	49.65		19270613	19281114	1	0	63	NMS		Octeville									[106, 107]							L.Haimberger	0
56	0-20000-0-83742	0	57	['C:4914']	3	VASSOURAS			0	-43.67	-22.4		19230214	19231020	1	0	63	NMS		Mendes									[106, 107]							L.Haimberger	0
57	0-20500-0-4932	0	58	['C:4932']	3	GLENCOE MUNICIPAL AIRPORT			0	-93.92	44.76		19230104	19231206	1	0	63	NMS		Bowen									[106, 107]							L.Haimberger	0
58	0-20000-0-66305	0	59	['C:5971']	3	LOBITO			0	13.53	-12.37		19521007	19521129	1	0	63	NMS	204	Catumbela									[106, 107]							L.Haimberger	0
59	0-20000-0-07354	0	60	['C:5097']	3	CHATEAUROUX DEOLS			0	1.74	46.87		19280318	19280318	1	0	63	NMS		Chateauroux									[106, 107]							L.Haimberger	0
60	0-20000-0-43128	0	61	['C:5987']	3	HYDERABAD AIRPORT			0	78.47	17.45		19500607	19500607	1	0	63	NMS	166	Hyderabad									[106, 107]							L.Haimberger	0
61	0-20000-0-16233	0	62	['C:5619']	3	GUIDONIA (16233-0)			0	12.74	41.99		19260309	19310310	1	0	63	NMS	68	San Cesareo									[106, 107]							L.Haimberger	0
62	0-20000-0-83722	0	63	['C:4879']	3	BAURU AERO			0	-49.05	-22.33		19230612	19231019	1	0	63	NMS		Agudos									[106, 107]							L.Haimberger	0
63	0-20000-0-07770	0	64	['C:5152']	3	CAP PERTUSATO			0	9.18	41.37		19271028	19281116	1	0	63	NMS	68	La Maddalena									[106, 107, 117]							L.Haimberger	0
64	0-20000-0-72356	0	65	['C:5077']	3	TULSA/INT., OK.			0	-95.88	36.2		19271014	19271015	1	0	63	NMS		Broken Arrow									[38, 85, 117]							L.Haimberger	0
65	0-20500-0-94805	0	66	['C:6074']	3	LONDON			0	-80.85	43.03		19260504	19260531	1	0	63	NMS	9	Woodstock									[38, 85, 117]							L.Haimberger	0
66	0-20500-0-4726	0	67	['C:4726']	3	JOHNSTOWN AIRPORT			0	-77.17	40.32		19370806	19380607	1	0	63	NMS	9	Anadyr									[38, 85, 117]							L.Haimberger	0
67	0-20000-0-20674	0	68	['C:4782']	3	OSTROV DIKSON			0	80.41	73.51		19491116	19491230	1	0	63	NMS		None									[38, 85, 117]							L.Haimberger	0
68	0-20000-0-13455	0	69	['C:5191']	3	HERCEG NOVI-IGALO			0	18.55	42.45		19270216	19270216	1	0	63	NMS	192	Trebinje									[106, 107]							L.Haimberger	0
69	0-20000-0-16599	0	70	['C:5228']	3	GUDJA			0	14.5	35.85		19280316	19280316	1	0	63	NMS	195	Sliema									[38, 85]							L.Haimberger	0
70	0-20000-0-33393	0	71	['C:5217']	3	Lviv			0	23.96	49.81		19280317	19281117	1	0	63	NMS	192	Lvov									[106, 107]							L.Haimberger	0
71	0-20000-0-11747	0	72	['C:5289']	3	PROSTEJOV			0	17.13	49.45		19260914	19271024	1	0	63	NMS	243	Prostejov									[106, 107]							L.Haimberger	0
72	0-20000-0-42314	0	73	['C:5440']	3	DIBRUGARH /MOHANBARI			0	95.02	27.48		19420319	19420330	1	0	63	NMS		Tinsukia									[106, 107]							L.Haimberger	0
73	0-20000-0-10170	0	74	['C:4981']	3	ROSTOCK-WARNEMUENDE			0	12.08	54.18		19130402	19130602	1	0	63	NMS		Rostock									[106, 107]							L.Haimberger	0
74	0-246-0-101503	0	75	['C:5509']	3	KAUHAVA AIRFIELD			0	23.04	63.12		19350610	19350612	1	0	63	NMS		Lapua									[38, 85, 117]							L.Haimberger	0
75	0-20000-0-16121	0	76	['C:5595']	3	GENOVA			0	8.92	44.42		19290113	19290113	1	0	63	NMS		Genoa									[106, 107]							L.Haimberger	0
76	0-20000-0-16066	0	77	['C:5213']	3	MILANO MALPENSA			0	8.72	45.63		19260507	19260508	1	0	63	NMS		Lonate Pozzolo									[106, 107, 117]							L.Haimberger	0
77	0-20000-0-06240	0	78	['C:5966']	3	AMSTERDAM AP SCHIPHOL			0	4.79	52.32		19190809	19190911	1	0	63	NMS		Rozenburg									[106, 107]							L.Haimberger	0
78	0-20000-0-16289	0	79	['C:5614']	3	NAPOLI/CAPODICHINO			0	14.29	40.88		19260309	19260309	1	0	63	NMS	66	Naples									[106, 107]							L.Haimberger	0
79	0-246-0-100928	0	80	['C:4995']	3	KUMLINGE KK			0	20.75	60.26		19140819	19140820	1	0	63	NMS		Maarianhamina									[38, 85, 106, 107]							L.Haimberger	0
80	0-20000-0-07143	0	81	['C:5096']	3	CHARTRES			0	1.5	48.46		19271003	19281112	1	0	63	NMS		Chartres									[106, 107]							L.Haimberger	0
81	0-20000-0-11520	0	82	['C:5178']	3	PRAHA-LIBUS			0	14.45	50.01		19250414	19250416	1	0	63	NMS		Prague									[106, 107, 117]							L.Haimberger	0
82	0-20000-0-20292	0	83	['C:4725']	3	GMO IM.E.K. FEDOROVA			0	104.29	77.71		19370813	19370814	1	0	63	NMS		None									[85, 106, 107, 117]							L.Haimberger	0
83	0-20000-0-42339	0	84	['C:5805']	3	JODHPUR			0	73.02	26.3		19360125	19360202	1	0	63	NMS		Jodhpur									[38, 85]							L.Haimberger	0
84	0-20000-0-16599	0	85	['C:5227']	3	GUDJA			0	14.5	35.85		19250124	19250124	1	0	63	NMS	195	Sliema									[106, 107]							L.Haimberger	0
85	0-20000-0-20292	0	86	['C:4715']	3	GMO IM.E.K. FEDOROVA			0	104.29	77.71		19370414	19370415	1	0	63	NMS		None									[85, 117]							L.Haimberger	0
86	0-807-0-Valandovo	0	87	['C:5484']	3	VALANDOVO			0	22.56	41.31		19180109	19180110	1	0	63	NMS	192	Valandovo									[106, 107]							L.Haimberger	0
87	0-20000-0-12812	0	88	['C:5351']	3	SZOMBATHELY			0	16.65	47.2		19281112	19281115	1	0	63	NMS	243	Szombathely									[38, 85, 106, 107, 117]							L.Haimberger	0
88	0-20000-0-03796	0	89	['C:5218']	3	LANGDON BAY			0	1.34	51.13		19260914	19270616	1	0	63	NMS		Ashford									[38, 85, 117]							L.Haimberger	0
89	0-20500-0-16504	0	90	['C:5564']	3	SONDRESTROM			0	-49.2	67.02		19260805	19260805	1	0	63	NMS		Nuuk									[106, 107]							L.Haimberger	0
90	0-20000-0-27612	0	91	['C:5246']	3	MOSKVA VDNH			0	37.62	55.83		19250822	19270617	1	0	63	NMS	107	Nikolsko-Arkhangelskiy									[106, 107, 117]							L.Haimberger	0
91	0-20000-0-02667	0	92	['C:5691']	3	KARLSKRONA-SODERSTJERNA			0	15.59	56.14		19311218	19311218	1	0	63	NMS		Karlskrona									[106, 107]							L.Haimberger	0
92	0-20400-0-5085	0	93	['C:5085']	3	Capo Mele			0	8.2	43.08		19271014	19271014	1	0	63	NMS	68	San Remo									[106, 107, 117]							L.Haimberger	0
93	0-20000-0-11880	0	94	['C:5257']	3	DUDINCE			0	18.87	48.17		19250416	19250416	1	0	63	NMS	192	Banska Stiavnica									[106, 107]							L.Haimberger	0
94	0-20000-0-16061	0	95	['C:5626']	3	BRIC DELLA CROCE			0	7.73	45.03		19251213	19260226	1	0	63	NMS	68	Beinasco									[106, 107]							L.Haimberger	0
95	0-20500-0-35051	0	96	['C:5132']	3	WOODBRIDGE			0	1.4	52.08		19270613	19271011	1	0	63	NMS		Ipswich									[38, 85, 117]							L.Haimberger	0
96	0-20400-0-5697	0	97	['C:5697']	3	Laghouat			0	2.88	33.8		19340222	19340222	1	0	63	NMS	229	Aflu									[106, 107]							L.Haimberger	0
97	0-20000-0-72249	0	98	['C:5136']	3	FORT WORTH, TX.			0	-97.3	32.84		19280315	19280315	1	0	63	NMS		Forest Hill									[38, 85, 117]							L.Haimberger	0
98	0-20000-0-07335	0	99	['1:07335']	3	POITIERS-BIARD			0	0.31	46.59		19210315	19210331	1	0	63	NMS		Poitiers									[106, 107]							L.Haimberger	0
99	0-20000-0-83899	0	100	['C:4901']	3	FLORIANOPOLIS (AERO)			0	-48.55	-27.67		19231016	19231019	1	0	63	NMS		Florianopolis									[106, 107]							L.Haimberger	0
100	0-20000-0-10569	0	101	['C:5284']	3	PLAUEN			0	12.13	50.48		19270614	19270616	1	0	63	NMS		Plauen									[106, 107]							L.Haimberger	0
101	0-20000-0-12560	0	102	['C:5143']	3	KATOWICE-MUCHOWEC			0	19.03	50.24		19271015	19280719	1	0	63	NMS	192	Gliwice									[106, 107]							L.Haimberger	0
102	0-20000-0-72308	0	103	['C:5155']	3	NORFOLK/INT., VA.			0	-76.2	36.9		19280315	19280316	1	0	63	NMS	9	Norfolk									[38, 85, 117]							L.Haimberger	0
103	0-20000-0-16158	0	104	['C:5286']	3	PISA S. GIUSTO			0	10.4	43.68		19260507	19271015	1	0	63	NMS		Ponsacco									[106, 107, 117]							L.Haimberger	0
104	0-620-2001-08522	0	105	['C:6127']	3	FUNCHAL			0	-16.89	32.65		19350208	19350613	1	0	63	NMS	248	Funchal									[106, 107]							L.Haimberger	0
105	0-20000-0-08508	0	106	['C:4881']	3	LAJES (ACORES) (8508-0)			0	-27.09	38.77		19230104	19231206	1	0	63	NMS		Angra									[106, 107]							L.Haimberger	0
106	0-20000-0-06290	0	107	['C:5719']	3	TWENTE AWS			0	6.89	52.27		19280112	19320829	1	0	63	NMS		Nordhorn									[106, 107]							L.Haimberger	0
107	0-20000-0-03827	0	108	['C:5091']	3	PLYMOUTH, MOUNT BATTEN			0	-4.12	50.36		19270215	19270215	1	0	63	NMS		Plymouth									[106, 107, 117]							L.Haimberger	0
108	0-20000-0-83362	0	109	['C:4896']	3	CUIABA (AERO)			0	-56.1	-15.65		19231016	19231020	1	0	63	NMS		Cuiaba									[106, 107]							L.Haimberger	0
109	0-20000-0-38875	0	110	['C:5174']	3	KARAKUL'			0	73.55	39.02		19280717	19280719	1	0	63	NMS		Ozgon									[106, 107]							L.Haimberger	0
110	0-20000-0-20353	0	111	['C:4744']	3	MYS ZELANIYA			0	68.55	76.95		19391218	19391219	1	0	63	NMS	190	None									[38, 39, 85, 117]							L.Haimberger	0
111	0-20300-0-94881	0	112	['C:5308']	3	ROYAL CENTER			0	-86.4833	40.8833		19271015	19271016	1	0	63	NMS	9	Logansport									[38, 85, 117]							L.Haimberger	0
112	0-20000-0-07761	0	113	['C:4354']	3	AJACCIO			0	8.79	41.92		19440302	19440330	1	0	63	NMS	68	Ajaccio									[106, 107]							L.Haimberger	0
113	0-20000-0-72293	0	114	['C:5314']	3	SAN DIEGO/MIRAMAR,  NAS, CA.			0	-117.12	32.83		19280315	19280317	1	0	63	NMS		Coronado									[38, 85, 117]							L.Haimberger	0
114	0-20000-0-21824	0	115	['C:4722']	3	TIKSI			0	128.92	71.58		19370714	19370817	1	0	63	NMS		None									[38, 85, 117]							L.Haimberger	0
115	0-20000-0-45004	0	116	['C:5189']	3	KOWLOON (45004-0)			0	114.17	22.31		19260515	19260515	1	0	63	NMS		Shenzhen									[38, 85]							L.Haimberger	0
116	0-20000-0-65019	0	117	['C:5500']	3	KADUNA			0	7.45	10.6		19320811	19330608	1	0	63	NMS	163	Kaduna									[106, 107]							L.Haimberger	0
117	0-20000-0-10567	0	118	['C:6113']	3	GERA-LEUMNITZ			0	12.13	50.88		19310112	19340612	1	0	63	NMS		Gera									[106, 107]							L.Haimberger	0
118	0-20001-0-16080	0	119	['C:5101']	3	MILANO LINATE RDS			0	9.28	45.46		19271014	19280719	1	0	63	NMS		Sesto San Giovanni									[106, 107, 117]							L.Haimberger	0
119	0-20000-0-45004	0	120	['C:5158']	3	KOWLOON (45004-0)			0	114.17	22.31		19260113	19260515	1	0	63	NMS		Shenzhen									[106, 107, 117]							L.Haimberger	0
120	0-20000-0-21824	0	121	['C:4714']	3	TIKSI			0	128.92	71.58		19360722	19370519	1	0	63	NMS		None									[85, 117]							L.Haimberger	0
121	0-20300-0-26702	0	122	['C:5985']	3	KALININGRAD			0	20.5583	54.7264		19200515	19210131	1	0	63	NMS	192	Svetlyy									[106, 107]							L.Haimberger	0
122	0-20000-0-10453	0	123	['C:4986']	3	BROCKEN			0	10.62	51.8		19060103	19060207	1	0	63	NMS		Bad Harzburg									[38, 85, 106, 107]							L.Haimberger	0
123	0-20000-0-03749	0	124	['C:5399']	3	MIDDLE WALLOP			0	-1.57	51.15		19281115	19281115	1	0	63	NMS		Winchester									[38, 85, 117]							L.Haimberger	0
124	0-20000-0-21824	0	125	['C:4741']	3	TIKSI			0	128.92	71.58		19390707	19391220	1	0	63	NMS		None									[38, 39, 85, 117]							L.Haimberger	0
125	0-20400-0-5841	0	126	['C:5841']	3	Eismitte			0	-40.7	70.9		19300815	19310713	1	0	63	NMS		None									[38, 85]							L.Haimberger	0
126	0-20400-0-5766	0	127	['C:5768']	3	Cape Tscheljuskin			0	105.67	77.53		19190324	19190709	1	0	63	NMS		None									[106, 107]							L.Haimberger	0
127	0-20000-0-10170	0	128	['C:4980']	3	ROSTOCK-WARNEMUENDE			0	12.08	54.18		19130402	19130514	1	0	63	NMS		Rostock									[38, 85]							L.Haimberger	0
128	0-20000-0-62721	0	129	['C:5777']	3	KHARTOUM			0	32.55	15.6		19080712	19080916	1	0	63	NMS		Khartoum									[106, 107]							L.Haimberger	0
129	0-20000-0-04234	0	130	['C:5416']	3	MITTARFIK SISIMIUT (HOLSTEINSBORG LUFTHAVN)			0	-53.73	66.95		19120501	19120529	1	0	63	NMS		Nuuk									[106, 107]							L.Haimberger	0
130	0-20000-0-07145	0	131	['C:5412']	3	TRAPPES			0	2.01	48.77		19000919	19000919	1	0	63	NMS		Trappes									[85]							L.Haimberger	0
131	0-20000-0-41529	0	132	['C:5278']	3	PESHAWAR			0	71.93	34.03		19270613	19271031	1	0	63	NMS		Peshawar									[38, 85, 117]							L.Haimberger	0
132	0-20000-0-72253	0	133	['C:5313']	3	SAN ANTONIO/INT., TX.			0	-98.47	29.53		19280315	19280315	1	0	63	NMS		San Antonio									[38, 85, 117]							L.Haimberger	0
133	0-20000-0-16190	0	134	['C:5577']	3	ANCONA			0	13.53	43.61		19260216	19340521	1	0	63	NMS	243	Ancona									[106, 107]							L.Haimberger	0
134	0-20000-0-07028	0	135	['C:5203']	3	CAP-DE-LA HEVE			0	0.07	49.51		19270614	19280719	1	0	63	NMS		Le Havre									[106, 107]							L.Haimberger	0
135	0-20000-0-96749	0	136	['C:5057']	3	JAKARTA/SOEKARNO-HATTA			0	106.65	-6.12		19270217	19271027	1	0	63	NMS		Jakarta									[106, 107]							L.Haimberger	0
136	0-20000-0-16158	0	137	['C:5602']	3	PISA S. GIUSTO			0	10.4	43.68		19251213	19330105	1	0	63	NMS		Leghorn									[38, 85, 106, 107]							L.Haimberger	0
137	0-20000-0-63733	0	138	['C:4816']	3	MUSOMA			0	33.8	-1.5		19080927	19081002	1	0	63	NMS	61	Musoma									[106, 107]							L.Haimberger	0
138	0-20000-0-08420	0	139	['C:5680']	3	GRANADA/BASE AEREA			0	-3.63	37.14		19240203	19250317	1	0	63	NMS	227	Granada									[106, 107]							L.Haimberger	0
139	0-20000-0-10724	0	140	['C:5599']	3	WEINBIET			0	8.12	49.38		19230117	19231127	1	0	63	NMS	205	Landau									[106, 107]							L.Haimberger	0
140	0-20000-0-10488	0	141	['C:5118']	3	DRESDEN-KLOTZSCHE			0	13.75	51.13		19271007	19271007	1	0	63	NMS		Dresden									[38, 85, 117]							L.Haimberger	0
141	0-20000-0-13388	0	142	['C:5256']	3	NIS			0	21.9	43.33		19271014	19271014	1	0	63	NMS	192	Nis									[106, 107]							L.Haimberger	0
142	0-20000-0-12160	0	143	['C:6089']	3	ELBLAG-MILEJEWO			0	19.54	54.22		19260601	19260803	1	0	63	NMS	171	Elblag									[106, 107]							L.Haimberger	0
143	0-20001-0-01004	0	144	['C:4797']	3	NY-ALESUND II			0	11.92	78.92		19370707	19370731	1	0	63	NMS	104	None									[106, 107]							L.Haimberger	0
144	0-20000-0-26832	0	145	['C:5209']	3	LIDA			0	25.32	53.9		19280717	19281116	1	0	63	NMS		Lida									[106, 107]							L.Haimberger	0
145	0-20000-0-10868	0	146	['C:4916']	3	MUENCHEN-OBERSCHLEISSHEIM			0	11.55	48.24		19230503	19230503	1	0	63	NMS		Munich									[38, 85]							L.Haimberger	0
146	0-20000-0-16336	0	147	['C:5270']	3	BONIFATI (16336-0)			0	15.89	39.58		19260507	19281117	1	0	63	NMS		Paola									[106, 107, 117]							L.Haimberger	0
147	0-20000-0-07610	0	148	['C:5271']	3	PAU-UZEIN			0	-0.42	43.38		19270216	19281116	1	0	63	NMS		Lons									[106, 107]							L.Haimberger	0
148	0-20300-0-00073	0	149	['C:5341']	3	SLUTSK			0	30.45	59.68		19270613	19280719	1	0	63	NMS	107	Pavlovsk									[38, 85, 117]							L.Haimberger	0
149	0-246-0-101004	0	150	['C:5504']	3	HELSINKI KUMPULA			0	24.96	60.2		19350220	19351223	1	0	63	NMS		Helsinki									[38, 85, 106, 107, 117]							L.Haimberger	0
150	0-20000-0-83746	0	151	['C:4920']	3	GALEAO			0	-43.25	-22.82		19230212	19231020	1	0	63	NMS		Niteroi									[106, 107]							L.Haimberger	0
151	0-20000-0-07770	0	152	['C:5605']	3	CAP PERTUSATO			0	9.18	41.37		19260919	19320128	1	0	63	NMS	68	La Maddalena									[106, 107]							L.Haimberger	0
152	0-20300-0-93871	0	153	['C:5123']	3	DUE WEST			0	-82.3667	34.35		19271014	19271016	1	0	63	NMS	9	Greenwood									[38, 85, 117]							L.Haimberger	0
153	0-20000-0-83840	0	154	['C:4895']	3	CURITIBA (AERO)			0	-49.17	-25.52		19231017	19231020	1	0	63	NMS		Curitiba									[106, 107]							L.Haimberger	0
154	0-20000-0-10609	0	155	['C:6107']	3	TRIER-PETRISBERG			0	6.66	49.75		19240107	19271113	1	0	63	NMS		Trier									[106, 107]							L.Haimberger	0
155	0-20000-0-62378	0	156	['C:4939']	3	HELWAN			0	31.35	29.86		19370801	19530107	1	0	63	NMS		Cairo									[106, 107]							L.Haimberger	0
156	0-20000-0-06458	0	157	['C:5650']	3	BEAUVECHAIN			0	4.76	50.75		19200211	19311125	1	0	63	NMS		Steenokkerzeel									[38, 85, 106, 107]							L.Haimberger	0
157	0-20000-0-72469	0	158	['C:5113']	3	DENVER/STAPLETON INT., CO.			0	-104.87	39.77		19280315	19280316	1	0	63	NMS		Denver									[38, 85, 117]							L.Haimberger	0
158	0-20000-0-03171	0	159	['C:5134']	3	LEUCHARS			0	-2.86	56.38		19271021	19271027	1	0	63	NMS		Buckhaven									[85, 117]							L.Haimberger	0
159	0-20000-0-63332	0	160	['C:5775']	3	BAHAR DAR			0	37.42	11.6		19230401	19240224	1	0	63	NMS		Bahir Dar									[106, 107]							L.Haimberger	0
160	0-20000-0-02611	0	161	['C:5703']	3	HELSINGBORG			0	12.77	56.03		19300725	19300725	1	0	63	NMS		Eslov									[106, 107]							L.Haimberger	0
161	0-20001-0-16045	0	162	['C:5082']	3	UDINE/RIVOLTO RDS			0	13.06	45.98		19260507	19260508	1	0	63	NMS		Udine									[106, 107, 117]							L.Haimberger	0
162	0-20000-0-42798	0	163	['C:5446']	3	JAMSHEDPUR (42798-0)			0	86.18	22.82		19410501	19410519	1	0	63	NMS		Jamshedpur									[106, 107]							L.Haimberger	0
163	0-20000-0-60765	0	164	['C:5676']	3	GABES			0	10.1	33.88		19331204	19340612	1	0	63	NMS	252	Qabis									[106, 107]							L.Haimberger	0
164	0-20000-0-72405	0	165	['C:5039']	3	WASHINGTON/NAT., VA.			0	-77.03	38.85		19271015	19280316	1	0	63	NMS	9	Washington									[38, 85, 117]							L.Haimberger	0
165	0-20000-0-03872	0	166	['C:5288']	3	THORNEY ISLAND			0	-0.92	50.81		19271018	19271021	1	0	63	NMS		Portsmouth									[106, 107, 117]							L.Haimberger	0
166	0-20000-0-34300	0	167	['C:5180']	3	Kharkiv			0	36.28	49.93		19260506	19271015	1	0	63	NMS	107	Solonytsivka									[106, 107]							L.Haimberger	0
167	0-20300-0-00073	0	168	['C:5274']	3	SLUTSK			0	30.45	59.68		19260111	19260529	1	0	63	NMS	107	Pavlovsk									[38, 85, 117]							L.Haimberger	0
168	0-20000-0-20107	0	169	['C:4712']	3	BARENTSBURG			0	14.22	78.06		19360915	19370415	1	0	63	NMS	104	None									[85, 117]							L.Haimberger	0
169	0-20000-0-13168	0	170	['C:5281']	3	NOVI SAD RIMSKI SANCEVI			0	19.85	45.33		19271014	19271014	1	0	63	NMS	192	Petrovaradin									[106, 107]							L.Haimberger	0
170	0-246-0-100996	0	171	['C:5515']	3	HELSINKI HARMAJA			0	24.98	60.11		19350622	19350914	1	0	63	NMS		Helsinki									[106, 107]							L.Haimberger	0
171	0-20000-0-06215	0	172	['C:5008']	3	VOORSCHOTEN AWS			0	4.44	52.14		19310604	19310926	1	0	63	NMS		Rijnsburg									[38, 85]							L.Haimberger	0
172	0-20500-0-4818	0	173	['C:4818']	3	SOUTHEAST SHOAL			0	-81.53	41.83		19080901	19080912	1	0	63	NMS	9	Tarime									[38, 85, 106, 107]							L.Haimberger	0
173	0-20000-0-10046	0	174	['C:5181']	3	KIEL-HOLTENAU			0	10.14	54.38		19271008	19271008	1	0	63	NMS		Kiel									[106, 107, 117]							L.Haimberger	0
174	0-20000-0-27333	0	175	['C:5188']	3	KOSTROMA			0	40.78	57.73		19250817	19250817	1	0	63	NMS	220	Kostroma									[106, 107, 117]							L.Haimberger	0
175	0-20000-0-47811	0	176	['C:5323']	3	SASEBO (47811-0)			0	129.73	33.15		19250414	19251217	1	0	63	NMS		Sasebo									[106, 107]							L.Haimberger	0
176	0-20000-0-04234	0	177	['C:5419']	3	MITTARFIK SISIMIUT (HOLSTEINSBORG LUFTHAVN)			0	-53.73	66.95		19120523	19120524	1	0	63	NMS		Nuuk									[85]							L.Haimberger	0
177	0-20000-0-67297	0	178	['C:4810']	3	BEIRA			0	34.9	-19.8		19081106	19081110	1	0	63	NMS		Beira									[106, 107]							L.Haimberger	0
178	0-20500-0-4933	0	179	['C:4933']	3	HUTCHINSON MUNICIPAL BUTLER FI			0	-93.62	44.86		19230213	19231017	1	0	63	NMS		Woodstock									[85]							L.Haimberger	0
179	0-20001-0-16080	0	180	['C:5611']	3	MILANO LINATE RDS			0	9.28	45.46		19251213	19260226	1	0	63	NMS		Segrate									[106, 107]							L.Haimberger	0
180	0-20300-0-22113	0	181	['C:5032']	3	MURMANSK			0	33.1167	68.9833		19280309	19280309	1	0	63	NMS	2	Polyarnyy									[106, 107]							L.Haimberger	0
181	0-20000-0-91756	0	182	['C:4978']	3	APIA WHARF			0	-171.75	-13.82		19100426	19100806	1	0	63	NMS		Apia									[38, 85, 106, 107]							L.Haimberger	0
182	0-20001-0-01001	0	183	['C:5168']	3	JAN MAYEN (1001-1)			0	-8.67	70.94		19270215	19280314	1	0	63	NMS		None									[106, 107, 117]							L.Haimberger	0
183	0-20000-0-11880	0	184	['C:6102']	3	DUDINCE			0	18.87	48.17		19220407	19220919	1	0	63	NMS	192	Banska Stiavnica									[106, 107]							L.Haimberger	0
184	0-20400-0-5778	0	185	['C:5778']	3	Mongalla			0	31.77	5.18		19080730	19080827	1	0	63	NMS	61	Juba									[106, 107]							L.Haimberger	0
185	0-20400-0-5616	0	186	['C:5616']	3	Padova			0	11.85	45.4		19260216	19340621	1	0	63	NMS		Padova									[106, 107]							L.Haimberger	0
186	0-20000-0-07661	0	187	['C:5366']	3	CAP CEPET			0	5.94	43.08		19271003	19281117	1	0	63	NMS	68	La Seyne-Sur-Mer									[106, 107]							L.Haimberger	0
187	0-20000-0-71877	0	188	['C:5081']	3	CALGARY INT'L A, ALTA			0	-114.02	51.11		19260504	19260529	1	0	63	NMS		Calgary									[38, 85, 117]							L.Haimberger	0
188	0-20400-0-5766	0	189	['C:5766']	3	Cape Tscheljuskin			0	105.67	77.53		19190225	19190312	1	0	63	NMS		None									[85]							L.Haimberger	0
189	0-20000-0-16158	0	190	['C:5318']	3	PISA S. GIUSTO			0	10.4	43.68		19260507	19271015	1	0	63	NMS		Pisa									[106, 107, 117]							L.Haimberger	0
190	0-20000-0-20107	0	191	['C:4730']	3	BARENTSBURG			0	14.22	78.06		19380717	19390417	1	0	63	NMS	104	None									[38, 39, 85, 117]							L.Haimberger	0
191	0-20000-0-10170	0	192	['C:5304']	3	ROSTOCK-WARNEMUENDE			0	12.08	54.18		19260914	19280717	1	0	63	NMS		Rostock									[106, 107]							L.Haimberger	0
192	0-20000-0-78925	0	193	['C:5533']	3	LAMENTIN-AERO			0	-61.0	14.6		19360430	19360430	1	0	63	NMS		Le Lamentin									[85]							L.Haimberger	0
193	0-20500-0-4716	0	194	['C:4716']	3	CLARION			0	-78.63	41.2		19361120	19370412	1	0	63	NMS	9	Anadyr									[85, 117]							L.Haimberger	0
194	0-20000-0-26167	0	195	['C:5215']	3	NIKOLAEVSKOE			0	29.8	58.57		19280322	19280322	1	0	63	NMS	107	Luga									[106, 107]							L.Haimberger	0
195	0-20400-0-5558	0	196	['C:5558']	3	Hinaidi (near Bagdad)			0	45.0	33.33		19250709	19260709	1	0	63	NMS		Baghdad									[85, 106, 107]							L.Haimberger	0
196	0-20000-0-07005	0	197	['C:5020']	3	ABBEVILLE			0	1.83	50.14		19270614	19281114	1	0	63	NMS		Abbeville									[106, 107]							L.Haimberger	0
197	0-20000-0-16294	0	198	['C:5165']	3	CAPRI			0	14.2	40.56		19260507	19271014	1	0	63	NMS	68	Ischia									[106, 107, 117]							L.Haimberger	0
198	0-20000-0-16465	0	199	['C:5090']	3	MEZZO GREGORIO			0	14.96	36.97		19271014	19281117	1	0	63	NMS	66	Floridia									[106, 107, 117]							L.Haimberger	0
199	0-20000-0-07145	0	200	['C:5368']	3	TRAPPES			0	2.01	48.77		19250817	19250817	1	0	63	NMS		Trappes									[106, 107, 117]							L.Haimberger	0
200	0-20000-0-03091	0	201	['C:5021']	3	DYCE			0	-2.21	57.21		19280717	19281116	1	0	63	NMS		Aberdeen									[106, 107]							L.Haimberger	0
201	0-20000-0-16294	0	202	['C:4906']	3	CAPRI			0	14.2	40.56		19230402	19230402	1	0	63	NMS	68	Ischia									[106, 107]							L.Haimberger	0
202	0-20000-0-91762	0	203	['C:4882']	3	APIA			0	-171.78	-13.8		19230612	19231019	1	0	63	NMS		Apia									[106, 107]							L.Haimberger	0
203	0-20500-0-4711	0	204	['C:4711']	3	ST FELICIEN			0	-71.55	48.65		19350106	19350626	1	0	63	NMS	9	None									[85, 117]							L.Haimberger	0
204	0-20000-0-62805	0	205	['C:5773']	3	DAMAZINE			0	34.38	11.78		19090521	19090729	1	0	63	NMS		Sinjah									[106, 107]							L.Haimberger	0
205	0-20000-0-43466	0	206	['C:4894']	3	COLOMBO			0	79.87	6.9		19230212	19231020	1	0	63	NMS		Mulleriyawa									[106, 107]							L.Haimberger	0
206	0-20001-0-16429	0	207	['C:5231']	3	TRAPANI BIRGI RDS			0	12.49	37.91		19260111	19260508	1	0	63	NMS	68	Marsala									[106, 107, 117]							L.Haimberger	0
207	0-20000-0-91938	0	208	['C:4494']	3	TAHITI-FAAA			0	-149.61	-17.56		19410220	19430624	1	0	63	NMS		Papeete									[106, 107]							L.Haimberger	0
208	0-20000-0-35121	0	209	['C:5266']	3	ORENBURG			0	55.08	51.69		19270613	19271022	1	0	63	NMS	190	Sol-Iletsk									[106, 107]							L.Haimberger	0
209	0-20000-0-76692	0	210	['C:4931']	3	HACIENDA YLANG YLANG VERACRUZ, VER.			0	-96.11	19.14		19230404	19230404	1	0	63	NMS		Veracruz									[106, 107]							L.Haimberger	0
210	0-20400-0-5252	0	211	['C:5252']	3	Nairobi			0	36.8	-1.67		19270614	19270616	1	0	63	NMS		Kajiado									[106, 107]							L.Haimberger	0
211	0-20000-0-07015	0	212	['C:6095']	3	LILLE-LESQUIN			0	3.1	50.57		19241018	19260205	1	0	63	NMS		Lille									[106, 107]							L.Haimberger	0
212	0-20400-0-5590	0	213	['C:5590']	3	Epinal			0	6.45	48.17		19310516	19320305	1	0	63	NMS	205	Epinal									[106, 107]							L.Haimberger	0
213	0-20400-0-5009	0	214	['C:5010']	3	Reykjavik			0	-21.93	67.13		19330722	19330810	1	0	63	NMS		Akureyri									[38, 85]							L.Haimberger	0
214	0-20000-0-06215	0	215	['C:5019']	3	VOORSCHOTEN AWS			0	4.44	52.14		19300513	19300523	1	0	63	NMS		Rijnsburg									[106, 107]							L.Haimberger	0
215	0-20000-0-03482	0	216	['C:5066']	3	MARHAM			0	0.57	52.65		19271003	19271030	1	0	63	NMS		Skegness									[106, 107]							L.Haimberger	0
216	0-20400-0-5846	0	217	['C:5846']	3	Weststation			0	-51.13	71.18		19310523	19310719	1	0	63	NMS		None									[106, 107]							L.Haimberger	0
217	0-20000-0-07299	0	218	['C:6101']	3	BALE-MULHOUSE			0	7.51	47.61		19250502	19250502	1	0	63	NMS	205	Rixheim									[106, 107]							L.Haimberger	0
218	0-20000-0-72558	0	219	['C:4898']	3	VALLEY, NE.			0	-96.37	41.32		19230214	19231206	1	0	63	NMS		Fremont									[38, 85]							L.Haimberger	0
219	0-20000-0-44292	0	220	['C:5374']	3	ULAANBAATAR			0	106.85	47.92		19260507	19270618	1	0	63	NMS		Ulaanbaatar									[106, 107]							L.Haimberger	0
220	0-20000-0-12200	0	221	['C:5748']	3	SWINOUJSCIE			0	14.24	53.92		19260617	19270627	1	0	63	NMS		Swinoujscie									[106, 107]							L.Haimberger	0
221	0-20000-0-11204	0	222	['C:6115']	3	LIENZ			0	12.81	46.83		19310925	19311102	1	0	63	NMS		Lienz									[106, 107]							L.Haimberger	0
222	0-20000-0-42909	0	223	['C:5554']	3	VERAVAL			0	70.37	20.9		19490821	19550717	1	0	63	NMS		Veraval									[106, 107]							L.Haimberger	0
223	0-20000-0-33631	0	224	['C:5377']	3	Uzhhorod			0	22.26	48.63		19250414	19271020	1	0	63	NMS	192	Uzhhorod									[106, 107, 117]							L.Haimberger	0
224	0-20000-0-07130	0	225	['C:5297']	3	RENNES-SAINT JACQUES			0	-1.73	48.07		19271006	19271008	1	0	63	NMS		Rennes									[106, 107]							L.Haimberger	0
225	0-20000-0-83782	0	226	['C:4922']	3	SANTOS			0	-46.32	-23.93		19230212	19231020	1	0	63	NMS		Santos									[106, 107]							L.Haimberger	0
226	0-20000-0-07190	0	227	['C:5345']	3	STRASBOURG-ENTZHEIM			0	7.64	48.55		19250914	19250914	1	0	63	NMS	205	Schiltigheim									[38, 85, 117]							L.Haimberger	0
227	0-724-0-0000000000008479	0	228	['C:5608']	3	MÁLAGA,PUERTO			0	-4.42	36.72		19220220	19340630	1	0	63	NMS	227	Malaga									[106, 107]							L.Haimberger	0
228	0-20000-0-10637	0	229	['C:5109']	3	FRANKFURT/MAIN			0	8.52	50.03		19280326	19280327	1	0	63	NMS	205	Darmstadt									[38, 85]							L.Haimberger	0
229	0-20000-0-26063	0	230	['C:4908']	3	ST.PETERSBURG (VOEJKOVO) (26063-0)			0	30.3	59.97		19230212	19230928	1	0	63	NMS	107	Saint Petersburg									[38, 85]							L.Haimberger	0
230	0-20000-0-01107	0	231	['C:5303']	3	ROST AP			0	12.1	67.53		19250415	19280718	1	0	63	NMS		Bodo									[106, 107, 117]							L.Haimberger	0
231	0-20000-0-87576	0	232	['C:5080']	3	EZEIZA AERO			0	-58.54	-34.82		19280322	19281117	1	0	63	NMS		San Vicente									[106, 107]							L.Haimberger	0
232	0-20000-0-07072	0	233	['C:5730']	3	REIMS-PRUNAY			0	4.16	49.21		19310414	19330802	1	0	63	NMS		Reims									[85, 106, 107]							L.Haimberger	0
233	0-20000-0-16233	0	234	['C:5243']	3	GUIDONIA (16233-0)			0	12.74	41.99		19281114	19281117	1	0	63	NMS	68	Tivoli									[38, 85, 117]							L.Haimberger	0
234	0-20000-0-34504	0	235	['C:5117']	3	Dnipro			0	35.09	48.36		19250414	19271015	1	0	63	NMS	107	Pidhorodne									[106, 107]							L.Haimberger	0
235	0-20000-0-20353	0	236	['C:4736']	3	MYS ZELANIYA			0	68.55	76.95		19380701	19390416	1	0	63	NMS	190	None									[38, 39, 85, 117]							L.Haimberger	0
236	0-20000-0-07072	0	237	['C:5248']	3	REIMS-PRUNAY			0	4.16	49.21		19270618	19280719	1	0	63	NMS		Chalons-En-Champagne									[106, 107]							L.Haimberger	0
237	0-20000-0-10156	0	238	['C:6081']	3	LUEBECK-BLANKENSEE			0	10.7	53.8		19210703	19210925	1	0	63	NMS		Lubeck									[106, 107]							L.Haimberger	0
238	0-20000-0-01257	0	239	['C:5369']	3	TRONDHEIM/VOLL			0	10.45	63.41		19250819	19280326	1	0	63	NMS		Trondheim									[106, 107, 117]							L.Haimberger	0
239	0-20000-0-07602	0	240	['C:5579']	3	BIARRITZ-ANGLET			0	-1.53	43.47		19220201	19230114	1	0	63	NMS		Bayonne									[106, 107]							L.Haimberger	0
240	0-20000-0-47592	0	241	['C:5164']	3	ISHINOMAKI			0	141.3	38.43		19250819	19250822	1	0	63	NMS		Ishinomaki									[106, 107]							L.Haimberger	0
241	0-20000-0-96749	0	242	['C:5488']	3	JAKARTA/SOEKARNO-HATTA			0	106.65	-6.12		19090812	19100620	1	0	63	NMS		Jakarta									[38, 85]							L.Haimberger	0
242	0-20000-0-07502	0	243	['C:5092']	3	CAZAUX			0	-1.13	44.53		19270614	19281112	1	0	63	NMS		La Teste-De-Buch									[106, 107]							L.Haimberger	0
243	0-20000-0-20353	0	244	['C:4717']	3	MYS ZELANIYA			0	68.55	76.95		19361117	19370617	1	0	63	NMS	190	None									[85, 117]							L.Haimberger	0
244	0-20000-0-21432	0	245	['C:6005']	3	OSTROV KOTEL'NYJ			0	137.87	76.0		19451111	19451229	1	0	63	NMS		None									[38, 39, 85, 117]							L.Haimberger	0
245	0-20000-0-15614	0	246	['C:5068']	3	SOFIA (OBSERV.)			0	23.38	42.65		19271014	19271015	1	0	63	NMS	192	Kostinbrod									[106, 107]							L.Haimberger	0
246	0-20000-0-02635	0	247	['C:5708']	3	MALMO			0	13.07	55.57		19260705	19290114	1	0	63	NMS		Malmo									[106, 107]							L.Haimberger	0
247	0-20400-0-5029	0	248	['C:5029']	3	Alai-Tal			0	73.2	39.7		19280717	19280719	1	0	63	NMS		Ozgon									[106, 107]							L.Haimberger	0
248	0-20400-0-5492	0	249	['C:5492']	3	Abisko			0	18.8	68.26		19080301	19250124	1	0	63	NMS		Narvik									[85, 117]							L.Haimberger	0
249	0-20000-0-71877	0	250	['C:4889']	3	CALGARY INT'L A, ALTA			0	-114.02	51.11		19230505	19230803	1	0	63	NMS		Calgary									[85]							L.Haimberger	0
250	0-20000-0-33325	0	251	['C:5169']	3	Zhytomyr			0	28.66	50.28		19260507	19271015	1	0	63	NMS		Zhytomyr									[106, 107]							L.Haimberger	0
251	0-620-2001-08548	0	252	['C:5102']	3	COIMBRA/CERNACHE			0	-8.47	40.16		19280313	19281115	1	0	63	NMS		Coimbra									[106, 107]							L.Haimberger	0
252	0-20000-0-24959	0	253	['C:5400']	3	JAKUTSK			0	129.72	62.02		19250817	19251231	1	0	63	NMS		Markha									[106, 107, 117]							L.Haimberger	0
253	0-20000-0-07747	0	254	['C:5276']	3	PERPIGNAN			0	2.87	42.74		19270215	19281115	1	0	63	NMS	205	Perpignan									[106, 107, 117]							L.Haimberger	0
254	0-20000-0-07577	0	255	['C:5244']	3	MONTELIMAR			0	4.73	44.58		19270613	19281113	1	0	63	NMS	205	Montelimar									[106, 107, 117]							L.Haimberger	0
255	0-20001-0-08221	0	256	['C:4911']	3	MADRID/BARAJAS RS			0	-3.58	40.47		19230212	19230212	1	0	63	NMS		Madrid									[106, 107]							L.Haimberger	0
256	0-20000-0-41977	0	257	['C:6076']	3	CHITTAGONG (AMBAGAN)			0	91.82	22.35		19281112	19281117	1	0	63	NMS		Patiya									[106, 107, 117]							L.Haimberger	0
257	0-20000-0-07168	0	258	['C:5302']	3	TROYES-BARBEREY			0	4.02	48.32		19271001	19271009	1	0	63	NMS		Romilly-Sur-Seine									[106, 107]							L.Haimberger	0
258	0-20300-0-05498	0	259	['C:5497']	3	LITTLE AMERICA I			0	-163.93	-78.57		19291017	19340911	1	0	63	NMS		None									[85, 106]							L.Haimberger	0
259	0-20300-0-21965	0	260	['C:5770']	3	OSTROV CHETYREKHSTOLBO			0	162.4	70.63		19240519	19250525	1	0	63	NMS		None									[85]							L.Haimberger	0
260	0-20000-0-07335	0	261	['C:5285']	3	POITIERS-BIARD			0	0.31	46.59		19280306	19281114	1	0	63	NMS		Poitiers									[106, 107]							L.Haimberger	0
261	0-20400-0-5766	0	262	['C:5767']	3	Cape Tscheljuskin			0	105.67	77.53		19190315	19190718	1	0	63	NMS		None									[85]							L.Haimberger	0
262	0-20400-0-5841	0	263	['C:5842']	3	Eismitte			0	-40.7	70.9		19300903	19310718	1	0	63	NMS		None									[106, 107]							L.Haimberger	0
263	0-20000-0-08513	0	264	['C:4918']	3	PONTA DELGADA/OBS. (ACORES)			0	-25.66	37.75		19231108	19231108	1	0	63	NMS		Ponta Delgada									[106, 107]							L.Haimberger	0
264	0-20000-0-08190	0	265	['C:4884']	3	BARCELONA SERVEI			0	2.12	41.38		19231206	19231206	1	0	63	NMS	205	Barcelona									[106, 107]							L.Haimberger	0
265	0-20000-0-62378	0	266	['C:5156']	3	HELWAN			0	31.35	29.86		19250124	19250124	1	0	63	NMS		Cairo									[106, 107, 117]							L.Haimberger	0
266	0-20000-0-01468	0	267	['C:5337']	3	KONGSVINGER			0	12.01	60.19		19270618	19270618	1	0	63	NMS		Kongsvinger									[106, 107]							L.Haimberger	0
267	0-20000-0-62318	0	268	['C:4942']	3	NOUZHA			0	29.95	31.18		19390104	19511220	1	0	63	NMS	64	Alexandria									[106, 107]							L.Haimberger	0
268	0-20000-0-16570	0	269	['C:5086']	3	TEULADA			0	8.66	38.99		19260507	19260508	1	0	63	NMS	68	Carbonia									[106, 107, 117]							L.Haimberger	0
269	0-20000-0-10685	0	270	['C:5157']	3	HOF			0	11.88	50.31		19280301	19280331	1	0	63	NMS		Hof									[106, 107]							L.Haimberger	0
270	0-20000-0-07249	0	271	['C:5267']	3	ORLEANS			0	1.78	47.99		19270614	19280717	1	0	63	NMS		Saran									[106, 107]							L.Haimberger	0
271	0-20000-0-08513	0	272	['C:6126']	3	PONTA DELGADA/OBS. (ACORES)			0	-25.66	37.75		19360722	19360722	1	0	63	NMS		Ponta Delgada									[85]							L.Haimberger	0
272	0-20000-0-03649	0	273	['C:5373']	3	BRIZE NORTON			0	-1.58	51.76		19280314	19281117	1	0	63	NMS		Bicester									[106, 107]							L.Haimberger	0
273	0-20000-0-10763	0	274	['C:5137']	3	NUERNBERG			0	11.06	49.5		19260114	19260114	1	0	63	NMS	205	Furth									[38, 85, 117]							L.Haimberger	0
274	0-20000-0-07761	0	275	['C:5027']	3	AJACCIO			0	8.79	41.92		19270618	19281115	1	0	63	NMS	68	Ajaccio									[106, 107]							L.Haimberger	0
275	0-20000-0-22543	0	276	['C:5045']	3	ARHANGEL'SK (22543-0)			0	40.51	64.62		19250415	19250817	1	0	63	NMS	233	Arkhangelsk									[106, 107, 117]							L.Haimberger	0
276	0-20000-0-62721	0	277	['C:4968']	3	KHARTOUM			0	32.55	15.6		19530409	19530409	1	0	63	NMS		Khartoum									[85, 106, 107]							L.Haimberger	0
277	0-20000-0-01463	0	278	['C:4883']	3	AS			0	10.78	59.66		19230403	19231206	1	0	63	NMS		Drobak									[106, 107]							L.Haimberger	0
278	0-20400-0-5041	0	279	['C:5041']	3	Angoulême			0	0.22	45.67		19280309	19280331	1	0	63	NMS		Soyaux									[106, 107]							L.Haimberger	0
279	0-20000-0-41150	0	280	['C:4861']	3	BAHRAIN (INT. AIRPORT)			0	50.65	26.27		19271202	19271226	1	0	63	NMS	228	Manama									[106, 107]							L.Haimberger	0
280	0-20000-0-22892	0	281	['C:5524']	3	VYBORG			0	28.73	60.72		19340514	19340514	1	0	63	NMS	107	Vyborg									[38, 85]							L.Haimberger	0
281	0-20000-0-03781	0	282	['C:5064']	3	KENLEY AIRFIELD			0	-0.09	51.3		19271009	19280320	1	0	63	NMS		Sevenoaks									[106, 107]							L.Haimberger	0
282	0-20000-0-07205	0	283	['C:6097']	3	LORIENT LANN BIHOUE			0	-3.44	47.76		19231222	19270413	1	0	63	NMS		Lorient									[106, 107]							L.Haimberger	0
283	0-20000-0-07145	0	284	['C:5343']	3	TRAPPES			0	2.01	48.77		19270614	19281113	1	0	63	NMS		Velizy-Villacoublay									[106, 107, 117]							L.Haimberger	0
284	0-20000-0-07166	0	285	['C:6105']	3	VATRY-AERO			0	4.16	48.78		19201201	19211118	1	0	63	NMS		Chalons-En-Champagne									[106, 107]							L.Haimberger	0
285	0-20300-0-26702	0	286	['C:5739']	3	KALININGRAD			0	20.5583	54.7264		19200416	19200904	1	0	63	NMS	192	Svetlyy									[38, 85, 106, 107]							L.Haimberger	0
286	0-20000-0-07785	0	287	['C:5084']	3	CAP CORSE			0	9.36	43.0		19271004	19271004	1	0	63	NMS	68	Bastia									[106, 107]							L.Haimberger	0
287	0-20300-0-00073	0	288	['C:4925']	3	SLUTSK			0	30.45	59.68		19230403	19231020	1	0	63	NMS	107	Pavlovsk									[106, 107]							L.Haimberger	0
288	0-20000-0-16066	0	289	['C:5328']	3	MILANO MALPENSA			0	8.72	45.63		19260507	19271015	1	0	63	NMS		Sesto Calende									[106, 107, 117]							L.Haimberger	0
289	0-20000-0-72445	0	290	['C:5104']	3	COLUMBIA/REGIONAL,  MO.			0	-92.22	38.82		19280315	19280315	1	0	63	NMS		Columbia									[38, 85, 117]							L.Haimberger	0
290	0-20000-0-07335	0	291	['C:6104']	3	POITIERS-BIARD			0	0.31	46.59		19240125	19320723	1	0	63	NMS		Poitiers									[106, 107]							L.Haimberger	0
291	0-20000-0-01098	0	292	['C:5382']	3	VARDO			0	31.1	70.37		19250820	19271024	1	0	63	NMS	177	Zapolyarnyy									[106, 107, 117]							L.Haimberger	0
292	0-20000-0-16129	0	293	['C:5383']	3	LA SPEZIA-LA CASTELLANA			0	9.82	44.07		19260507	19271015	1	0	63	NMS		La Spezia									[106, 107, 117]							L.Haimberger	0
293	0-20000-0-20353	0	294	['C:5996']	3	MYS ZELANIYA			0	68.55	76.95		19400917	19410623	1	0	63	NMS	190	None									[38, 39, 85, 117]							L.Haimberger	0
294	0-20000-0-16420	0	295	['C:5237']	3	MESSINA			0	15.55	38.2		19260507	19281115	1	0	63	NMS	66	Messina									[106, 107, 117]							L.Haimberger	0
295	0-20000-0-22892	0	296	['C:5530']	3	VYBORG			0	28.73	60.72		19350611	19350828	1	0	63	NMS	107	Vyborg									[38, 85]							L.Haimberger	0
296	0-20000-0-47772	0	297	['C:5264']	3	OSAKA			0	135.52	34.68		19250414	19251216	1	0	63	NMS		Amagasaki									[106, 107]							L.Haimberger	0
297	0-20000-0-01055	0	298	['C:5162']	3	FRUHOLMEN LH			0	23.98	71.09		19250416	19281112	1	0	63	NMS	104	Alta									[106, 107, 117]							L.Haimberger	0
298	0-20300-0-21965	0	299	['C:4737']	3	OSTROV CHETYREKHSTOLBO			0	162.4	70.63		19390226	19390226	1	0	63	NMS		None									[85, 117]							L.Haimberger	0
299	0-20300-0-76549	0	300	['C:4926']	3	TAMPICO			0	-97.85	22.283		19230406	19230406	1	0	63	NMS		Anahuac									[106, 107]							L.Haimberger	0
300	0-20000-0-02562	0	301	['C:5225']	3	LINKOPING/MALMSLATT			0	15.53	58.4		19260507	19260507	1	0	63	NMS		Linkoping									[38, 85, 117]							L.Haimberger	0
301	0-20000-0-60680	0	302	['C:4844']	3	TAMANRASSET			0	5.45	22.83		19350112	19370630	1	0	63	NMS	40	Arlit									[106, 107]							L.Haimberger	0
302	0-20000-0-78397	0	303	['C:5482']	3	KINGSTON/NORMAN MANLEY			0	-76.78	17.93		19400127	19410112	1	0	63	NMS	9	Half Way Tree									[106, 107]							L.Haimberger	0
303	0-20000-0-03171	0	304	['C:5208']	3	LEUCHARS			0	-2.86	56.38		19250124	19281117	1	0	63	NMS		Saint Andrews									[106, 107]							L.Haimberger	0
304	0-20000-0-60155	0	305	['C:5582']	3	CASABLANCA			0	-7.67	33.57		19320327	19340607	1	0	63	NMS	227	Casablanca									[106, 107]							L.Haimberger	0
305	0-20000-0-22802	0	306	['C:5280']	3	SORTAVALA			0	30.72	61.72		19250817	19251231	1	0	63	NMS	2	Sortavala									[106, 107, 117]							L.Haimberger	0
306	0-20000-0-07650	0	307	['C:5230']	3	MARIGNANE			0	5.22	43.44		19270215	19281117	1	0	63	NMS	68	Marignane									[106, 107, 117]							L.Haimberger	0
307	0-20000-0-07024	0	308	['C:5656']	3	MAUPERTUS GONNEVILLE			0	-1.46	49.65		19260516	19310610	1	0	63	NMS		Octeville									[106, 107]							L.Haimberger	0
308	0-20000-0-03772	0	309	['C:5179']	3	HEATHROW			0	-0.45	51.48		19260508	19280331	1	0	63	NMS		Sunbury									[38, 85, 117]							L.Haimberger	0
309	0-20000-0-62318	0	310	['C:4943']	3	NOUZHA			0	29.95	31.18		19370621	19370621	1	0	63	NMS	64	Alexandria									[106, 107]							L.Haimberger	0
310	0-20000-0-16171	0	311	['C:5592']	3	FIRENZE			0	11.22	43.79		19260213	19340608	1	0	63	NMS		Florence									[106, 107]							L.Haimberger	0
311	0-20000-0-96745	0	312	['C:4789']	3	JAKARTA/OBSERVATORY			0	106.83	-6.18		19100216	19100216	1	0	63	NMS		Pamulang									[106, 107]							L.Haimberger	0
312	0-20000-0-82994	0	313	['C:5220']	3	MACEIO (82994-0)			0	-35.7	-9.67		19270215	19281115	1	0	63	NMS		Maceio									[106, 107, 117]							L.Haimberger	0
313	0-20400-0-5035	0	314	['C:5035']	3	Alma Ata			0	76.88	43.77		19271014	19271014	1	0	63	NMS		Boralday									[106, 107]							L.Haimberger	0
314	0-300-0-16840	0	315	['C:5483']	3	Doxato			0	24.25	41.07		19180111	19180111	1	0	63	NMS	192	Drama									[106, 107]							L.Haimberger	0
315	0-504-1-60312	0	316	['C:5714']	3	Bni Ansar			0	-2.93	35.27		19240212	19281112	1	0	63	NMS	227	Melilla									[106, 107]							L.Haimberger	0
316	0-20000-0-42404	0	317	['C:5439']	3	DHUBRI			0	89.98	26.02		19410430	19410520	1	0	63	NMS		Dhuburi									[106, 107]							L.Haimberger	0
317	0-20000-0-07296	0	318	['C:5059']	3	DORANS			0	6.84	47.59		19270613	19280304	1	0	63	NMS	205	Belfort									[106, 107]							L.Haimberger	0
318	0-20000-0-62306	0	319	['C:4972']	3	MERSA MATRUH			0	27.22	31.33		19550301	19561025	1	0	63	NMS	64	Marsa Matruh									[85, 106, 107]							L.Haimberger	0
319	0-20000-0-03693	0	320	['C:5334']	3	SHOEBURYNESS, LANDWICK			0	0.83	51.55		19271003	19281113	1	0	63	NMS		Southend-On-Sea									[106, 107]							L.Haimberger	0
320	0-20000-0-71261	0	321	['C:5144']	3	GODERICH, ONT			0	-81.71	43.76		19260527	19260527	1	0	63	NMS	9	Stratford									[85, 117]							L.Haimberger	0
321	0-20000-0-08141	0	322	['C:5757']	3	VALLADOLID			0	-4.75	41.64		19250117	19250117	1	0	63	NMS		Valladolid									[106, 107]							L.Haimberger	0
322	0-20500-0-4723	0	323	['C:4723']	3	STAFFORD SPRINGS			0	-71.7	41.95		19370911	19380323	1	0	63	NMS	9	Severnyy									[38, 39, 85, 117]							L.Haimberger	0
323	0-20000-0-83460	0	324	['C:5287']	3	PORTO SEGURO (AERO)			0	-39.07	-16.43		19271002	19281113	1	0	63	NMS		Porto Seguro									[106, 107, 117]							L.Haimberger	0
324	0-20000-0-47644	0	325	['C:5362']	3	KIYOSE			0	139.53	35.78		19250414	19250416	1	0	63	NMS		Tokorozawa									[106, 107]							L.Haimberger	0
325	0-20001-0-11035	0	326	['C:5391']	3	WIEN/HOHE WARTE (11035-1)			0	16.36	48.25		19250124	19260116	1	0	63	NMS	243	Vienna									[38, 85, 117]							L.Haimberger	0
326	0-20000-0-62440	0	327	['C:4941']	3	ISMAILIA			0	32.25	30.59		19370616	19540329	1	0	63	NMS		Ismailia									[106, 107]							L.Haimberger	0
327	0-20000-0-91938	0	328	['C:4490']	3	TAHITI-FAAA			0	-149.61	-17.56		19350102	19351226	1	0	63	NMS		Papeete									[106, 107]							L.Haimberger	0
328	0-20000-0-10519	0	329	['C:5581']	3	KOENIGSWINTER-HEIDERHOF			0	7.2	50.73		19211129	19230719	1	0	63	NMS		Bonn									[106, 107]							L.Haimberger	0
329	0-20000-0-20107	0	330	['C:4739']	3	BARENTSBURG			0	14.22	78.06		19390815	19400531	1	0	63	NMS	104	None									[38, 39, 85, 117]							L.Haimberger	0
330	0-20000-0-07002	0	331	['C:5344']	3	BOULOGNE			0	1.6	50.73		19270614	19281114	1	0	63	NMS		Calais									[106, 107, 117]							L.Haimberger	0
331	0-20000-0-08314	0	332	['C:5223']	3	MENORCA/AEROPUERTO			0	4.22	39.85		19260111	19270618	1	0	63	NMS	68	Mahon									[106, 107, 117]							L.Haimberger	0
332	0-20000-0-21824	0	333	['C:4732']	3	TIKSI			0	128.92	71.58		19381119	19390628	1	0	63	NMS		None									[38, 39, 85, 117]							L.Haimberger	0
333	0-20000-0-72356	0	334	['C:4888']	3	TULSA/INT., OK.			0	-95.88	36.2		19230216	19231206	1	0	63	NMS		Broken Arrow									[38, 85]							L.Haimberger	0
334	0-20000-0-91929	0	335	['1:91930']	3	BORA-BORA-MOTU-AERO			0	-151.75	-16.45		19530806	19540929	1	0	63	NMS		Faaa									[106, 107]							L.Haimberger	0
335	0-20400-0-5023	0	336	['C:5023']	3	Abu Sueir			0	32.15	30.08		19250124	19250124	1	0	63	NMS		Suez									[106, 107, 117]							L.Haimberger	0
336	0-20000-0-07434	0	337	['C:6096']	3	LIMOGES-BELLEGARDE			0	1.18	45.86		19250306	19260123	1	0	63	NMS		Limoges									[106, 107]							L.Haimberger	0
337	0-20000-0-10046	0	338	['C:5692']	3	KIEL-HOLTENAU			0	10.14	54.38		19270314	19340629	1	0	63	NMS		Kiel									[106, 107]							L.Haimberger	0
338	0-20400-0-5735	0	339	['C:5301']	3	Rochefort?			0	-0.98	45.92		19270614	19281113	1	0	63	NMS		Rochefort									[106, 107, 117]							L.Haimberger	0
339	0-20000-0-83698	0	340	['C:4890']	3	CAMPOS (83698-0)			0	-41.33	-21.75		19230213	19231020	1	0	63	NMS		Campos									[106, 107]							L.Haimberger	0
340	0-20000-0-60715	0	341	['C:5753']	3	TUNIS-CARTHAGE			0	10.23	36.83		19271112	19340224	1	0	63	NMS	68	Aryanah									[106, 107]							L.Haimberger	0
341	0-20000-0-26732	0	342	['C:5395']	3	VILNIUS (26732-0)			0	25.29	54.64		19250821	19260116	1	0	63	NMS		Vilnius									[106, 107, 117]							L.Haimberger	0
342	0-70-0-Butmir	0	343	['C:5295']	3	BUTMIR			0	18.32	43.83		19260113	19271014	1	0	63	NMS	192	Sarajevo									[106, 107]							L.Haimberger	0
343	0-20000-0-02562	0	344	['C:5609']	3	LINKOPING/MALMSLATT			0	15.53	58.4		19240229	19260530	1	0	63	NMS		Linkoping									[106, 107]							L.Haimberger	0
344	0-20000-0-83722	0	345	['C:5310']	3	BAURU AERO			0	-49.05	-22.33		19260113	19271027	1	0	63	NMS		Agudos									[106, 107, 117]							L.Haimberger	0
345	0-20000-0-62600	0	346	['C:5779']	3	WADI HALFA			0	31.35	21.82		19240101	19240129	1	0	63	NMS	135	Aswan									[106, 107]							L.Haimberger	0
346	0-20000-0-16288	0	347	['C:5088']	3	CASERTA			0	14.32	41.07		19271014	19271014	1	0	63	NMS	66	Santa Maria Capua Vetere									[106, 107, 117]							L.Haimberger	0
347	0-20500-0-4851	0	348	['C:4851']	3	DEFIANCE MEMORIAL AP			0	-83.57	41.34		19110301	19110303	1	0	63	NMS	9	Winchester									[106, 107]							L.Haimberger	0
348	0-20000-0-10708	0	349	['C:5311']	3	SAARBRUECKEN/ENSHEIM			0	7.11	49.21		19280301	19281113	1	0	63	NMS	205	Saarbrucken									[106, 107]							L.Haimberger	0
349	0-20500-0-4820	0	350	['C:4820']	3	GRAND BEND			0	-80.27	43.33		19080803	19080910	1	0	63	NMS	9	Musoma									[38, 85, 106, 107]							L.Haimberger	0
350	0-20000-0-07150	0	351	['C:5202']	3	LE BOURGET			0	2.43	48.97		19270614	19280327	1	0	63	NMS		Le Bourget									[106, 107, 117]							L.Haimberger	0
351	0-20000-0-08487	0	352	['C:5633']	3	ALMERIA/AEROPUERTO			0	-2.36	36.85		19240202	19340629	1	0	63	NMS	114	Almeria									[106, 107]							L.Haimberger	0
352	0-20400-0-5976	0	353	['C:5976']	3	Uyuni			0	-66.83	-20.47		19450124	19450124	1	0	63	NMS		Uyuni									[106, 107]							L.Haimberger	0
353	0-20300-0-94881	0	354	['C:4921']	3	ROYAL CENTER			0	-86.4833	40.8833		19230212	19231206	1	0	63	NMS	9	Logansport									[38, 85]							L.Haimberger	0
354	0-20400-0-5972	0	355	['C:5972']	3	Malange			0	16.9	-9.83		19521002	19521113	1	0	63	NMS	150	Malanje									[106, 107]							L.Haimberger	0
355	0-20000-0-22892	0	356	['C:5388']	3	VYBORG			0	28.73	60.72		19260111	19281114	1	0	63	NMS	107	Vyborg									[106, 107, 117]							L.Haimberger	0
356	0-20000-0-07510	0	357	['C:5071']	3	BORDEAUX MERIGNAC			0	-0.69	44.83		19280331	19280331	1	0	63	NMS		Pessac									[106, 107]							L.Haimberger	0
357	0-20000-0-08027	0	358	['C:5161']	3	SAN SEBASTIAN/IGUELDO			0	-2.04	43.31		19271001	19280330	1	0	63	NMS		Oria									[106, 107, 117]							L.Haimberger	0
358	0-20000-0-11679	0	359	['C:5376']	3	USTI NAD ORLICI			0	16.42	49.98		19250415	19250822	1	0	63	NMS	243	Usti Nad Orlici									[106, 107]							L.Haimberger	0
359	0-20000-0-06785	0	360	['C:5556']	3	AROSA			0	9.68	46.79		19290911	19300310	1	0	63	NMS		Chur									[106, 107]							L.Haimberger	0
360	0-20000-0-03321	0	361	['C:5326']	3	HAWARDEN AIRPORT			0	-2.99	53.17		19250124	19281117	1	0	63	NMS		Chester									[106, 107, 117]							L.Haimberger	0
361	0-20000-0-13585	0	362	['C:5485']	3	PRILEP			0	21.57	41.33		19180109	19180110	1	0	63	NMS	192	Prilep									[106, 107]							L.Haimberger	0
362	0-20000-0-03649	0	363	['C:5754']	3	BRIZE NORTON			0	-1.58	51.76		19280505	19340612	1	0	63	NMS		Bicester									[85, 106, 107]							L.Haimberger	0
363	0-20000-0-12250	0	364	['C:5365']	3	TORUN			0	18.6	53.04		19280317	19281117	1	0	63	NMS	171	Torun									[106, 107]							L.Haimberger	0
364	0-20000-0-01317	0	365	['C:4887']	3	BERGEN/FLORIDA			0	5.33	60.38		19230403	19231108	1	0	63	NMS		Bergen									[106, 107]							L.Haimberger	0
365	0-20000-0-07230	0	366	['C:5637']	3	BEAUCOUZE			0	-0.61	47.48		19281215	19340628	1	0	63	NMS		Angers									[106, 107]							L.Haimberger	0
366	0-20000-0-83840	0	367	['C:5108']	3	CURITIBA (AERO)			0	-49.17	-25.52		19260116	19281117	1	0	63	NMS		Curitiba									[106, 107, 117]							L.Haimberger	0
367	0-20400-0-5372	0	368	['C:5372']	3	Uhersky Brod			0	17.65	49.02		19250414	19250817	1	0	63	NMS	243	Uhersky Brod									[106, 107]							L.Haimberger	0
368	0-20000-0-41780	0	369	['C:5173']	3	KARACHI AIRPORT			0	67.13	24.9		19251214	19281117	1	0	63	NMS	69	Karachi									[106, 107, 117]							L.Haimberger	0
369	0-20000-0-33548	0	370	['C:5172']	3	Kamianets-Podilskyi			0	26.61	48.69		19260507	19271031	1	0	63	NMS	192	Khotyn									[106, 107]							L.Haimberger	0
370	0-20000-0-10135	0	371	['C:5575']	3	Nordholz (WP)			0	8.67	53.78		19201201	19220322	1	0	63	NMS		Cuxhaven									[38, 85, 106, 107]							L.Haimberger	0
371	0-20500-0-4817	0	372	['C:4817']	3	ERIEAU			0	-80.1	42.25		19080819	19080824	1	0	63	NMS	9	Tarime									[106, 107]							L.Haimberger	0
372	0-20000-0-45004	0	373	['C:5159']	3	KOWLOON (45004-0)			0	114.17	22.31		19260512	19270617	1	0	63	NMS		Shenzhen									[38, 85, 117]							L.Haimberger	0
373	0-20000-0-33837	0	374	['C:5259']	3	Odesa			0	30.77	46.44		19250817	19271015	1	0	63	NMS	106	Odesa									[106, 107]							L.Haimberger	0
374	0-20001-0-01004	0	375	['C:4796']	3	NY-ALESUND II			0	11.92	78.92		19370707	19370804	1	0	63	NMS	104	None									[38, 85, 117]							L.Haimberger	0
375	0-20500-0-4753	0	376	['C:4753']	3	ARVIDA			0	-70.82	48.43		19441017	19450408	1	0	63	NMS	9	None									[38, 39, 85, 117]							L.Haimberger	0
376	0-20000-0-41258	0	377	['C:4869']	3	Sultan Qaboos Port			0	58.57	23.63		19271201	19271231	1	0	63	NMS	63	Muscat									[106, 107]							L.Haimberger	0
377	0-20000-0-91408	0	378	['C:5268']	3	WEATHER SERVICE OFFICE, KOROR, PALAU WCI.			0	134.49	7.34		19251201	19251227	1	0	63	NMS		Koror									[106, 107]							L.Haimberger	0
378	0-20001-0-33008	0	379	['C:5074']	3	BREST (33008-1)			0	23.69	52.12		19270215	19281114	1	0	63	NMS	1	Brest									[106, 107, 117]							L.Haimberger	0
379	0-20001-0-16245	0	380	['C:5100']	3	PRATICA DI MARE RDS			0	12.45	41.67		19260507	19281117	1	0	63	NMS	68	Ariccia									[106, 107, 117]							L.Haimberger	0
380	0-20000-0-61995	0	381	['C:5378']	3	VACOAS (MAURITIUS)			0	57.49	-20.3		19271004	19281116	1	0	63	NMS		Quatre Bornes									[106, 107]							L.Haimberger	0
381	0-20000-0-62414	0	382	['C:4955']	3	ASSWAN			0	32.82	23.96		19560104	19560805	1	0	63	NMS		Aswan									[85, 106, 107]							L.Haimberger	0
382	0-20000-0-72201	0	383	['C:6079']	3	KEY WEST/INT., FL			0	-81.79	24.55		19260507	19280312	1	0	63	NMS	9	Key West									[106, 107, 117]							L.Haimberger	0
383	0-20000-0-07145	0	384	['C:5389']	3	TRAPPES			0	2.01	48.77		19270616	19281113	1	0	63	NMS		Chaville									[85, 117]							L.Haimberger	0
384	0-20000-0-62375	0	385	['C:5000']	3	GIZA - AGRIMET			0	31.22	30.05		19520224	19530320	1	0	63	NMS	64	Madinat Sittah Uktubar									[38, 85]							L.Haimberger	0
385	0-20500-0-4750	0	386	['C:4750']	3	HAMPTON BEACH			0	-69.2	42.93		19440709	19451111	1	0	63	NMS	9	Anadyr									[38, 39, 85, 117]							L.Haimberger	0
386	0-20000-0-83899	0	387	['C:5135']	3	FLORIANOPOLIS (AERO)			0	-48.55	-27.67		19260501	19281117	1	0	63	NMS		Florianopolis									[106, 107, 117]							L.Haimberger	0
387	0-20000-0-12982	0	388	['C:5349']	3	SZEGED külterület			0	20.09	46.26		19260511	19281116	1	0	63	NMS	192	Szeged									[38, 85, 117]							L.Haimberger	0
388	0-20000-0-61980	0	389	['C:4521']	3	SAINT-DENIS/GILLOT (REUNION)			0	55.53	-20.89		19510113	19511127	1	0	63	NMS		Saint-Denis									[106, 107]							L.Haimberger	0
389	0-20000-0-02562	0	390	['C:5701']	3	LINKOPING/MALMSLATT			0	15.53	58.4		19221130	19311205	1	0	63	NMS		Linkoping									[38, 85]							L.Haimberger	0
390	0-20000-0-94299	0	391	['C:5394']	3	WILLIS ISLAND			0	149.97	-16.29		19251201	19260116	1	0	63	NMS		Innisfail									[106, 107]							L.Haimberger	0
391	0-20000-0-02429	0	392	['C:5572']	3	DAGLOSEN			0	14.18	59.66		19351017	19351018	1	0	63	NMS		Kristinehamn									[38, 85, 117]							L.Haimberger	0
392	0-20000-0-43466	0	393	['C:5103']	3	COLOMBO			0	79.87	6.9		19250414	19281116	1	0	63	NMS		Mulleriyawa									[106, 107, 117]							L.Haimberger	0
393	0-724-0-0000000000008159	0	394	['C:5765']	3	ZARAGOZA-VALDESPARTERA			0	-0.94	41.62		19240202	19340629	1	0	63	NMS	205	Zaragoza									[106, 107]							L.Haimberger	0
394	0-20000-0-33711	0	395	['C:5405']	3	Kropyvnytskyi			0	32.28	48.54		19260507	19271015	1	0	63	NMS	107	Kirovohrad									[106, 107]							L.Haimberger	0
395	0-20000-0-60018	0	396	['C:5358']	3	TENERIFE-GUIMAR			0	-16.38	28.32		19270215	19280719	1	0	63	NMS	247	Guimar									[106, 107, 117]							L.Haimberger	0
396	0-20000-0-20674	0	397	['C:4719']	3	OSTROV DIKSON			0	80.41	73.51		19360802	19370617	1	0	63	NMS		None									[85, 117]							L.Haimberger	0
397	0-20000-0-16090	0	398	['C:5072']	3	VERONA/VILLAFRANCA			0	10.87	45.39		19260507	19271015	1	0	63	NMS		Villafranca Di Verona									[106, 107, 117]							L.Haimberger	0
398	0-20000-0-72550	0	399	['C:4802']	3	EPPLEY FIELD, OMAHA,  NE.			0	-95.9	41.3		19150508	19150509	1	0	63	NMS		Council Bluffs									[38, 85, 106, 107]							L.Haimberger	0
399	0-20500-0-34031	0	400	['C:5664']	3	SANDWEILER			0	6.2	49.6		19340527	19340621	1	0	63	NMS		Thionville									[106, 107]							L.Haimberger	0
400	0-20000-0-22892	0	401	['C:5521']	3	VYBORG			0	28.73	60.72		19320818	19330831	1	0	63	NMS	107	Vyborg									[38, 85, 117]							L.Haimberger	0
401	0-20300-0-94937	0	402	['C:4900']	3	ELLENDALE			0	-98.5667	45.9833		19230213	19231108	1	0	63	NMS		Aberdeen									[38, 85]							L.Haimberger	0
402	0-20000-0-96745	0	403	['C:5491']	3	JAKARTA/OBSERVATORY			0	106.83	-6.18		19121220	19130120	1	0	63	NMS		Parung									[38, 85]							L.Haimberger	0
403	0-20000-0-10868	0	404	['C:5250']	3	MUENCHEN-OBERSCHLEISSHEIM			0	11.55	48.24		19260506	19271031	1	0	63	NMS		Munich									[38, 85, 117]							L.Haimberger	0
404	0-20000-0-21432	0	405	['C:6007']	3	OSTROV KOTEL'NYJ			0	137.87	76.0		19480615	19480615	1	0	63	NMS		None									[38, 85, 117]							L.Haimberger	0
405	0-20000-0-41564	0	406	['C:5809']	3	KOHAT			0	71.43	33.57		19300126	19351128	1	0	63	NMS		Kohat									[38, 85]							L.Haimberger	0
406	0-20000-0-08391	0	407	['C:5741']	3	SEVILLA/SAN PABLO			0	-5.88	37.42		19240204	19340628	1	0	63	NMS	227	Sevilla									[106, 107]							L.Haimberger	0
407	0-20000-0-91938	0	408	['C:4493']	3	TAHITI-FAAA			0	-149.61	-17.56		19380109	19401231	1	0	63	NMS		Papeete									[106, 107]							L.Haimberger	0
408	0-20400-0-5105	0	409	['C:5105']	3	Compiègne			0	2.92	49.38		19270614	19270614	1	0	63	NMS		Compiegne									[106, 107]							L.Haimberger	0
409	0-20000-0-03535	0	410	['C:5291']	3	COLESHILL			0	-1.69	52.48		19271003	19271018	1	0	63	NMS		Sutton Coldfield									[106, 107]							L.Haimberger	0
410	0-20000-0-91943	0	411	['1:91943']	3	TAKAROA			0	-145.03	-14.45		19560717	19570515	1	0	63	NMS		Mahina									[106, 107]							L.Haimberger	0
411	0-20000-0-07684	0	412	['C:5744']	3	CANNES			0	6.95	43.56		19310413	19330308	1	0	63	NMS	68	Saint-Raphael									[106, 107]							L.Haimberger	0
412	0-20000-0-07643	0	413	['C:6100']	3	MONTPELLIER			0	3.96	43.58		19200905	19210416	1	0	63	NMS	205	Montpellier									[106, 107]							L.Haimberger	0
413	0-20000-0-83229	0	414	['C:5263']	3	SALVADOR (83229-0)			0	-38.52	-13.02		19280301	19281115	1	0	63	NMS		Salvador									[106, 107, 117]							L.Haimberger	0
414	0-20000-0-16140	0	415	['C:5069']	3	BOLOGNA/BORGO PANIGALE			0	11.3	44.53		19260507	19260508	1	0	63	NMS		Bologna									[106, 107, 117]							L.Haimberger	0
415	0-20000-0-85141	0	416	['C:4838']	3	RURRENABAQUE			0	-67.57	-14.47		19460605	19461231	1	0	63	NMS		Rurrenabaque									[106, 107]							L.Haimberger	0
416	0-20000-0-61980	0	417	['C:4409']	3	SAINT-DENIS/GILLOT (REUNION)			0	55.53	-20.89		19491201	19500724	1	0	63	NMS		Saint-Denis									[106, 107]							L.Haimberger	0
417	0-20000-0-72493	0	418	['C:5317']	3	OAKLAND/METROP. OAKLAND INT., CA.			0	-122.22	37.74		19280312	19280317	1	0	63	NMS		San Francisco									[106, 107, 117]							L.Haimberger	0
418	0-20000-0-62641	0	419	['C:4959']	3	PORT SUDAN			0	37.22	19.58		19470720	19550101	1	0	63	NMS		Sawakin									[106, 107]							L.Haimberger	0
419	0-20000-0-11659	0	420	['C:5253']	3	PRIBYSLAV			0	15.76	49.58		19250415	19280314	1	0	63	NMS	243	Havlickuv Brod									[106, 107, 117]							L.Haimberger	0
420	0-20300-0-93871	0	421	['C:6077']	3	DUE WEST			0	-82.3667	34.35		19250821	19280317	1	0	63	NMS	9	Greenwood									[106, 107, 117]							L.Haimberger	0
421	0-20000-0-60714	0	422	['C:5580']	3	BIZERTE			0	9.8	37.25		19270511	19340616	1	0	63	NMS	68	Manzil Jamil									[106, 107]							L.Haimberger	0
422	0-20001-0-16320	0	423	['C:5075']	3	BRINDISI RDS			0	17.96	40.66		19260111	19281117	1	0	63	NMS		Brindisi									[106, 107, 117]							L.Haimberger	0
423	0-20000-0-72493	0	424	['C:5316']	3	OAKLAND/METROP. OAKLAND INT., CA.			0	-122.22	37.74		19260507	19271022	1	0	63	NMS		San Francisco									[106, 107, 117]							L.Haimberger	0
424	0-20000-0-47646	0	425	['C:5176']	3	TATENO			0	140.13	36.06		19250414	19251218	1	0	63	NMS		Ami									[106, 107]							L.Haimberger	0
425	0-20300-0-13924	0	426	['C:4904']	3	GROESBECK			0	-96.4667	31.5		19230213	19231206	1	0	63	NMS		Waco									[38, 85]							L.Haimberger	0
426	0-20000-0-07207	0	427	['C:5743']	3	BELLE ILE-LE TALUT			0	-3.22	47.29		19200102	19200123	1	0	63	NMS		Auray									[106, 107]							L.Haimberger	0
427	0-20000-0-16168	0	428	['C:5265']	3	MONTE ARGENTARIO			0	11.17	42.39		19260507	19271015	1	0	63	NMS	57	Orbetello									[106, 107, 117]							L.Haimberger	0
428	0-20000-0-16420	0	429	['C:6099']	3	MESSINA			0	15.55	38.2		19260216	19340623	1	0	63	NMS	66	Messina									[106, 107]							L.Haimberger	0
429	0-20000-0-47662	0	430	['C:5363']	3	TOKYO			0	139.75	35.69		19250414	19251230	1	0	63	NMS		Tokyo									[106, 107]							L.Haimberger	0
430	0-20000-0-11010	0	431	['C:5702']	3	LINZ/HOERSCHING-FLUGHAFEN			0	14.19	48.24		19311121	19340627	1	0	63	NMS	243	Linz									[106, 107]							L.Haimberger	0
431	0-20000-0-03749	0	432	['C:5398']	3	MIDDLE WALLOP			0	-1.57	51.15		19271003	19281117	1	0	63	NMS		Winchester									[106, 107]							L.Haimberger	0
432	0-20000-0-72558	0	433	['C:5121']	3	VALLEY, NE.			0	-96.37	41.32		19250817	19260515	1	0	63	NMS		Fremont									[106, 107, 117]							L.Haimberger	0
433	0-20000-0-78526	0	434	['C:5319']	3	SAN JUAN/INT.,  PUERTO RICO			0	-65.99	18.43		19260510	19271022	1	0	63	NMS		Catano									[106, 107, 117]							L.Haimberger	0
434	0-20000-0-10685	0	435	['C:5686']	3	HOF			0	11.88	50.31		19270319	19290320	1	0	63	NMS		Hof									[106, 107]							L.Haimberger	0
435	0-20000-0-66285	0	436	['C:5974']	3	LUENA (LUSO)			0	19.92	-11.78		19521111	19521229	1	0	63	NMS	150	Luena									[106, 107]							L.Haimberger	0
436	0-20500-0-35054	0	437	['C:5229']	3	WEST MALLING			0	0.4	51.28		19281114	19281117	1	0	63	NMS		Gravesend									[106, 107]							L.Haimberger	0
437	0-20000-0-14307	0	438	['C:5290']	3	PULA AERODROME			0	13.93	44.9		19260915	19260915	1	0	63	NMS	243	Pula									[106, 107, 117]							L.Haimberger	0
438	0-20000-0-91938	0	439	['C:4495']	3	TAHITI-FAAA			0	-149.61	-17.56		19460325	19471202	1	0	63	NMS		Papeete									[106, 107]							L.Haimberger	0
439	0-20000-0-83742	0	440	['C:5236']	3	VASSOURAS			0	-43.67	-22.4		19260111	19281114	1	0	63	NMS		Mendes									[106, 107, 117]							L.Haimberger	0
440	0-20000-0-07083	0	441	['C:5380']	3	AVESNES RADAR			0	3.81	50.13		19271016	19280301	1	0	63	NMS		Marly									[106, 107]							L.Haimberger	0
441	0-20000-0-81200	0	442	['C:6128']	3	ZORG EN HOOP			0	-55.18	5.82		19380830	19390422	1	0	63	NMS		Paramaribo									[106, 107]							L.Haimberger	0
442	0-20000-0-72356	0	443	['C:6075']	3	TULSA/INT., OK.			0	-95.88	36.2		19250817	19280317	1	0	63	NMS		Broken Arrow									[106, 107, 117]							L.Haimberger	0
443	0-20400-0-5361	0	444	['C:5361']	3	Timky			0	31.3	50.62		19260509	19271028	1	0	63	NMS	107	Bobrovytsya									[106, 107]							L.Haimberger	0
444	0-20000-0-07690	0	445	['C:4504']	3	NICE			0	7.21	43.65		19210201	19210314	1	0	63	NMS	68	Antibes									[106, 107]							L.Haimberger	0
445	0-20000-0-10569	0	446	['C:5725']	3	PLAUEN			0	12.13	50.48		19261020	19320604	1	0	63	NMS		Plauen									[106, 107]							L.Haimberger	0
446	0-20000-0-43117	0	447	['C:5833']	3	SHOLAPUR			0	75.9	17.67		19350619	19350803	1	0	63	NMS		Sholapur									[38, 85, 106, 107]							L.Haimberger	0
447	0-20400-0-5273	0	448	['C:5272']	3	Pavia			0	9.17	45.18		19260116	19271015	1	0	63	NMS		Pavia									[38, 85, 117]							L.Haimberger	0
448	0-20000-0-86975	0	449	['C:5031']	3	ALEGRETE (86975-0)			0	-55.53	-29.71		19260508	19280324	1	0	63	NMS		Alegrete									[38, 85, 117]							L.Haimberger	0
449	0-20000-0-07354	0	450	['C:5655']	3	CHATEAUROUX DEOLS			0	1.74	46.87		19311219	19340625	1	0	63	NMS		Chateauroux									[38, 85, 106, 107]							L.Haimberger	0
450	0-20000-0-07480	0	451	['C:5604']	3	LYON-BRON			0	4.94	45.73		19220801	19261230	1	0	63	NMS	205	Bron									[106, 107]							L.Haimberger	0
451	0-20001-0-10410	0	452	['C:5587']	3	ESSEN-BREDENEY (10410-1)			0	6.97	51.41		19210907	19240531	1	0	63	NMS		Dusseldorf									[106, 107]							L.Haimberger	0
452	0-20000-0-06215	0	453	['C:5968']	3	VOORSCHOTEN AWS			0	4.44	52.14		19160719	19160720	1	0	63	NMS		Wassenaar									[38, 85, 106, 107, 117]							L.Haimberger	0
453	0-20300-0-00073	0	454	['C:5275']	3	SLUTSK			0	30.45	59.68		19260111	19260531	1	0	63	NMS	107	Pavlovsk									[106, 107, 117]							L.Haimberger	0
454	0-20001-0-16245	0	455	['C:5094']	3	PRATICA DI MARE RDS			0	12.45	41.67		19260507	19281117	1	0	63	NMS	68	Rome									[106, 107, 117]							L.Haimberger	0
455	0-20000-0-47807	0	456	['C:5160']	3	FUKUOKA			0	130.38	33.58		19250414	19251225	1	0	63	NMS		Umi									[106, 107]							L.Haimberger	0
456	0-20000-0-47696	0	457	['C:5260']	3	YOKOSUKA			0	139.67	35.28		19251216	19251219	1	0	63	NMS		Yokosuka									[106, 107]							L.Haimberger	0
457	0-20000-0-43064	0	458	['C:5292']	3	PUNE / LOHOGAON AERODROME			0	73.92	18.58		19260511	19281117	1	0	63	NMS		Pune									[106, 107, 117]							L.Haimberger	0
458	0-20000-0-60461	0	459	['C:6103']	3	ORAN-PORT			0	-0.65	35.7		19220210	19340615	1	0	63	NMS	114	Wahran									[106, 107]							L.Haimberger	0
459	0-20000-0-10502	0	460	['C:5186']	3	NOERVENICH (FLUGPLATZ)			0	6.66	50.83		19260916	19281117	1	0	63	NMS		Pulheim									[106, 107]							L.Haimberger	0
460	0-20000-0-16121	0	461	['C:5089']	3	GENOVA			0	8.92	44.42		19260507	19281117	1	0	63	NMS		Genoa									[106, 107, 117]							L.Haimberger	0
461	0-20000-0-07093	0	462	['C:5238']	3	GOIN AEROPORT M.N.L.			0	6.24	48.98		19270215	19280330	1	0	63	NMS	205	Metz									[106, 107]							L.Haimberger	0
462	0-20000-0-33345	0	463	['C:5196']	3	Kyiv			0	30.54	50.39		19250414	19271024	1	0	63	NMS	107	Kiev									[106, 107]							L.Haimberger	0
463	0-246-0-101503	0	464	['C:5508']	3	KAUHAVA AIRFIELD			0	23.04	63.12		19320317	19351016	1	0	63	NMS		Lapua									[38, 85, 117]							L.Haimberger	0
464	0-20000-0-07471	0	465	['C:5204']	3	LE PUY-LOUDES			0	3.76	45.07		19270618	19271028	1	0	63	NMS	205	Firminy									[106, 107]							L.Haimberger	0
465	0-20300-0-05845	0	466	['C:5843']	3	OSTSTATION			0	-24.4	71.17		19300810	19310716	1	0	63	NMS		None									[38, 85, 106, 107]							L.Haimberger	0
466	0-20001-0-08221	0	467	['C:5222']	3	MADRID/BARAJAS RS			0	-3.58	40.47		19260508	19271015	1	0	63	NMS		Madrid									[85, 117]							L.Haimberger	0
467	0-20000-0-72356	0	468	['C:5076']	3	TULSA/INT., OK.			0	-95.88	36.2		19250817	19280316	1	0	63	NMS		Broken Arrow									[38, 85, 117]							L.Haimberger	0
468	0-20000-0-03162	0	469	['C:5128']	3	ESKDALEMUIR			0	-3.21	55.31		19270217	19281114	1	0	63	NMS		Hawick									[106, 107, 117]							L.Haimberger	0
469	0-20300-0-05845	0	470	['C:5844']	3	OSTSTATION			0	-24.4	71.17		19300810	19310716	1	0	63	NMS		None									[38, 85, 106, 107]							L.Haimberger	0
470	0-20400-0-6082	0	471	['C:6082']	3	Cosne			0	2.92	47.42		19201204	19210111	1	0	63	NMS		Gien									[106, 107]							L.Haimberger	0
471	0-20000-0-14430	0	472	['C:6108']	3	ZADAR RS			0	15.34	44.1		19260226	19340521	1	0	63	NMS	243	Zadar									[106, 107]							L.Haimberger	0
472	0-20000-0-16464	0	473	['C:5047']	3	SIRACUSA			0	15.28	37.07		19260114	19280317	1	0	63	NMS	66	Augusta									[106, 107, 117]							L.Haimberger	0
473	0-20001-0-11035	0	474	['C:5393']	3	WIEN/HOHE WARTE (11035-1)			0	16.36	48.25		19271026	19281115	1	0	63	NMS	243	Schwechat									[106, 107]							L.Haimberger	0
474	0-20000-0-10131	0	475	['C:5073']	3	CUXHAVEN			0	8.71	53.87		19260916	19281117	1	0	63	NMS		Cuxhaven									[106, 107]							L.Haimberger	0
475	0-20000-0-83698	0	476	['C:5083']	3	CAMPOS (83698-0)			0	-41.33	-21.75		19260111	19281117	1	0	63	NMS		Campos									[106, 107, 117]							L.Haimberger	0
476	0-20000-0-07257	0	477	['C:5048']	3	AVORD			0	2.64	47.05		19270215	19280719	1	0	63	NMS		Bourges									[106, 107, 117]							L.Haimberger	0
477	0-20000-0-16289	0	478	['C:5087']	3	NAPOLI/CAPODICHINO			0	14.29	40.88		19260116	19280719	1	0	63	NMS	66	Casoria									[106, 107, 117]							L.Haimberger	0
478	0-20500-0-4759	0	479	['C:4759']	3	ST JOHNS			0	-72.7	45.33		19460802	19471228	1	0	63	NMS	9	Anadyr									[38, 39, 85, 117]							L.Haimberger	0
479	0-20500-0-4733	0	480	['C:4733']	3	MAIN DUCK			0	-75.37	43.93		19380703	19380728	1	0	63	NMS	9	Severnyy									[38, 39, 85, 117]							L.Haimberger	0
480	0-20000-0-94872	0	481	['C:4913']	3	FERNY CREEK			0	145.35	-37.87		19230104	19231206	1	0	63	NMS		Melbourne									[106, 107]							L.Haimberger	0
481	0-20000-0-12843	0	482	['C:5652']	3	BUDAPEST/PESTSZENTLORINC			0	19.18	47.43		19270319	19340628	1	0	63	NMS	192	Gyal									[106, 107]							L.Haimberger	0
482	0-20000-0-06285	0	483	['C:5645']	3	HUIBERTGAT WP			0	6.4	53.57		19190701	19200516	1	0	63	NMS		Winsum									[106, 107]							L.Haimberger	0
483	0-20000-0-16224	0	484	['C:5386']	3	VIGNA DI VALLE			0	12.21	42.08		19251230	19281117	1	0	63	NMS	68	Bracciano									[38, 85, 117]							L.Haimberger	0
484	0-20000-0-10637	0	485	['C:5110']	3	FRANKFURT/MAIN			0	8.52	50.03		19280326	19280326	1	0	63	NMS	205	Darmstadt									[106, 107]							L.Haimberger	0
485	0-20400-0-4673	0	486	['C:4673']	3	Kara-Kul			0	72.63	41.6		19560727	19560821	1	0	63	NMS		Toktogul									[38, 39, 85, 106, 107, 117]							L.Haimberger	0
486	0-20300-0-10468	0	487	['C:5114']	3	OPPIN			0	12.0667	51.55		19270217	19270217	1	0	63	NMS		Dessau									[106, 107]							L.Haimberger	0
487	0-20000-0-08190	0	488	['C:6109']	3	BARCELONA SERVEI			0	2.12	41.38		19280204	19310130	1	0	63	NMS	205	Barcelona									[106, 107]							L.Haimberger	0
488	0-20000-0-91938	0	489	['C:4426']	3	TAHITI-FAAA			0	-149.61	-17.56		19490624	19511218	1	0	63	NMS		Faaa									[106, 107]							L.Haimberger	0
489	0-20000-0-60338	0	490	['C:5235']	3	MELILLA (60338-0)			0	-2.96	35.28		19270615	19280327	1	0	63	NMS	227	Melilla									[106, 107, 117]							L.Haimberger	0
490	0-20000-0-24125	0	491	['C:4579']	3	OLENEK (24125-0)			0	112.43	68.5		19540719	19540921	1	0	63	NMS		Udachnyy									[38, 39, 85, 106, 107, 117]							L.Haimberger	0
491	0-20000-0-72405	0	492	['C:5038']	3	WASHINGTON/NAT., VA.			0	-77.03	38.85		19271014	19271015	1	0	63	NMS	9	Washington									[38, 85, 117]							L.Haimberger	0
492	0-20000-0-16409	0	493	['C:5269']	3	PALERMO BOCCADIFALCO			0	13.31	38.11		19260507	19281117	1	0	63	NMS	68	Palermo									[106, 107, 117]							L.Haimberger	0
493	0-20000-0-91938	0	494	['C:4492']	3	TAHITI-FAAA			0	-149.61	-17.56		19490624	19511218	1	0	63	NMS		Faaa									[106, 107]							L.Haimberger	0
494	0-20000-0-41757	0	495	['C:4865']	3	GAWADAR			0	62.33	25.13		19270923	19271231	1	0	63	NMS	69	Gwadar									[106, 107]							L.Haimberger	0
495	0-20000-0-06496	0	496	['C:5586']	3	ELSENBORN			0	6.18	50.48		19211206	19220302	1	0	63	NMS		Schleiden									[106, 107]							L.Haimberger	0
496	0-20000-0-07661	0	497	['C:6106']	3	CAP CEPET			0	5.94	43.08		19220707	19240430	1	0	63	NMS	68	La Seyne-Sur-Mer									[106, 107]							L.Haimberger	0
497	0-20000-0-03749	0	498	['C:6123']	3	MIDDLE WALLOP			0	-1.57	51.15		19280117	19310726	1	0	63	NMS		Winchester									[38, 85, 106, 107]							L.Haimberger	0
498	0-20000-0-08285	0	499	['C:5755']	3	VALENCIA VIVEROS			0	-0.37	39.48		19220326	19291026	1	0	63	NMS	114	Valencia									[106, 107]							L.Haimberger	0
499	0-20000-0-01025	0	500	['C:5628']	3	TROMSO/LANGNES			0	18.91	69.68		19220131	19330619	1	0	63	NMS		Tromso									[106, 107]							L.Haimberger	0
500	0-20000-0-41715	0	501	['C:5804']	3	JACOBABAD			0	68.47	28.3		19351201	19351231	1	0	63	NMS	69	Jacobabad									[106, 107]							L.Haimberger	0
501	0-20000-0-04320	0	502	['C:4997']	3	DANMARKSHAVN			0	-18.67	76.77		19060923	19080715	1	0	63	NMS		None									[38, 85, 106, 107]							L.Haimberger	0
502	0-20000-0-02229	0	503	['C:5615']	3	OSTERSUND, SOL			0	14.48	63.2		19211210	19330612	1	0	63	NMS		Ostersund									[38, 85, 106, 107]							L.Haimberger	0
503	0-20001-0-34172	0	504	['C:5322']	3	SARATOV (34172-1)			0	46.04	51.56		19271014	19271014	1	0	63	NMS		Saratov									[106, 107]							L.Haimberger	0
504	0-20000-0-72558	0	505	['C:5120']	3	VALLEY, NE.			0	-96.37	41.32		19250817	19251230	1	0	63	NMS		Fremont									[38, 85, 117]							L.Haimberger	0
505	0-20000-0-03918	0	506	['C:5030']	3	CASTOR BAY			0	-6.33	54.5		19271006	19281113	1	0	63	NMS		Antrim									[38, 85, 117]							L.Haimberger	0
506	0-20000-0-11816	0	507	['C:5379']	3	BRATISLAVA-LETISKO			0	17.21	48.17		19250415	19280313	1	0	63	NMS	243	Bratislava									[106, 107, 117]							L.Haimberger	0
507	0-20000-0-10170	0	508	['C:5850']	3	ROSTOCK-WARNEMUENDE			0	12.08	54.18		19250411	19260709	1	0	63	NMS		Rostock									[38, 85, 106, 107]							L.Haimberger	0
508	0-20000-0-07205	0	509	['C:4499']	3	LORIENT LANN BIHOUE			0	-3.44	47.76		19230128	19240710	1	0	63	NMS		Lorient									[106, 107]							L.Haimberger	0
509	0-20000-0-03796	0	510	['C:5603']	3	LANGDON BAY			0	1.34	51.13		19210923	19271229	1	0	63	NMS		Folkestone									[38, 85, 106, 107]							L.Haimberger	0
510	0-20000-0-10147	0	511	['C:4994']	3	HAMBURG-FUHLSBUETTEL			0	9.99	53.63		19260507	19300117	1	0	63	NMS		Hamburg									[38, 85, 106, 107, 117]							L.Haimberger	0
511	0-20300-0-00073	0	512	['C:5339']	3	SLUTSK			0	30.45	59.68		19250124	19271031	1	0	63	NMS	107	Pavlovsk									[38, 85, 117]							L.Haimberger	0
512	0-20000-0-07230	0	513	['C:5040']	3	BEAUCOUZE			0	-0.61	47.48		19270617	19281112	1	0	63	NMS		Angers									[106, 107]							L.Haimberger	0
513	0-20000-0-60735	0	514	['C:5689']	3	KAIROUAN			0	10.1	35.67		19330803	19340613	1	0	63	NMS	68	Masakin									[106, 107]							L.Haimberger	0
514	0-20000-0-31168	0	515	['C:4544']	3	AYAN			0	138.15	56.45		19540519	19540922	1	0	63	NMS		Nikolayevsk-Na-Amure									[38, 39, 85, 106, 107, 117]							L.Haimberger	0
515	0-20400-0-5721	0	516	['C:5721']	3	Orenburg			0	55.1	55.1		19281106	19281106	1	0	63	NMS	190	Kushnarenkovo									[106, 107]							L.Haimberger	0
516	0-20000-0-62053	0	517	['C:6110']	3	BENINA			0	20.27	32.1		19290126	19311206	1	0	63	NMS	195	Benghazi									[106, 107]							L.Haimberger	0
517	0-20000-0-41529	0	518	['C:5277']	3	PESHAWAR			0	71.93	34.03		19260111	19281117	1	0	63	NMS		Peshawar									[106, 107, 117]							L.Haimberger	0
518	0-20000-0-07650	0	519	['C:5713']	3	MARIGNANE			0	5.22	43.44		19270604	19310903	1	0	63	NMS	68	Marseille									[106, 107]							L.Haimberger	0
519	0-20000-0-02562	0	520	['C:5700']	3	LINKOPING/MALMSLATT			0	15.53	58.4		19231204	19320115	1	0	63	NMS		Linkoping									[106, 107]							L.Haimberger	0
520	0-20000-0-40857	0	521	['C:5535']	3	BUSHEHR			0	50.82	28.9		19490703	19520408	1	0	63	NMS	228	Bushehr									[106, 107]							L.Haimberger	0
521	0-20000-0-62760	0	522	['C:4949']	3	EL FASHER			0	25.33	13.62		19391113	19530420	1	0	63	NMS	135	Umm Kaddadah									[106, 107]							L.Haimberger	0
522	0-20000-0-07145	0	523	['1:07149']	3	TRAPPES			0	2.01	48.77		19210301	19210331	1	0	63	NMS		Athis-Mons									[106, 107]							L.Haimberger	0
523	0-20000-0-66318	0	524	['C:5973']	3	HUAMBO (NOVA LISBOA)			0	15.75	-12.8		19521002	19521231	1	0	63	NMS	150	Huambo									[106, 107]							L.Haimberger	0
524	0-20000-0-60390	0	525	['C:6080']	3	DAR-EL-BEIDA			0	3.22	36.69		19270401	19320327	1	0	63	NMS	114	Algiers									[106, 107]							L.Haimberger	0
525	0-20000-0-20353	0	526	['C:4572']	3	MYS ZELANIYA			0	68.55	76.95		19540419	19540922	1	0	63	NMS	190	None									[38, 39, 85, 106, 107, 117]							L.Haimberger	0
526	0-20000-0-42083	0	527	['C:5832']	3	SHIMLA			0	77.17	31.1		19280103	19280525	1	0	63	NMS		Shimla									[106, 107]							L.Haimberger	0
527	0-20000-0-48108	0	528	['C:5836']	3	DAWEI			0	98.22	14.1		19350915	19351230	1	0	63	NMS		Dawei									[106, 107]							L.Haimberger	0
528	0-20000-0-07747	0	529	['C:5617']	3	PERPIGNAN			0	2.87	42.74		19230724	19310924	1	0	63	NMS	205	Perpignan									[106, 107]							L.Haimberger	0
529	0-20000-0-03918	0	530	['C:5632']	3	CASTOR BAY			0	-6.33	54.5		19260920	19340210	1	0	63	NMS		Antrim									[38, 85, 106, 107]							L.Haimberger	0
530	0-20000-0-20674	0	531	['C:4710']	3	OSTROV DIKSON			0	80.41	73.51		19341108	19350707	1	0	63	NMS		None									[85, 117]							L.Haimberger	0
531	0-20000-0-01317	0	532	['C:5062']	3	BERGEN/FLORIDA			0	5.33	60.38		19251201	19280321	1	0	63	NMS		Bergen									[106, 107, 117]							L.Haimberger	0
532	0-20000-0-07761	0	533	['C:4502']	3	AJACCIO			0	8.79	41.92		19201115	19210331	1	0	63	NMS	68	Ajaccio									[106, 107]							L.Haimberger	0
533	0-20000-0-01463	0	534	['C:5046']	3	AS			0	10.78	59.66		19260504	19280316	1	0	63	NMS		Drobak									[106, 107, 117]							L.Haimberger	0
534	0-20000-0-07110	0	535	['C:4342']	3	BREST-GUIPAVAS			0	-4.38	48.45		19250106	19271104	1	0	63	NMS		Brest									[106, 107]							L.Haimberger	0
535	0-20000-0-07510	0	536	['C:5644']	3	BORDEAUX MERIGNAC			0	-0.69	44.83		19200111	19241025	1	0	63	NMS		Bordeaux									[38, 106, 107]							L.Haimberger	0
536	0-20300-0-38341	0	537	['C:4690']	3	TARAZ			0	71.3	42.85		19560320	19560331	1	0	63	NMS		Taraz									[38, 39, 85, 106, 107, 117]							L.Haimberger	0
537	0-20000-0-20674	0	538	['C:4581']	3	OSTROV DIKSON			0	80.41	73.51		19540420	19540921	1	0	63	NMS		None									[38, 39, 85, 106, 107, 117]							L.Haimberger	0
538	0-20000-0-08391	0	539	['C:5331']	3	SEVILLA/SAN PABLO			0	-5.88	37.42		19250124	19281114	1	0	63	NMS	227	Sevilla									[106, 107, 117]							L.Haimberger	0
539	0-246-0-100996	0	540	['C:5516']	3	HELSINKI HARMAJA			0	24.98	60.11		19320310	19350314	1	0	63	NMS		Helsinki									[38, 85, 117]							L.Haimberger	0
540	0-20000-0-10113	0	541	['C:5718']	3	NORDERNEY			0	7.15	53.71		19260724	19290729	1	0	63	NMS		Norden									[106, 107]							L.Haimberger	0
541	0-20000-0-72438	0	542	['C:4850']	3	INDIANAPOLIS/I.-MUN/WEIR COOK, IN.			0	-86.27	39.73		19090927	19091030	1	0	63	NMS	9	Speedway									[38, 85, 106, 107]							L.Haimberger	0
542	0-20000-0-20674	0	543	['C:4641']	3	OSTROV DIKSON			0	80.41	73.51		19541021	19550421	1	0	63	NMS		None									[38, 39, 85, 106, 107, 117]							L.Haimberger	0
543	0-20000-0-07761	0	544	['C:5574']	3	AJACCIO			0	8.79	41.92		19220803	19340622	1	0	63	NMS	68	Ajaccio									[106, 107]							L.Haimberger	0
544	0-20400-0-5733	0	545	['C:5733']	3	Reykjavik			0	-21.9	61.13		19321026	19330830	1	0	63	NMS		Kopavogur									[38, 85, 106, 107]							L.Haimberger	0
545	0-20000-0-41533	0	546	['C:5828']	3	RISALPUR			0	71.98	34.07		19300127	19350908	1	0	63	NMS		Risalpur									[38, 85]							L.Haimberger	0
546	0-20000-0-11567	0	547	['C:5239']	3	PRAHA-KBELY			0	14.54	50.12		19250415	19250821	1	0	63	NMS		Celakovice									[106, 107]							L.Haimberger	0
547	0-20000-0-42261	0	548	['C:5025']	3	AGRA (42261-0)			0	78.03	27.17		19250818	19281117	1	0	63	NMS		Agra									[38, 85, 117]							L.Haimberger	0
548	0-20400-0-4698	0	549	['C:4698']	3	Turk			0	70.18	41.05		19510723	19510801	1	0	63	NMS		Angren									[38, 39, 85, 106, 107, 117]							L.Haimberger	0
549	0-20300-0-20047	0	550	['C:4708']	3	BUKHTA TIKHAYA/GUKER IS.			0	52.8	80.45		19340910	19350903	1	0	63	NMS	190	None									[85, 117]							L.Haimberger	0
550	0-20000-0-07005	0	551	['C:5631']	3	ABBEVILLE			0	1.83	50.14		19231127	19311027	1	0	63	NMS		Abbeville									[106, 107]							L.Haimberger	0
551	0-20000-0-02531	0	552	['C:5679']	3	GOTEBORG, SOL			0	11.98	57.69		19260902	19310829	1	0	63	NMS		Goteborg									[106, 107]							L.Haimberger	0
552	0-20000-0-41196	0	553	['C:5552']	3	SHARJAH INTERNATIONAL AIRPORT			0	55.52	25.33		19490605	19490630	1	0	63	NMS	132	Sharjah									[106, 107]							L.Haimberger	0
553	0-20000-0-08238	0	554	['C:5364']	3	TORTOSA			0	0.49	40.82		19260115	19280719	1	0	63	NMS	114	Tortosa									[106, 107, 117]							L.Haimberger	0
554	0-20300-0-94937	0	555	['C:5125']	3	ELLENDALE			0	-98.5667	45.9833		19250817	19280315	1	0	63	NMS		Aberdeen									[38, 85, 117]							L.Haimberger	0
555	0-20000-0-20353	0	556	['C:4709']	3	MYS ZELANIYA			0	68.55	76.95		19341012	19350802	1	0	63	NMS	190	None									[85, 117]							L.Haimberger	0
556	0-20000-0-16599	0	557	['C:5709']	3	GUDJA			0	14.5	35.85		19231202	19330207	1	0	63	NMS	195	Sliema									[106, 107]							L.Haimberger	0
557	0-20000-0-06434	0	558	['C:6073']	3	MELLE			0	3.82	50.98		19160112	19161207	1	0	63	NMS		Herzele									[106, 107]							L.Haimberger	0
558	0-20000-0-12982	0	559	['C:5350']	3	SZEGED külterület			0	20.09	46.26		19271019	19281114	1	0	63	NMS	192	Szeged									[106, 107, 117]							L.Haimberger	0
559	0-20000-0-06621	0	560	['C:5557']	3	GUETTINGEN			0	9.28	47.6		19290907	19300310	1	0	63	NMS		Friedrichshafen									[106, 107]							L.Haimberger	0
560	0-20000-0-10554	0	561	['C:5668']	3	ERFURT-WEIMAR			0	10.96	50.98		19270618	19340624	1	0	63	NMS	205	Erfurt									[106, 107]							L.Haimberger	0
561	0-20000-0-06260	0	562	['C:6129']	3	DE BILT AWS			0	5.18	52.1		19330630	19370319	1	0	63	NMS		Zeist									[85, 117]							L.Haimberger	0
562	0-20000-0-41196	0	563	['C:5831']	3	SHARJAH INTERNATIONAL AIRPORT			0	55.52	25.33		19350722	19351231	1	0	63	NMS	132	Sharjah									[106, 107]							L.Haimberger	0
563	0-20000-0-48110	0	564	['C:5461']	3	Myeik			0	98.6	12.43		19410430	19420108	1	0	63	NMS		Mergui									[106, 107]							L.Haimberger	0
564	0-20000-0-24641	0	565	['C:4654']	3	VILJUJSK			0	121.62	63.78		19541019	19550422	1	0	63	NMS		None									[38, 39, 85, 106, 107, 117]							L.Haimberger	0
565	0-20000-0-11406	0	566	['C:5098']	3	CHEB			0	12.39	50.07		19250414	19280305	1	0	63	NMS		Cheb									[106, 107, 117]							L.Haimberger	0
566	0-246-0-101219	0	567	['C:5527']	3	KOUVOLA UTTI LENTOPORTINTIE			0	26.93	60.89		19320211	19351119	1	0	63	NMS	107	Valkeala									[38, 85, 117]							L.Haimberger	0
567	0-20400-0-5360	0	568	['C:5360']	3	Tiflis			0	44.3	41.72		19271014	19280331	1	0	63	NMS	190	Kaspi									[106, 107, 117]							L.Haimberger	0
568	0-20000-0-25563	0	569	['C:4603']	3	ANADYR'			0	177.57	64.78		19541019	19550421	1	0	63	NMS		Anadyr									[38, 39, 85, 106, 107, 117]							L.Haimberger	0
569	0-20000-0-21432	0	570	['C:4642']	3	OSTROV KOTEL'NYJ			0	137.87	76.0		19541019	19550422	1	0	63	NMS		None									[38, 39, 85, 106, 107, 117]							L.Haimberger	0
570	0-20000-0-20353	0	571	['C:4634']	3	MYS ZELANIYA			0	68.55	76.95		19541019	19550422	1	0	63	NMS	190	None									[38, 39, 85, 106, 107, 117]							L.Haimberger	0
571	0-20000-0-89664	0	572	['C:4842']	3	MCMURDO			0	166.67	-77.85		19110813	19111225	1	0	63	NMS		None									[85]							L.Haimberger	0
572	0-20000-0-08487	0	573	['C:5036']	3	ALMERIA/AEROPUERTO			0	-2.36	36.85		19250124	19280331	1	0	63	NMS	114	Almeria									[106, 107, 117]							L.Haimberger	0
573	0-20000-0-31004	0	574	['C:4601']	3	ALDAN			0	125.37	58.62		19541019	19550422	1	0	63	NMS		Aldan									[38, 39, 85, 106, 107, 117]							L.Haimberger	0
574	0-20400-0-5198	0	575	['C:5198']	3	La Courtine			0	2.25	45.7		19271011	19281113	1	0	63	NMS	205	Ussel									[106, 107]							L.Haimberger	0
575	0-20000-0-42261	0	576	['C:5026']	3	AGRA (42261-0)			0	78.03	27.17		19260111	19281117	1	0	63	NMS		Agra									[106, 107, 117]							L.Haimberger	0
576	0-20000-0-07240	0	577	['C:4519']	3	TOURS			0	0.73	47.44		19210101	19210331	1	0	63	NMS		Tours									[106, 107]							L.Haimberger	0
577	0-20000-0-10469	0	578	['C:5154']	3	LEIPZIG/HALLE			0	12.24	51.43		19260914	19270216	1	0	63	NMS		Halle									[106, 107]							L.Haimberger	0
578	0-20000-0-30692	0	579	['C:4587']	3	SKOVORODINO			0	123.97	54.0		19540419	19540922	1	0	63	NMS		Skovorodino									[38, 39, 85, 106, 107, 117]							L.Haimberger	0
579	0-20000-0-03321	0	580	['C:5622']	3	HAWARDEN AIRPORT			0	-2.99	53.17		19220501	19260611	1	0	63	NMS		Chester									[106, 107]							L.Haimberger	0
580	0-20000-0-62318	0	581	['C:5978']	3	NOUZHA			0	29.95	31.18		19470101	19481003	1	0	63	NMS	64	Alexandria									[106, 107]							L.Haimberger	0
581	0-20000-0-10170	0	582	['C:5620']	3	ROSTOCK-WARNEMUENDE			0	12.08	54.18		19210512	19290530	1	0	63	NMS		Rostock									[38, 85, 106, 107]							L.Haimberger	0
582	0-20000-0-26732	0	583	['C:5758']	3	VILNIUS (26732-0)			0	25.29	54.64		19281010	19311130	1	0	63	NMS		Vilnius									[106, 107]							L.Haimberger	0
583	0-20000-0-62378	0	584	['C:6122']	3	HELWAN			0	31.35	29.86		19480703	19481106	1	0	63	NMS		Cairo									[36, 85]							L.Haimberger	0
584	0-20000-0-42474	0	585	['C:5787']	3	ALLAHABAD/GHOORPUR			0	81.81	25.31		19300717	19310918	1	0	63	NMS		Allahabad									[38, 85, 106, 107]							L.Haimberger	0
585	0-20000-0-61980	0	586	['C:4370']	3	SAINT-DENIS/GILLOT (REUNION)			0	55.53	-20.89		19480701	19490530	1	0	63	NMS		Saint-Denis									[106, 107]							L.Haimberger	0
586	0-724-0-0000000000008453	0	587	['C:5315']	3	SAN FERNANDO			0	-6.21	36.47		19270613	19281117	1	0	63	NMS	227	San Fernando									[106, 107, 117]							L.Haimberger	0
587	0-20000-0-30054	0	588	['C:4656']	3	VITIM			0	112.58	59.45		19541019	19550422	1	0	63	NMS		Lensk									[38, 39, 85, 106, 107, 117]							L.Haimberger	0
588	0-20500-0-34031	0	589	['C:5625']	3	SANDWEILER			0	6.2	49.6		19281013	19311116	1	0	63	NMS		Thionville									[106, 107]							L.Haimberger	0
589	0-20000-0-38457	0	590	['C:4695']	3	TASHKENT			0	69.3	41.33		19540711	19540727	1	0	63	NMS		Tashkent									[38, 39, 85, 106, 107, 117]							L.Haimberger	0
590	0-20000-0-20353	0	591	['C:4760']	3	MYS ZELANIYA			0	68.55	76.95		19460123	19471230	1	0	63	NMS	190	None									[38, 39, 85, 117]							L.Haimberger	0
591	0-20000-0-06260	0	592	['C:5969']	3	DE BILT AWS			0	5.18	52.1		19240319	19290815	1	0	63	NMS		Zeist									[38, 85]							L.Haimberger	0
592	0-20300-0-93871	0	593	['C:5122']	3	DUE WEST			0	-82.3667	34.35		19250821	19280317	1	0	63	NMS	9	Greenwood									[38, 85, 117]							L.Haimberger	0
593	0-20000-0-20891	0	594	['C:4617']	3	HATANGA			0	102.47	71.98		19541019	19550422	1	0	63	NMS		None									[38, 39, 85, 106, 107, 117]							L.Haimberger	0
594	0-20000-0-38439	0	595	['C:4689']	3	SHARDARA			0	67.97	41.25		19540711	19540728	1	0	63	NMS		Chardara									[38, 39, 85, 106, 107, 117]							L.Haimberger	0
595	0-20000-0-07602	0	596	['C:6086']	3	BIARRITZ-ANGLET			0	-1.53	43.47		19201228	19220225	1	0	63	NMS		Biarritz									[38, 106, 107]							L.Haimberger	0
596	0-20000-0-03693	0	597	['C:6083']	3	SHOEBURYNESS, LANDWICK			0	0.83	51.55		19211027	19240215	1	0	63	NMS		Southend-On-Sea									[38, 85, 106, 107]							L.Haimberger	0
597	0-20000-0-11120	0	598	['C:5849']	3	INNSBRUCK-FLUGHAFEN			0	11.34	47.26		19290618	19290828	1	0	63	NMS		Innsbruck									[106, 107]							L.Haimberger	0
598	0-20300-0-32217	0	599	['C:4571']	3	M. VASILYEV			0	155.4	50.016999999999996		19540420	19540922	1	0	63	NMS		Petropavlovsk-Kamchatskiy									[38, 39, 85, 106, 107, 117]							L.Haimberger	0
599	0-20000-0-10471	0	600	['C:5206']	3	LEIPZIG-HOLZHAUSEN			0	12.45	51.31		19250414	19280326	1	0	63	NMS		Taucha									[106, 107]							L.Haimberger	0
600	0-20500-0-4735	0	601	['C:4735']	3	MONTREAL			0	-72.25	45.47		19381212	19390622	1	0	63	NMS	9	Anadyr									[38, 39, 85, 117]							L.Haimberger	0
601	0-20000-0-25563	0	602	['C:5991']	3	ANADYR'			0	177.57	64.78		19410322	19431201	1	0	63	NMS		Anadyr									[38, 39, 85, 106, 107, 117]							L.Haimberger	0
602	0-20000-0-41712	0	603	['C:5436']	3	DAL BANDIN			0	64.4	28.88		19400401	19420331	1	0	63	NMS	69	Dalbandin									[106, 107]							L.Haimberger	0
603	0-20000-0-12495	0	604	['C:5704']	3	LUBLIN RADAWIEC			0	22.39	51.22		19251102	19320416	1	0	63	NMS	192	Lublin									[106, 107]							L.Haimberger	0
604	0-20300-0-94937	0	605	['C:6078']	3	ELLENDALE			0	-98.5667	45.9833		19250817	19280317	1	0	63	NMS		Aberdeen									[106, 107, 117]							L.Haimberger	0
605	0-20000-0-08001	0	606	['C:6094']	3	LA CORUNA			0	-8.42	43.37		19211129	19340615	1	0	63	NMS		A Coruna									[106, 107]							L.Haimberger	0
606	0-20000-0-41624	0	607	['C:5799']	3	DERA ISMAIL KHAN			0	70.92	31.82		19350904	19351231	1	0	63	NMS		Dera Ismail Khan									[106, 107]							L.Haimberger	0
607	0-20300-0-13924	0	608	['C:5149']	3	GROESBECK			0	-96.4667	31.5		19250820	19280317	1	0	63	NMS		Waco									[38, 85, 117]							L.Haimberger	0
608	0-20000-0-24343	0	609	['C:4600']	3	ZHIGANSK			0	123.4	66.77		19540419	19540722	1	0	63	NMS		None									[38, 39, 85, 106, 107, 117]							L.Haimberger	0
609	0-20000-0-96749	0	610	['C:5489']	3	JAKARTA/SOEKARNO-HATTA			0	106.65	-6.12		19120216	19140305	1	0	63	NMS		Jakarta									[38, 85]							L.Haimberger	0
610	0-20000-0-11350	0	611	['C:5736']	3	SALZBURG/FREISAAL			0	13.05	47.79		19310328	19340820	1	0	63	NMS		Salzburg									[106, 107]							L.Haimberger	0
611	0-20000-0-21824	0	612	['C:4610']	3	TIKSI			0	128.92	71.58		19541019	19550422	1	0	63	NMS		None									[38, 39, 85, 106, 107, 117]							L.Haimberger	0
612	0-20000-0-62375	0	613	['C:4935']	3	GIZA - AGRIMET			0	31.22	30.05		19290330	19560328	1	0	63	NMS	64	Madinat Sittah Uktubar									[106, 107]							L.Haimberger	0
613	0-20000-0-43193	0	614	['C:5473']	3	VENGURLA			0	73.63	15.87		19411201	19420331	1	0	63	NMS		Vengurla									[106, 107]							L.Haimberger	0
614	0-20000-0-10170	0	615	['C:5621']	3	ROSTOCK-WARNEMUENDE			0	12.08	54.18		19210804	19340615	1	0	63	NMS		Rostock									[106, 107]							L.Haimberger	0
615	0-20000-0-10471	0	616	['C:5205']	3	LEIPZIG-HOLZHAUSEN			0	12.45	51.31		19271014	19280326	1	0	63	NMS		Taucha									[38, 85, 117]							L.Haimberger	0
616	0-20400-0-5629	0	617	['C:5629']	3	Valenciennes			0	3.52	50.35		19241228	19320501	1	0	63	NMS		Valenciennes									[106, 107]							L.Haimberger	0
617	0-20400-0-5653	0	618	['C:5653']	3	Calais			0	1.87	50.95		19230901	19340623	1	0	63	NMS		Calais									[106, 107]							L.Haimberger	0
618	0-20300-0-13924	0	619	['C:5150']	3	GROESBECK			0	-96.4667	31.5		19250820	19280317	1	0	63	NMS		Waco									[106, 107, 117]							L.Haimberger	0
619	0-20000-0-60135	0	620	['C:5728']	3	RABAT-SALE			0	-6.76	34.05		19211227	19311222	1	0	63	NMS	227	Rabat									[106, 107]							L.Haimberger	0
620	0-20000-0-72409	0	621	['C:5201']	3	LAKEHURST/NAS, NJ.			0	-74.32	40.03		19280315	19280315	1	0	63	NMS	9	Lakewood									[38, 85, 117]							L.Haimberger	0
621	0-20300-0-94881	0	622	['C:5307']	3	ROYAL CENTER			0	-86.4833	40.8833		19250817	19280316	1	0	63	NMS	9	Logansport									[38, 85, 117]							L.Haimberger	0
622	0-20000-0-24641	0	623	['C:4594']	3	VILJUJSK			0	121.62	63.78		19540419	19540922	1	0	63	NMS		None									[38, 39, 85, 106, 107, 117]							L.Haimberger	0
623	0-20000-0-06215	0	624	['C:5967']	3	VOORSCHOTEN AWS			0	4.44	52.14		19120323	19140821	1	0	63	NMS		Katwijk									[106, 107]							L.Haimberger	0
624	0-20000-0-52267	0	625	['C:5407']	3	EJIN QI			0	101.07	41.95		19311028	19320310	1	0	63	NMS		Hovd									[38, 39, 85, 104, 105, 106, 107]							L.Haimberger	0
625	0-724-0-0000000000008159	0	626	['C:5403']	3	ZARAGOZA-VALDESPARTERA			0	-0.94	41.62		19260114	19281114	1	0	63	NMS	205	Zaragoza									[106, 107, 117]							L.Haimberger	0
626	0-20001-0-10035	0	627	['C:5751']	3	SCHLESWIG (10035-1)			0	9.55	54.53		19191009	19200503	1	0	63	NMS		Flensburg									[38, 106, 107]							L.Haimberger	0
627	0-246-0-101662	0	628	['C:5511']	3	KRUUNUPYY AIRPORT			0	23.14	63.73		19320615	19330719	1	0	63	NMS		Kokkola									[106, 107, 117]							L.Haimberger	0
628	0-20000-0-20674	0	629	['C:4729']	3	OSTROV DIKSON			0	80.41	73.51		19370702	19380629	1	0	63	NMS		None									[38, 39, 85, 117]							L.Haimberger	0
629	0-20500-0-4755	0	630	['C:4755']	3	HAILEYBURY			0	-78.37	47.43		19460209	19470209	1	0	63	NMS	9	None									[38, 39, 85, 117]							L.Haimberger	0
630	0-20000-0-20107	0	631	['C:4720']	3	BARENTSBURG			0	14.22	78.06		19370730	19380317	1	0	63	NMS	104	None									[38, 39, 85, 117]							L.Haimberger	0
631	0-20000-0-31004	0	632	['C:4539']	3	ALDAN			0	125.37	58.62		19540419	19540822	1	0	63	NMS		Aldan									[38, 39, 85, 106, 107, 117]							L.Haimberger	0
632	0-20000-0-42083	0	633	['C:5333']	3	SHIMLA			0	77.17	31.1		19250818	19280331	1	0	63	NMS		Shimla									[106, 107, 117]							L.Haimberger	0
633	0-20000-0-02814	0	634	['C:5510']	3	KEMIJARVI AIRFIELD			0	27.16	66.72		19320916	19330913	1	0	63	NMS	177	Rovaniemi									[38, 85, 117]							L.Haimberger	0
634	0-20000-0-42909	0	635	['C:5474']	3	VERAVAL			0	70.37	20.9		19411201	19420331	1	0	63	NMS		Veraval									[106, 107]							L.Haimberger	0
635	0-20000-0-24817	0	636	['C:4659']	3	ERBOGACEN			0	108.02	61.27		19541019	19550422	1	0	63	NMS		Kirensk									[38, 39, 85, 106, 107, 117]							L.Haimberger	0
636	0-20400-0-4716	0	637	['C:5995']	3	Mys Shmidta			0	180.53	68.92		19400705	19440520	1	0	63	NMS		Anadyr									[38, 39, 85, 106, 107, 117]							L.Haimberger	0
637	0-20000-0-20674	0	638	['C:5998']	3	OSTROV DIKSON			0	80.41	73.51		19400819	19430713	1	0	63	NMS		None									[38, 39, 85, 117]							L.Haimberger	0
638	0-20000-0-07577	0	639	['C:5612']	3	MONTELIMAR			0	4.73	44.58		19240826	19340624	1	0	63	NMS	205	Montelimar									[106, 107]							L.Haimberger	0
639	0-20000-0-03827	0	640	['C:5618']	3	PLYMOUTH, MOUNT BATTEN			0	-4.12	50.36		19220717	19340621	1	0	63	NMS		Plymouth									[106, 107]							L.Haimberger	0
640	0-20300-0-23074	0	641	['C:4551']	3	DUDINKA			0	86.17	69.4		19540419	19540921	1	0	63	NMS		Dudinka									[38, 39, 85, 106, 107, 117]							L.Haimberger	0
641	0-20000-0-06235	0	642	['C:6092']	3	DE KOOIJ VK			0	4.78	52.93		19270309	19340627	1	0	63	NMS		Den Helder									[38, 85, 106, 107]							L.Haimberger	0
642	0-20000-0-07434	0	643	['C:5211']	3	LIMOGES-BELLEGARDE			0	1.18	45.86		19271014	19280316	1	0	63	NMS		Limoges									[106, 107]							L.Haimberger	0
643	0-20000-0-30692	0	644	['C:4647']	3	SKOVORODINO			0	123.97	54.0		19541019	19550422	1	0	63	NMS		Skovorodino									[38, 39, 85, 106, 107, 117]							L.Haimberger	0
644	0-20000-0-03768	0	645	['C:5671']	3	SOUTH FARNBOROUGH			0	-0.77	51.28		19210617	19340620	1	0	63	NMS		Farnborough									[38, 85, 106, 107]							L.Haimberger	0
645	0-20000-0-22802	0	646	['C:5519']	3	SORTAVALA			0	30.72	61.72		19320211	19350613	1	0	63	NMS	2	Sortavala									[38, 85, 117]							L.Haimberger	0
646	0-20300-0-25173	0	647	['C:4570']	3	MYS SHMIDTA			0	-179.48	68.92		19540419	19540922	1	0	63	NMS		None									[38, 39, 85, 106, 107, 117]							L.Haimberger	0
647	0-20000-0-25123	0	648	['C:4624']	3	CHERSKIJ			0	161.28	68.75		19541019	19550421	1	0	63	NMS		None									[38, 39, 85, 106, 107, 117]							L.Haimberger	0
648	0-20000-0-94866	0	649	['C:5234']	3	MELBOURNE AIRPORT			0	144.83	-37.67		19250414	19281116	1	0	63	NMS		Melbourne									[106, 107, 117]							L.Haimberger	0
649	0-20300-0-00073	0	650	['C:5340']	3	SLUTSK			0	30.45	59.68		19250124	19280719	1	0	63	NMS	107	Pavlovsk									[106, 107, 117]							L.Haimberger	0
650	0-20000-0-08330	0	651	['C:5049']	3	BADAJOZ/TALAVERA LA REAL			0	-6.81	38.88		19250124	19280331	1	0	63	NMS	227	Badajoz									[106, 107, 117]							L.Haimberger	0
651	0-20000-0-23205	0	652	['C:4573']	3	NAR'JAN-MAR			0	53.02	67.62		19540419	19540922	1	0	63	NMS	124	Naryan-Mar									[38, 39, 85, 106, 107, 117]							L.Haimberger	0
652	0-20000-0-38589	0	653	['C:4693']	3	JANGIER			0	68.83	40.28		19540710	19540727	1	0	63	NMS		Guliston									[38, 39, 85, 106, 107, 117]							L.Haimberger	0
653	0-20000-0-60445	0	654	['C:5740']	3	SETIF/AIN ARNAT			0	5.32	36.17		19310518	19340615	1	0	63	NMS	68	Tazmalt									[106, 107]							L.Haimberger	0
654	0-20000-0-23022	0	655	['C:4754']	3	AMDERMA			0	61.66	69.78		19470628	19471230	1	0	63	NMS	190	Severnyy									[38, 39, 85, 117]							L.Haimberger	0
