	primary_id	primary_id_scheme	record_number	secondary_id	secondary_id_scheme	station_name	station_abbreviation	alternative_name	station_crs	longitude	latitude	local_gravity	start_date	end_date	station_type	platform_type	platform_sub_type	operating_institute	operating_territory	city	contact	role	observing_frequency	reporting_time	telecommunication_method	station_automation	measuring_system_model	measuring_system_id	observed_variables	comment	optional_data	bbox_min_longitude	bbox_max_longitude	bbox_min_latitude	bbox_max_latitude	metadata_contact	metadata_contact_role
0	0-20000-0-36883	0	1	36880	1	ILIYSKY			0	76.98	43.48				1	0	63			Energeticheskiy																L.Haimberger	0
1	0-20000-0-62640	0	2	C:4944	1	ABU HAMED			0	33.32	19.53				1	0	63			Barbar																L.Haimberger	0
2	0-20000-0-61979	0	3	C:4409	1	SAINT-DENIS/GILLOT (REUNION)			0	55.53	-20.89				1	0	63			Saint-Denis																L.Haimberger	0
3	0-20000-0-91371	0	4	91371	1	WOTJE ATOLL, MARSHALL IS.			0	170.25	9.47				1	0	63			None																L.Haimberger	0
4	0-20000-0-63695	0	5	63695	1	MERU			0	37.65	0.05				1	0	63			Meru																L.Haimberger	0
5	0-20000-0-68024	0	6	68024	1	GHANZI			0	21.65	-21.7				1	0	63			Ghanzi																L.Haimberger	0
6	0-20000-0-65460	0	7	65460	1	AKUSE			0	0.12	6.1				1	0	63			Akropong																L.Haimberger	0
7	0-20000-0-72260	0	8	1:72260	1	STEPHENVILLE/CLARK FIELD MUN., TX.			0	-98.18	32.22				1	0	63			Stephenville																L.Haimberger	0
8	0-20000-0-63450	0	9	2:30302	1	ADDIS ABABA-BOLE			0	38.75	9.03				1	0	63			Addis Abeba																L.Haimberger	0
9	0-20000-0-47644	0	10	1:47644	1	KIYOSE			0	139.53	35.78				1	0	63			Niiza																L.Haimberger	0
10	0-20000-0-38836	0	11	C:4589	1	DUSHANBE			0	68.73	38.58				1	0	63			Dushanbe																L.Haimberger	0
11	0-20000-0-35746	0	12	C:4604	1	ARAL TENIZI			0	61.66	46.78				1	0	63			Dzhusaly																L.Haimberger	0
12	0-20000-0-62770	0	13	C:4947	1	GENINA			0	22.45	13.48				1	0	63			Adre																L.Haimberger	0
13	0-20000-0-07650	0	14	1:7650	1	MARIGNANE			0	5.22	43.44				1	0	63			Vitrolles																L.Haimberger	0
14	0-20000-0-16597	0	15	16597	1	LUQA			0	14.48	35.85				1	0	63			Qormi																L.Haimberger	0
15	0-70-0-Butmir	0	16	1:13353	1	BUTMIR			0	18.32	43.83				1	0	63			Sarajevo																L.Haimberger	0
16	0-20000-0-43128	0	17	C:5987	1	HYDERABAD AIRPORT			0	78.47	17.45				1	0	63			Hyderabad																L.Haimberger	0
17	0-20000-0-23933	0	18	C:4585	1	HANTY-MANSIJSK			0	69.12	61.03				1	0	63			Nefteyugansk																L.Haimberger	0
18	0-20000-0-25563	0	19	C:4603	1	ANADYR'			0	177.57	64.78				1	0	63			Anadyr																L.Haimberger	0
19	0-20000-0-35700	0	20	C:4615	1	ATYRAU			0	51.88	47.12				1	0	63			Atyrau																L.Haimberger	0
20	0-20000-0-92035	0	21	9:4129	1	PORT MORESBY W.O.			0	147.22	-9.38				1	0	63			Port Moresby																L.Haimberger	0
21	0-20000-0-72407	0	22	13753	1	ATLANTIC CITY, NJ.			0	-74.57	39.45				1	0	63			Pleasantville																L.Haimberger	0
22	0-20000-0-30157	0	23	1:30157	1	MAMA			0	112.87	58.32				1	0	63			Bodaybo																L.Haimberger	0
23	0-20000-0-57046	0	24	1:57046	1	HUA SHAN			0	110.08	34.48				1	0	63			Weinan																L.Haimberger	0
24	0-20000-0-94998	0	25	93998	1	MACQUARIE ISLAND			0	158.94	-54.5				1	0	63			None																L.Haimberger	0
25	0-20000-0-48426	0	26	1:48426	1	LOP BURI			0	100.63	14.8				1	0	63			Lop Buri																L.Haimberger	0
26	0-20000-0-10261	0	27	10261	1	SEEHAUSEN			0	11.73	52.89				1	0	63			Katsuura																L.Haimberger	0
27	0-20000-0-91690	0	28	91690	1	LAUTHALA BAY			0	178.45	-18.15				1	0	63			None																L.Haimberger	0
28	0-20000-0-74754	0	29	74754	1	ENGLAND AFB, LA.			0	-92.55	31.32				1	0	63			Alexandria																L.Haimberger	0
29	0-20000-0-48087	0	30	48087	1	HINTHADA			0	95.42	17.67				1	0	63			Henzada																L.Haimberger	0
30	0-20000-0-64550	0	31	64550	1	MOUILA			0	11.02	-1.87				1	0	63			Mouila																L.Haimberger	0
31	0-20000-0-15014	0	32	1:15014	1	BAIA MARE			0	23.47	47.66				1	0	63			Baia Mare																L.Haimberger	0
32	0-20000-0-80448	0	33	80448	1	GUASDUALITO			0	-70.8	7.23				1	0	63			Guasdualito																L.Haimberger	0
33	0-20000-0-89564	0	34	9:3282	1	MAWSON			0	62.88	-67.6				1	0	63			None																L.Haimberger	0
34	0-20000-0-82100	0	35	82100	1	PARI-CACHOEIRA			0	-69.97	-0.17				1	0	63			Sao Gabriel Da Cachoeira																L.Haimberger	0
35	0-20000-0-07502	0	36	1:7502	1	CAZAUX			0	-1.13	44.53				1	0	63			La Teste-De-Buch																L.Haimberger	0
36	0-20000-0-14031	0	37	1:13030	1	MURSKA SOBOTA			0	16.19	46.65				1	0	63			Murska Sobota																L.Haimberger	0
37	0-20000-0-63043	0	38	31403	1	ASSAB			0	42.72	13.07				1	0	63			Zabid																L.Haimberger	0
38	0-20000-0-30054	0	39	C:4596	1	VITIM			0	112.58	59.45				1	0	63			Lensk																L.Haimberger	0
39	0-20000-0-62750	0	40	62750	1	ED DUEIM			0	32.33	14.0				1	0	63			Kinanah																L.Haimberger	0
40	0-20000-0-87828	0	41	1:87828	1	TRELEW AERO			0	-65.28	-43.21				1	0	63			Trelew																L.Haimberger	0
41	0-20000-0-72607	0	42	2:14601	1	BANGOR, ME BANGOR INT. ARPT			0	-68.82	44.81				1	0	63			Bangor																L.Haimberger	0
42	0-20000-0-67131	0	43	1:67131	1	MOROMBE			0	43.37	-21.75				1	0	63			Ankazoabo																L.Haimberger	0
43	0-20000-0-25705	0	44	25705	1	SREDNIKAN			0	152.32	62.45				1	0	63			Magadan																L.Haimberger	0
44	0-20000-0-47660	0	45	2:43307	1	TACHIKAWA AB			0	139.4	35.71				1	0	63			Tachikawa																L.Haimberger	0
45	0-20000-0-80044	0	46	80044	1	COROZAL/LAS BRUJAS			0	-75.28	9.33				1	0	63			Corozal																L.Haimberger	0
46	0-20000-0-84027	0	47	84027	1	TULCAN AEROPUERTO			0	-77.71	0.81				1	0	63			Esmeraldas																L.Haimberger	0
47	0-20000-0-40712	0	48	40712	1	ORUMIEH			0	45.06	37.66				1	0	63			Bairiki																L.Haimberger	0
48	0-20000-0-15490	0	49	1:15490	1	TURNU-MAGURELE			0	24.88	43.76				1	0	63			Turnu Magurele																L.Haimberger	0
49	0-20000-0-47930	0	50	2:42206	1	NAHA AIRPORT			0	127.65	26.2				1	0	63			Tomigusuku																L.Haimberger	0
50	0-20000-0-25563	0	51	C:4541	1	ANADYR'			0	177.57	64.78				1	0	63			Anadyr																L.Haimberger	0
51	0-20000-0-28445	0	52	C:4655	1	EKATERINBURG (VERHNEE DUBROVO)			0	61.07	56.73				1	0	63			Aramil																L.Haimberger	0
52	0-20000-0-65208	0	53	65208	1	IBADAN			0	3.9	7.43				1	0	63			Ibadan																L.Haimberger	0
53	0-20000-0-91527	0	54	91527	1	KIRA KIRA			0	161.92	-10.42				1	0	63			Honiara																L.Haimberger	0
54	0-20000-0-41685	0	55	41685	1	BARKHAN			0	69.72	29.88				1	0	63			Kohlu																L.Haimberger	0
55	0-20000-0-40290	0	56	40290	1	JERUSALEM AIRPORT			0	35.22	31.87				1	0	63			Jerusalem																L.Haimberger	0
56	0-20000-0-10172	0	57	10172	1	LAAGE (FLUGPLATZ)			0	12.28	53.92				1	0	63			Bairnsdale																L.Haimberger	0
57	0-20000-0-08284	0	58	8284	1	VALENCIA/AEROPUERTO			0	-0.47	39.48				1	0	63			Manises																L.Haimberger	0
58	0-20000-0-22802	0	59	C:4588	1	SORTAVALA			0	30.72	61.72				1	0	63			Sortavala																L.Haimberger	0
59	0-20000-0-32540	0	60	C:4636	1	PETROPAVLOVSK-KAMCHATSKIJ (32540-0)			0	158.58	53.08				1	0	63			Yelizovo																L.Haimberger	0
60	0-20000-0-82184	0	61	82184	1	PORTO DE MOZ			0	-52.23	-1.73				1	0	63			Almeirim																L.Haimberger	0
61	0-20000-0-96253	0	62	96103	1	BENGKULU/PADANG KEMILING			0	102.33	-3.88				1	0	63			Bengkulu																L.Haimberger	0
62	0-20000-0-08391	0	63	8391	1	SEVILLA/SAN PABLO			0	-5.88	37.42				1	0	63			Sevilla																L.Haimberger	0
63	0-20000-0-21432	0	64	C:4642	1	OSTROV KOTEL'NYJ			0	137.87	76.0				1	0	63			None																L.Haimberger	0
64	0-20000-0-38687	0	65	C:4611	1	TURKMENABAT			0	63.6	39.08				1	0	63			Turkmenabat																L.Haimberger	0
65	0-20000-0-47133	0	66	2:43214	1	DAEJEON			0	127.37	36.37				1	0	63			Seoul																L.Haimberger	0
66	0-20000-0-10042	0	67	10042	1	SCHOENHAGEN (OSTSEEBAD)			0	10.02	54.64				1	0	63			Ha Tinh																L.Haimberger	0
67	0-20001-0-22522	0	68	C:4556	1	KEM'			0	34.65	64.95				1	0	63			Kem																L.Haimberger	0
68	0-20000-0-40039	0	69	1:40039	1	RAQQA			0	39.02	35.93				1	0	63			Manbij																L.Haimberger	0
69	0-20000-0-10055	0	70	10055	1	FEHMARN			0	11.06	54.53				1	0	63			None																L.Haimberger	0
70	0-20000-0-07650	0	71	7650	1	MARIGNANE			0	5.22	43.44				1	0	63			Vitrolles																L.Haimberger	0
71	0-20000-0-48877	0	72	2:41015	1	NHA TRANG			0	109.22	12.22				1	0	63			Cam Ranh																L.Haimberger	0
72	0-20000-0-97048	0	73	1:97048	1	GORONTALO/JALALUDDIN			0	122.85	0.64				1	0	63			Gorontalo																L.Haimberger	0
73	0-20000-0-65602	0	74	2:10103	1	SPRIGGS PAYNE AIRPORT			0	-10.75	6.33				1	0	63			Monrovia																L.Haimberger	0
74	0-20000-0-27612	0	75	C:4567	1	MOSKVA VDNH			0	37.62	55.83				1	0	63			Dolgoprudnyy																L.Haimberger	0
75	0-20000-0-80241	0	76	1:80241	1	LAS GAVIOTAS			0	-70.92	4.55				1	0	63			Villanueva																L.Haimberger	0
76	0-20000-0-82686	0	77	82686	1	IGUATU (82686-0)			0	-39.3	-6.37				1	0	63			Iguatu																L.Haimberger	0
77	0-20000-0-07412	0	78	1:7412	1	COGNAC			0	-0.32	45.66				1	0	63			Cognac																L.Haimberger	0
78	0-20000-0-91354	0	79	2:40610	1	UJELANG,  CAROLINE IS.			0	160.98	9.77				1	0	63			None																L.Haimberger	0
79	0-20000-0-87548	0	80	1:87548	1	JUNIN AERO			0	-60.93	-34.55				1	0	63			Junin																L.Haimberger	0
80	0-20000-0-29594	0	81	29594	1	TAJSHET			0	98.0	55.95				1	0	63			Tayshet																L.Haimberger	0
81	0-20000-0-41977	0	82	9:3364	1	CHITTAGONG (AMBAGAN)			0	91.82	22.35				1	0	63			Patiya																L.Haimberger	0
82	0-20000-0-91801	0	83	9:2230	1	PENRHYN			0	-158.05	-9.03				1	0	63			None																L.Haimberger	0
83	0-20000-0-41891	0	84	1:41900	1	SYLHET			0	91.88	24.9				1	0	63			Chhatak																L.Haimberger	0
84	0-20000-0-29752	0	85	29658	1	NENASTNAYA			0	88.82	54.75				1	0	63			Uzhur																L.Haimberger	0
85	0-20000-0-82583	0	86	82583	1	CRATEUS (82583-0)			0	-40.67	-5.17				1	0	63			Crateus																L.Haimberger	0
86	0-20000-0-47159	0	87	1:47154	1	BUSAN			0	129.03	35.1				1	0	63			Fukuma																L.Haimberger	0
87	0-20000-0-20107	0	88	C:4545	1	BARENTSBURG			0	14.22	78.06				1	0	63			None																L.Haimberger	0
88	0-20000-0-61099	0	89	61099	1	GAYA (61099-0)			0	3.45	11.88				1	0	63			Gaya																L.Haimberger	0
89	0-20000-0-47127	0	90	2:43230	1	CHUNGJU			0	127.95	36.97				1	0	63			Seoul																L.Haimberger	0
90	0-20000-0-94393	0	91	10080	1	FREDERICK REEF			0	154.4	-20.94				1	0	63			Yeppoon																L.Haimberger	0
91	0-20000-2-29842	0	92	1:29843	1	Novokuznetsk			0	87.1	53.9				1	0	63			Novokuznetsk																L.Haimberger	0
92	0-152-0-85798	0	93	54701	1	PUERTO MONTT			0	-73.1	-41.43				1	0	63			Puerto Montt																L.Haimberger	0
93	0-20000-0-86705	0	94	1:83361	1	CUIABA (AERO)			0	-56.1	-15.65				1	0	63			Cuiaba																L.Haimberger	0
94	0-20000-0-89070	0	95	9:2223	1	GABRIEL DE CASTILLA			0	-60.68	-62.98				1	0	63			None																L.Haimberger	0
95	0-20000-0-43555	0	96	1:43555	1	MALE			0	73.53	4.19				1	0	63			Male																L.Haimberger	0
96	0-20000-0-30925	0	97	1:30925	1	KJAHTA			0	106.45	50.36				1	0	63			Kyakhta																L.Haimberger	0
97	0-20000-0-63402	0	98	30306	1	JIMMA			0	36.83	7.67				1	0	63			Jimma																L.Haimberger	0
98	0-20000-0-10365	0	99	10365	1	GENTHIN			0	12.16	52.39				1	0	63			Mersing																L.Haimberger	0
99	0-20000-0-38687	0	100	C:4549	1	TURKMENABAT			0	63.6	39.08				1	0	63			Turkmenabat																L.Haimberger	0
100	0-20000-0-59985	0	101	59985	1	SANHU DAO			0	111.62	16.53				1	0	63			Wanning																L.Haimberger	0
101	0-20000-0-63870	0	102	63870	1	ZANZIBAR/KISAUNI			0	39.22	-6.22				1	0	63			Zanzibar																L.Haimberger	0
102	0-20000-0-33946	0	103	C:4586	1	Simferopol			0	33.97	45.04				1	0	63			Bakhchysaray																L.Haimberger	0
103	0-20000-0-63866	0	104	1:63866	1	MOROGORO			0	37.65	-6.83				1	0	63			Morogoro																L.Haimberger	0
104	0-20000-0-78016	0	105	13602	1	L F WADE INTERNATIONAL AIRPORT			0	-64.68	32.37				1	0	63			None																L.Haimberger	0
105	0-20000-0-64454	0	106	64454	1	GAMBOMA			0	15.85	-1.9				1	0	63			Gamboma																L.Haimberger	0
106	0-20000-0-66215	0	107	1:66215	1	MALANGE			0	16.37	-9.55				1	0	63			Malanje																L.Haimberger	0
107	0-20000-0-36535	0	108	36358	1	KOKPEKTY			0	82.37	48.75				1	0	63			Serebryansk																L.Haimberger	0
108	0-20000-0-80405	0	109	80405	1	LA ORCHILA			0	-66.18	11.8				1	0	63			Caraballeda																L.Haimberger	0
109	0-20000-0-08314	0	110	8314	1	MENORCA/AEROPUERTO			0	4.22	39.85				1	0	63			Mahon																L.Haimberger	0
110	0-20000-0-10856	0	111	2:34169	1	ALTENSTADT			0	10.87	47.83				1	0	63			Landsberg																L.Haimberger	0
111	0-20000-0-28445	0	112	28445	1	EKATERINBURG (VERHNEE DUBROVO)			0	61.07	56.73				1	0	63			Aramil																L.Haimberger	0
112	0-20000-0-76491	0	113	1:76491	1	CIUDAD VICTORIA, TAMPS.			0	-99.17	23.74				1	0	63			Gonzalez																L.Haimberger	0
113	0-20000-0-15410	0	114	1:15410	1	DROBETA-TURNU SEVERIN			0	22.63	44.63				1	0	63			Drobeta-Turnu Severin																L.Haimberger	0
114	0-20000-0-10641	0	115	1:10642	1	OFFENBACH-WETTERPARK			0	8.79	50.09				1	0	63			Erlensee																L.Haimberger	0
115	0-20000-0-66285	0	116	C:5974	1	LUENA (LUSO)			0	19.92	-11.78				1	0	63			Luena																L.Haimberger	0
116	0-20000-0-30731	0	117	1:30731	1	GORJACINSK			0	108.29	52.99				1	0	63			Onokhoy																L.Haimberger	0
117	0-20000-0-48375	0	118	48375	1	MAE SOT			0	98.54	16.7				1	0	63			Mae Sot																L.Haimberger	0
118	0-20000-0-82975	0	119	82975	1	BOM JESUS DO PIAUI (82975-0)			0	-44.37	-9.07				1	0	63			Bom Jesus																L.Haimberger	0
119	0-20000-0-47116	0	120	47116	1	GWANAKSAN			0	126.96	37.45				1	0	63			Seoul																L.Haimberger	0
120	0-20000-0-15350	0	121	15350	1	BUZAU			0	26.85	45.13				1	0	63			Buzau																L.Haimberger	0
121	0-20000-0-07412	0	122	7412	1	COGNAC			0	-0.32	45.66				1	0	63			Cognac																L.Haimberger	0
122	0-20000-0-41749	0	123	1:41749	1	NAWABSHAH			0	68.37	26.25				1	0	63			Nawabshah																L.Haimberger	0
123	0-20000-0-87925	0	124	1:87925	1	RIO GALLEGOS AERO			0	-69.31	-51.61				1	0	63			Rio Gallegos																L.Haimberger	0
124	0-20000-0-60770	0	125	60770	1	MEDENINE			0	10.48	33.35				1	0	63			Jarjis																L.Haimberger	0
125	0-20000-0-95719	0	126	94719	1	DUBBO AIRPORT AWS			0	148.58	-32.22				1	0	63			Dubbo																L.Haimberger	0
126	0-20000-0-87374	0	127	1:87374	1	PARANA AERO			0	-60.48	-31.79				1	0	63			Parana																L.Haimberger	0
127	0-20000-0-31388	0	128	1:31388	1	NORSK			0	129.92	52.35				1	0	63			Shimanovsk																L.Haimberger	0
128	0-20000-0-30729	0	129	30729	1	KABANSK			0	106.64	52.05				1	0	63			Selenginsk																L.Haimberger	0
129	0-20000-0-41923	0	130	1:41920	1	DHAKA			0	90.38	23.77				1	0	63			Dhaka																L.Haimberger	0
130	0-20000-0-74777	0	131	2:3862	1	VALPARAISO/EGLIN AFB, FL.			0	-86.52	30.48				1	0	63			Wright																L.Haimberger	0
131	0-20000-0-66160	0	132	C:5001	1	LUANDA			0	13.23	-8.85				1	0	63			Luanda																L.Haimberger	0
132	0-20000-0-78347	0	133	78347	1	CAMILO CIENFUEGOS,  CIEGO DE AVILA			0	-78.75	22.15				1	0	63			Moron																L.Haimberger	0
133	0-20000-0-95805	0	134	1:94805	1	CAPE BORDA			0	136.6	-35.76				1	0	63			Port Lincoln																L.Haimberger	0
134	0-20000-0-43243	0	135	43243	1	KAVALI			0	80.0	14.92				1	0	63			Seoul																L.Haimberger	0
135	0-20000-0-37531	0	136	1:37420	1	GORI			0	44.11	42.0				1	0	63			Gori																L.Haimberger	0
136	0-20000-0-47515	0	137	47515	1	MISAWA AB			0	141.37	40.71				1	0	63			Hachinohe																L.Haimberger	0
137	0-20000-0-54324	0	138	1:54326	1	CHAOYANG			0	120.45	41.55				1	0	63			Beipiao																L.Haimberger	0
138	0-20000-0-15302	0	139	1:15302	1	PREDEAL			0	25.58	45.51				1	0	63			Rasnov																L.Haimberger	0
139	0-20000-0-38232	0	140	38232	1	AKKUDUK			0	54.09	42.97				1	0	63			Zhanaozen																L.Haimberger	0
140	0-20000-0-82586	0	141	82586	1	QUIXERAMOBIM (82586-0)			0	-39.3	-5.2				1	0	63			Quixeramobim																L.Haimberger	0
141	0-20000-0-32509	0	142	32509	1	SEMYACHIK			0	159.98	54.12				1	0	63			Yelizovo																L.Haimberger	0
142	0-20000-0-91631	0	143	2:80701	1	NANUMEA			0	176.13	-5.67				1	0	63			None																L.Haimberger	0
143	0-20000-0-47102	0	144	2:43226	1	BAENGNYEONGDO			0	124.71	37.97				1	0	63			Seoul																L.Haimberger	0
144	0-20000-0-67283	0	145	1:67283	1	QUELIMANE			0	36.88	-17.88				1	0	63			Quelimane																L.Haimberger	0
145	0-20000-0-62721	0	146	C:4936	1	KHARTOUM			0	32.55	15.6				1	0	63			Khartoum																L.Haimberger	0
146	0-20000-0-42367	0	147	1:42367	1	KANPUR/CHAKERI			0	80.4	26.4				1	0	63			Kanpur																L.Haimberger	0
147	0-20000-0-62336	0	148	62336	1	EL ARISH-AGRIMET			0	33.82	31.09				1	0	63			Ashqelon																L.Haimberger	0
148	0-20000-0-47629	0	149	47629	1	MITO			0	140.47	36.38				1	0	63			Oarai																L.Haimberger	0
149	0-20000-0-41196	0	150	C:5552	1	SHARJAH INTERNATIONAL AIRPORT			0	55.52	25.33				1	0	63			Sharjah																L.Haimberger	0
150	0-20000-0-30688	0	151	1:30688	1	POKROVKA			0	121.55	53.35				1	0	63			Mogocha																L.Haimberger	0
151	0-20000-0-38328	0	152	38328	1	SHYMKENT			0	69.71	42.35				1	0	63			Shymkent																L.Haimberger	0
152	0-20000-0-31989	0	153	1:31989	1	PREOBRAZHENIE			0	133.9	42.9				1	0	63			Partizansk																L.Haimberger	0
153	0-20000-0-96147	0	154	1:96147	1	RANAI			0	108.39	3.91				1	0	63			Pemangkat																L.Haimberger	0
154	0-20000-0-64210	0	155	1:64210	1	KINSHASA/N'DJILI			0	15.43	-4.38				1	0	63			Kinshasa																L.Haimberger	0
155	0-20000-0-65502	0	156	65502	1	OUAHIGOUYA			0	-2.43	13.58				1	0	63			Ouahigouya																L.Haimberger	0
156	0-20000-0-47671	0	157	1:47671	1	TOKYO INTERNATIONAL AIRPORT			0	139.78	35.55				1	0	63			Kawasaki																L.Haimberger	0
157	0-20000-0-72483	0	158	2:23208	1	SACRAMENTO/EXECUTIVE CA.			0	-121.5	38.52				1	0	63			North Highlands																L.Haimberger	0
158	0-20000-0-27612	0	159	C:4629	1	MOSKVA VDNH			0	37.62	55.83				1	0	63			Dolgoprudnyy																L.Haimberger	0
159	0-20000-0-63791	0	160	1:63791	1	KILIMANJARO INT			0	37.06	-3.42				1	0	63			Kingori																L.Haimberger	0
160	0-20000-0-36397	0	161	1:36403	1	ZHALGYZTOBE			0	81.22	49.22				1	0	63			Oskemen																L.Haimberger	0
161	0-20000-0-12295	0	162	1:12295	1	BIALYSTOK			0	23.17	53.11				1	0	63			Bialystok																L.Haimberger	0
162	0-504-1-60291	0	163	9:2092	1	Tarfaya			0	-12.93	27.94				1	0	63			Puerto Del Rosario																L.Haimberger	0
163	0-20000-0-65557	0	164	65557	1	GAGNOA			0	-5.95	6.13				1	0	63			Gagnoa																L.Haimberger	0
164	0-20000-0-12375	0	165	12375	1	LEGIONOWO			0	20.96	52.41				1	0	63			Warsaw																L.Haimberger	0
165	0-20000-0-30815	0	166	1:30812	1	HAMAR-DABAN			0	103.6	51.53				1	0	63			Slyudyanka																L.Haimberger	0
166	0-20000-0-40857	0	167	C:5535	1	BUSHEHR			0	50.82	28.9				1	0	63			Bushehr																L.Haimberger	0
167	0-20000-0-12140	0	168	1:12150	1	GDANSK PORT PN.			0	18.7	54.4				1	0	63			Gdansk																L.Haimberger	0
168	0-20000-0-64456	0	169	64456	1	MAKOUA			0	15.65	-0.02				1	0	63			Owando																L.Haimberger	0
169	0-20000-0-38616	0	170	C:4678	1	KARA-SUU			0	72.9	40.7				1	0	63			Andijon																L.Haimberger	0
170	0-20000-0-42623	0	171	6:42623	1	IMPHAL/TULIHAL			0	93.9	24.77				1	0	63			Imphal																L.Haimberger	0
171	0-20000-0-72488	0	172	23118	1	RENO, NV.			0	-119.8	39.57				1	0	63			Sparks																L.Haimberger	0
172	0-20000-0-89070	0	173	88938	1	GABRIEL DE CASTILLA			0	-60.68	-62.98				1	0	63			None																L.Haimberger	0
173	0-20000-0-56786	0	174	56786	1	ZHANYI			0	103.83	25.58				1	0	63			Qujing																L.Haimberger	0
174	0-20000-0-37808	0	175	1:37815	1	MARTUNI			0	45.3	40.14				1	0	63			Martuni																L.Haimberger	0
175	0-20000-0-07168	0	176	1:7160	1	TROYES-BARBEREY			0	4.02	48.32				1	0	63			Romilly-Sur-Seine																L.Haimberger	0
176	0-20000-0-61666	0	177	61666	1	DIOURBEL			0	-16.23	14.65				1	0	63			Diourbel																L.Haimberger	0
177	0-20000-0-08589	0	178	8589	1	PRAIA			0	-23.48	14.94				1	0	63			Praia																L.Haimberger	0
178	0-20000-0-64452	0	179	64452	1	M'POUYA			0	16.22	-2.62				1	0	63			Bolobo																L.Haimberger	0
179	0-20000-0-78073	0	180	78074	1	NASSAU AIRPORT NEW PROVIDENCE			0	-77.47	25.05				1	0	63			Nassau																L.Haimberger	0
180	0-20000-0-64560	0	181	64560	1	LASTOURVILLE			0	12.72	-0.83				1	0	63			Koulamoutou																L.Haimberger	0
181	0-20000-0-82398	0	182	1:82397	1	FORTALEZA (82397-0)			0	-38.6	-3.77				1	0	63			Caucaia																L.Haimberger	0
182	0-20000-0-07139	0	183	7139	1	ALENCON			0	0.11	48.45				1	0	63			Alencon																L.Haimberger	0
183	0-20000-0-41685	0	184	1:41685	1	BARKHAN			0	69.72	29.88				1	0	63			Kohlu																L.Haimberger	0
184	0-20000-0-43185	0	185	43185	1	MACHILIPATNAM/FRANCHPET			0	81.15	16.2				1	0	63			Machilipatnam																L.Haimberger	0
185	0-20000-0-20353	0	186	C:4634	1	MYS ZELANIYA			0	68.55	76.95				1	0	63			None																L.Haimberger	0
186	0-20000-0-17607	0	187	17607	1	ATHALASSA			0	33.4	35.14				1	0	63			Nicosia																L.Haimberger	0
187	0-20000-0-62733	0	188	62733	1	HALFA EL GAIDIDA			0	35.6	15.32				1	0	63			Kassala																L.Haimberger	0
188	0-20000-0-72404	0	189	72404	1	PATUXENT RIVER/NAS, MD.			0	-76.4	38.28				1	0	63			Lexington Park																L.Haimberger	0
189	0-20000-0-25282	0	190	25282	1	MYS VANKAREM			0	-175.83	67.83				1	0	63			None																L.Haimberger	0
190	0-20000-0-74509	0	191	1:74505	1	MOUNTAIN VIEW (SUNNY-VALE)/MOFFETT NAS,  CA.			0	-122.05	37.42				1	0	63			San Jose																L.Haimberger	0
191	0-20000-0-88963	0	192	88940	1	BASE ESPERANZA			0	-57.0	-63.4				1	0	63			None																L.Haimberger	0
192	0-20000-0-94266	0	193	81411	1	NORMANTON AIRPORT			0	141.07	-17.69				1	0	63			Mount Isa																L.Haimberger	0
193	0-20000-0-08391	0	194	1:8391	1	SEVILLA/SAN PABLO			0	-5.88	37.42				1	0	63			Sevilla																L.Haimberger	0
194	0-20000-0-30823	0	195	1:30823	1	ULAN-UDE			0	107.6	51.83				1	0	63			Ulan-Ude																L.Haimberger	0
195	0-20000-0-87374	0	196	87374	1	PARANA AERO			0	-60.48	-31.79				1	0	63			Parana																L.Haimberger	0
196	0-20000-0-57845	0	197	57845	1	TONGDAO			0	109.78	26.17				1	0	63			Hongjiang																L.Haimberger	0
197	0-20000-0-47727	0	198	1:47727	1	SHIMOFUSA AB			0	140.01	35.8				1	0	63			Kamagaya																L.Haimberger	0
198	0-20000-0-64405	0	199	64405	1	SIBITI			0	13.35	-3.68				1	0	63			Sibiti																L.Haimberger	0
199	0-20000-0-84135	0	200	84120	1	PORTOVIEJO			0	-80.46	-1.04				1	0	63			Portoviejo																L.Haimberger	0
200	0-20000-0-91650	0	201	81705	1	ROTUMA			0	177.05	-12.5				1	0	63			None																L.Haimberger	0
201	0-20000-0-63682	0	202	63682	1	JINJA			0	33.18	0.45				1	0	63			Bugembe																L.Haimberger	0
202	0-20000-0-78108	0	203	1:78107	1	ABRAHAM'S BAY, MAYAGUANA			0	-73.02	22.38				1	0	63			Port-De-Paix																L.Haimberger	0
203	0-20000-0-41256	0	204	40462	1	MUSCAT INT'L AIRPORT			0	58.26	23.61				1	0	63			Ruwi																L.Haimberger	0
204	0-20000-0-40255	0	205	40255	1	IRBED			0	35.85	32.55				1	0	63			Irbid																L.Haimberger	0
205	0-20000-0-66152	0	206	C:4204	1	DUNDO			0	20.82	-7.4				1	0	63			Tshikapa																L.Haimberger	0
206	0-20000-0-42539	0	207	42539	1	DEESA			0	72.2	24.2				1	0	63			Disa																L.Haimberger	0
207	0-20000-0-87480	0	208	1:87480	1	ROSARIO AERO			0	-60.78	-32.91				1	0	63			Rosario																L.Haimberger	0
208	0-20000-0-72698	0	209	72698	1	PORTLAND/INT., OR.			0	-122.6	45.6				1	0	63			Vancouver																L.Haimberger	0
209	0-20000-0-28676	0	210	1:28679	1	PETROPAVLOVSK (28676-0)			0	69.12	54.79				1	0	63			Petropavl																L.Haimberger	0
210	0-20000-0-65064	0	211	65064	1	NGURU			0	10.47	12.88				1	0	63			Nguru																L.Haimberger	0
211	0-20000-0-08055	0	212	8055	1	LEON/VIRGEN DEL CAMINO			0	-5.65	42.59				1	0	63			San Andres Del Rabanedo																L.Haimberger	0
212	0-20000-0-15230	0	213	15230	1	DEVA			0	22.9	45.87				1	0	63			Deva																L.Haimberger	0
213	0-20000-0-91650	0	214	2:81705	1	ROTUMA			0	177.05	-12.5				1	0	63			None																L.Haimberger	0
214	0-20000-0-41744	0	215	1:41744	1	KHUZDAR			0	66.63	27.83				1	0	63			Khuzdar																L.Haimberger	0
215	0-404-300-472781389CO63741	0	216	63739	1	DAGORETTI CORNER			0	36.76	-1.3				1	0	63			Nairobi																L.Haimberger	0
216	0-20000-0-64971	0	217	64971	1	KRIBI			0	9.9	2.95				1	0	63			Kribi																L.Haimberger	0
217	0-20000-0-30758	0	218	C:4550	1	CHITA			0	113.48	52.08				1	0	63			Chita																L.Haimberger	0
218	0-20000-0-62120	0	219	1:62120	1	GARIAT EL-SHARGHIA			0	13.59	30.39				1	0	63			Mizdah																L.Haimberger	0
219	0-20000-0-65401	0	220	65401	1	NAVRONGO			0	-1.1	10.9				1	0	63			Navrongo																L.Haimberger	0
220	0-20000-0-78700	0	221	1:78700	1	AMAPALA			0	-87.65	13.27				1	0	63			San Lorenzo																L.Haimberger	0
221	0-20000-0-08314	0	222	1:8314	1	MENORCA/AEROPUERTO			0	4.22	39.85				1	0	63			Mahon																L.Haimberger	0
222	0-20000-0-89250	0	223	88934	1	KING GEORGE ISLAND			0	-58.4	-62.08				1	0	63			None																L.Haimberger	0
223	0-20000-0-30957	0	224	30954	1	AKSA			0	113.27	50.27				1	0	63			Aginskoye																L.Haimberger	0
224	0-20000-0-65501	0	225	65501	1	DORI			0	-0.03	14.03				1	0	63			Dori																L.Haimberger	0
225	0-20000-0-47058	0	226	2:43210	1	PYONGYANG			0	125.78	39.03				1	0	63			Dandong																L.Haimberger	0
226	0-20000-0-63210	0	227	63210	1	BOSASO			0	49.18	11.28				1	0	63			Bosaso																L.Haimberger	0
227	0-20000-0-38232	0	228	1:38232	1	AKKUDUK			0	54.09	42.97				1	0	63			Zhanaozen																L.Haimberger	0
228	0-70-0-Butmir	0	229	13353	1	BUTMIR			0	18.32	43.83				1	0	63			Sarajevo																L.Haimberger	0
229	0-20000-0-72534	0	230	6:110021	1	CHICAGO/MIDWAY, IL.			0	-87.75	41.78				1	0	63			Darien																L.Haimberger	0
230	0-20000-0-81001	0	231	81001	1	GEORGETOWN (81001-0)			0	-58.15	6.8				1	0	63			Georgetown																L.Haimberger	0
231	0-20000-0-24959	0	232	C:4598	1	JAKUTSK			0	129.72	62.02				1	0	63			Markha																L.Haimberger	0
232	0-20000-0-10526	0	233	10526	1	BAD MARIENBERG			0	7.96	50.66				1	0	63			None																L.Haimberger	0
233	0-20000-0-92003	0	234	2:80437	1	DARU W.O.			0	143.2	-9.08				1	0	63			Daru																L.Haimberger	0
234	0-20000-0-48402	0	235	41012	1	CHAI NAT AGROMET			0	100.19	15.16				1	0	63			Takhli																L.Haimberger	0
235	0-20000-0-42105	0	236	1:42105	1	CHANDIGARH			0	76.88	30.73				1	0	63			Chandigarh																L.Haimberger	0
236	0-20000-0-74671	0	237	2:13806	1	FORT CAMPBELL AAF, KY.			0	-87.5	36.67				1	0	63			Clarksville																L.Haimberger	0
237	0-20000-0-28445	0	238	1:28445	1	EKATERINBURG (VERHNEE DUBROVO)			0	61.07	56.73				1	0	63			Aramil																L.Haimberger	0
238	0-20000-0-62440	0	239	C:4941	1	ISMAILIA			0	32.25	30.59				1	0	63			Ismailia																L.Haimberger	0
239	0-20000-0-67991	0	240	1:67991	1	BEITBRIDGE			0	30.0	-22.22				1	0	63			Beitbridge																L.Haimberger	0
240	0-20000-0-70265	0	241	26407	1	FAIRBANKS/EIELSON AFB			0	-147.07	64.65				1	0	63			Fairbanks																L.Haimberger	0
241	0-20000-0-16181	0	242	16181	1	PERUGIA S. EGIDIO (16181-0)			0	12.51	43.1				1	0	63			Assisi																L.Haimberger	0
242	0-20000-0-23933	0	243	C:4645	1	HANTY-MANSIJSK			0	69.12	61.03				1	0	63			Nefteyugansk																L.Haimberger	0
243	0-20000-0-07591	0	244	1:7591	1	EMBRUN			0	6.5	44.57				1	0	63			Gap																L.Haimberger	0
244	0-20000-0-42182	0	245	9:3359	1	NEW DELHI/SAFDARJUNG			0	77.2	28.58				1	0	63			New Delhi																L.Haimberger	0
245	0-20000-0-15014	0	246	15014	1	BAIA MARE			0	23.47	47.66				1	0	63			Baia Mare																L.Haimberger	0
246	0-20000-0-12942	0	247	1:12942	1	PÉCS/POGÁNY			0	18.23	45.99				1	0	63			Pecs																L.Haimberger	0
247	0-20000-0-10646	0	248	1:10657	1	NEUHUETTEN-SPESSART			0	9.42	50.01				1	0	63			Wertheim																L.Haimberger	0
248	0-20000-0-91533	0	249	2:80606	1	BANABA			0	169.53	-0.9				1	0	63			Bairiki																L.Haimberger	0
249	0-20000-0-41756	0	250	9:3356	1	JIWANI			0	61.8	25.07				1	0	63			Jiwani																L.Haimberger	0
250	0-20000-0-10963	0	251	10963	1	GARMISCH-PARTENKIRCHEN			0	11.06	47.48				1	0	63			None																L.Haimberger	0
251	0-20000-0-40290	0	252	1:40290	1	JERUSALEM AIRPORT			0	35.22	31.87				1	0	63			Jerusalem																L.Haimberger	0
252	0-20000-0-61297	0	253	61297	1	SIKASSO			0	-5.68	11.35				1	0	63			Sikasso																L.Haimberger	0
253	0-20000-0-63402	0	254	2:30306	1	JIMMA			0	36.83	7.67				1	0	63			Jimma																L.Haimberger	0
254	0-20000-0-55472	0	255	1:55472	1	XAINZA			0	88.63	30.95				1	0	63			Lasa																L.Haimberger	0
255	0-20000-0-57766	0	256	57766	1	SHAOYANG			0	111.45	27.18				1	0	63			Shaoyang																L.Haimberger	0
256	0-20000-0-65271	0	257	1:65271	1	MAKURDI			0	8.53	7.73				1	0	63			Makurdi																L.Haimberger	0
257	0-20000-0-98425	0	258	1:98425	1	MANILA			0	120.98	14.59				1	0	63			Manila																L.Haimberger	0
258	0-20000-0-67231	0	259	67231	1	CUAMBA			0	36.52	-14.83				1	0	63			Cuamba																L.Haimberger	0
259	0-20000-0-67403	0	260	67403	1	KAWAMBWA			0	29.08	-9.8				1	0	63			Kawambwa																L.Haimberger	0
260	0-20000-0-67665	0	261	1:67665	1	LUSAKA CITY AIRPORT			0	28.47	-15.42				1	0	63			Lusaka																L.Haimberger	0
261	0-20000-0-72428	0	262	2:93834	1	COLUMBUS/PORT COLUMBUS, OH.			0	-82.88	40.0				1	0	63			Whitehall																L.Haimberger	0
262	0-20000-0-41941	0	263	41941	1	CHITTAGONG (AMBAGAN)			0	91.82	22.35				1	0	63			Patiya																L.Haimberger	0
263	0-20000-0-10731	0	264	1:10727	1	RHEINSTETTEN			0	8.33	48.97				1	0	63			Karlsruhe																L.Haimberger	0
264	0-20000-0-30650	0	265	1:30650	1	ROMANOVKA			0	112.78	53.2				1	0	63			Chita																L.Haimberger	0
265	0-20000-0-61450	0	266	61450	1	TIDJIKJA			0	-11.43	18.57				1	0	63			Atar																L.Haimberger	0
266	0-20000-0-74788	0	267	2:12810	1	TAMPA BAY AREA, FL.			0	-82.4	27.71				1	0	63			Tampa																L.Haimberger	0
267	0-20000-0-64911	0	268	64911	1	NKONGSAMBA			0	9.93	4.95				1	0	63			Nkongsamba																L.Haimberger	0
268	0-20000-0-07024	0	269	7021	1	MAUPERTUS GONNEVILLE			0	-1.46	49.65				1	0	63			Cherbourg																L.Haimberger	0
269	0-404-300-472781389CO63741	0	270	63742	1	DAGORETTI CORNER			0	36.76	-1.3				1	0	63			Nairobi																L.Haimberger	0
270	0-20000-0-15335	0	271	15335	1	TULCEA			0	28.82	45.19				1	0	63			Tulcea																L.Haimberger	0
271	0-20000-0-83344	0	272	83344	1	VITORIA DA CONQUISTA (83344-0)			0	-40.88	-14.95				1	0	63			Vitoria Da Conquista																L.Haimberger	0
272	0-20000-0-74003	0	273	2:94138	1	DUGWAY PROVING GROUNDS, UT.			0	-112.93	40.17				1	0	63			Tooele																L.Haimberger	0
273	0-20000-0-17248	0	274	1:17248	1	EREGLI/KONYA			0	34.05	37.53				1	0	63			Eregli																L.Haimberger	0
274	0-20000-0-10777	0	275	10777	1	GELBELSEE			0	11.43	48.95				1	0	63			None																L.Haimberger	0
275	0-20000-0-74671	0	276	74671	1	FORT CAMPBELL AAF, KY.			0	-87.5	36.67				1	0	63			Clarksville																L.Haimberger	0
276	0-20000-0-67765	0	277	1:67765	1	KAROI			0	29.62	-16.83				1	0	63			Karoi																L.Haimberger	0
277	0-20000-0-64901	0	278	64901	1	BETARE-OYA			0	14.07	5.6				1	0	63			Betare Oya																L.Haimberger	0
278	0-20000-0-37815	0	279	37815	1	MASRIK			0	45.76	40.21				1	0	63			Martuni																L.Haimberger	0
279	0-705-0-1950	0	280	1:13027	1	MARIBOR - VRBANSKI PLATO			0	15.63	46.57				1	0	63			Maribor																L.Haimberger	0
280	0-20000-0-21824	0	281	C:4610	1	TIKSI			0	128.92	71.58				1	0	63			None																L.Haimberger	0
281	0-20000-0-59559	0	282	46752	1	HENGCHUN			0	120.75	22.0				1	0	63			Tungkang																L.Haimberger	0
282	0-20000-0-64707	0	283	64707	1	MOUSSORO			0	16.5	13.65				1	0	63			Moussoro																L.Haimberger	0
283	0-20000-0-36535	0	284	1:36535	1	KOKPEKTY			0	82.37	48.75				1	0	63			Serebryansk																L.Haimberger	0
284	0-20000-0-47035	0	285	54498	1	SINUIJU			0	124.38	40.1				1	0	63			Dandong																L.Haimberger	0
285	0-20000-0-74531	0	286	74531	1	AIR FORCE ACADEMY,  CO.			0	-104.82	38.97				1	0	63			Black Forest																L.Haimberger	0
286	0-20000-0-58944	0	287	1:58944	1	PINGTAN			0	119.78	25.52				1	0	63			Rongcheng																L.Haimberger	0
287	0-20000-0-56671	0	288	56671	1	HUILI			0	102.25	26.65				1	0	63			Panzhihua																L.Haimberger	0
288	0-20000-0-62375	0	289	C:5000	1	GIZA - AGRIMET			0	31.22	30.05				1	0	63			Madinat Sittah Uktubar																L.Haimberger	0
289	0-20000-0-38462	0	290	C:4686	1	PSKEM			0	70.37	41.9				1	0	63			Lenger																L.Haimberger	0
290	0-20000-0-87534	0	291	1:87534	1	LABOULAYE AERO			0	-63.37	-34.13				1	0	63			Venado Tuerto																L.Haimberger	0
291	0-20000-0-33837	0	292	1:33838	1	Odesa			0	30.77	46.44				1	0	63			Odesa																L.Haimberger	0
292	0-20000-0-72492	0	293	2:23211	1	STOCKTON/METROPOLITAN CA.			0	-121.25	37.9				1	0	63			Novato																L.Haimberger	0
293	0-20000-0-64507	0	294	64507	1	TCHIBANGA			0	11.02	-2.85				1	0	63			Tchibanga																L.Haimberger	0
294	0-20000-0-10033	0	295	10033	1	GLUECKSBURG-MEIERWIK			0	9.51	54.83				1	0	63			None																L.Haimberger	0
295	0-20000-0-78108	0	296	12715	1	ABRAHAM'S BAY, MAYAGUANA			0	-73.02	22.38				1	0	63			Port-De-Paix																L.Haimberger	0
296	0-20000-0-78073	0	297	1:78074	1	NASSAU AIRPORT NEW PROVIDENCE			0	-77.47	25.05				1	0	63			Nassau																L.Haimberger	0
297	0-20000-0-80234	0	298	80234	1	VILLAVICENCIO/VANGUARDIA			0	-73.62	4.17				1	0	63			Villavicencio																L.Haimberger	0
298	0-20000-0-91355	0	299	2:40608	1	KOSRAE AIRPORT AWS, CAROLINE IS.			0	162.95	5.35				1	0	63			None																L.Haimberger	0
299	0-20000-0-47855	0	300	47855	1	NAGASAKI AIRPORT			0	129.91	32.92				1	0	63			Omura																L.Haimberger	0
300	0-20000-0-27037	0	301	C:4657	1	VOLOGDA (27038-0)			0	39.93	59.32				1	0	63			Vologda																L.Haimberger	0
301	0-20000-0-72270	0	302	2:23019	1	SANTA TERESA, NM.			0	-106.7	31.87				1	0	63			El Paso																L.Haimberger	0
302	0-20000-0-40609	0	303	40609	1	TEL-ABTA			0	42.72	35.92				1	0	63			None																L.Haimberger	0
303	0-20000-0-03976	0	304	1:3976	1	BELMULLET			0	-10.01	54.23				1	0	63			Ballina																L.Haimberger	0
304	0-20000-0-64101	0	305	64101	1	LUKOLELA			0	17.2	-1.05				1	0	63			Inongo																L.Haimberger	0
305	0-20000-0-62700	0	306	62700	1	SHENDI			0	33.43	16.7				1	0	63			Khartoum																L.Haimberger	0
306	0-20000-0-95717	0	307	94717	1	PARKES AIRPORT AWS			0	148.24	-33.13				1	0	63			Parkes																L.Haimberger	0
307	0-20000-0-57046	0	308	57046	1	HUA SHAN			0	110.08	34.48				1	0	63			Weinan																L.Haimberger	0
308	0-508-0-67216	0	309	1:67215	1	PEMBA_AUTO			0	40.48	-12.97				1	0	63			Pemba																L.Haimberger	0
309	0-20000-0-12560	0	310	12560	1	KATOWICE-MUCHOWEC			0	19.03	50.24				1	0	63			Katowice																L.Haimberger	0
310	0-20000-0-82240	0	311	82240	1	PARINTINS (82240-0)			0	-56.73	-2.63				1	0	63			Parintins																L.Haimberger	0
311	0-20000-0-15410	0	312	15410	1	DROBETA-TURNU SEVERIN			0	22.63	44.63				1	0	63			Drobeta-Turnu Severin																L.Haimberger	0
312	0-20000-0-21432	0	313	C:4582	1	OSTROV KOTEL'NYJ			0	137.87	76.0				1	0	63			None																L.Haimberger	0
313	0-20000-0-48972	0	314	1:48972	1	STUNG TRENG			0	105.97	13.52				1	0	63			Lumphat																L.Haimberger	0
314	0-20000-0-37395	0	315	1:37395	1	KUTAISI			0	42.63	42.25				1	0	63			Tskaltubo																L.Haimberger	0
315	0-20000-0-64709	0	316	64709	1	PALA			0	14.97	9.37				1	0	63			Pala																L.Haimberger	0
316	0-20000-0-40621	0	317	1:40621	1	KIRKUK			0	44.4	35.47				1	0	63			Kirkuk																L.Haimberger	0
317	0-20000-0-10756	0	318	10756	1	FEUCHTWANGEN-HEILBRONN			0	10.37	49.16				1	0	63			None																L.Haimberger	0
318	0-20000-0-68054	0	319	68054	1	FRANCISTOWN			0	27.47	-21.32				1	0	63			Francistown																L.Haimberger	0
319	0-20000-0-48918	0	320	40002	1	CON SON			0	106.6	8.68				1	0	63			Bac Lieu																L.Haimberger	0
320	0-20000-0-47884	0	321	47884	1	TOKUSHIMA AB			0	134.61	34.13				1	0	63			Komatsushima																L.Haimberger	0
321	0-20000-0-60540	0	322	1:60540	1	EL-KHEITER			0	0.07	34.15				1	0	63			Wahran																L.Haimberger	0
322	0-20000-0-60607	0	323	1:60606	1	TIMIMOUN			0	0.28	29.25				1	0	63			Adrar																L.Haimberger	0
323	0-20000-0-96249	0	324	1:96249	1	TANJUNG PANDAN/BULUH TUMBANG			0	107.75	-2.75				1	0	63			Manggar																L.Haimberger	0
324	0-20000-0-65055	0	325	65055	1	BAUCHI			0	9.82	10.28				1	0	63			Bauchi																L.Haimberger	0
325	0-20000-0-72393	0	326	93223	1	VANDENBERG AFB, CA. (72393-0)			0	-120.57	34.75				1	0	63			Lompoc																L.Haimberger	0
326	0-20000-0-97760	0	327	1:97760	1	KAIMANA/UTAROM			0	133.7	-3.64				1	0	63			Nabire																L.Haimberger	0
327	0-20000-0-71936	0	328	71936	1	YELLOWKNIFE A, NWT			0	-114.44	62.46				1	0	63			Yellowknife																L.Haimberger	0
328	0-20000-0-08181	0	329	1:8181	1	BARCELONA SERVEI			0	2.12	41.38				1	0	63			El Prat De Llobregat																L.Haimberger	0
329	0-20000-0-70116	0	330	2:26618	1	WALES			0	-168.05	65.62				1	0	63			None																L.Haimberger	0
330	0-20000-0-36535	0	331	1:36358	1	KOKPEKTY			0	82.37	48.75				1	0	63			Serebryansk																L.Haimberger	0
331	0-20000-0-12560	0	332	1:12560	1	KATOWICE-MUCHOWEC			0	19.03	50.24				1	0	63			Katowice																L.Haimberger	0
332	0-20000-0-47688	0	333	1:47688	1	TATEYAMA AB			0	139.83	34.99				1	0	63			Tateyama																L.Haimberger	0
333	0-20000-0-10532	0	334	1:10532	1	GIESSEN-WETTENBERG			0	8.64	50.6				1	0	63			Langgons																L.Haimberger	0
334	0-20000-0-48107	0	335	48107	1	YE			0	97.87	15.25				1	0	63			Ye																L.Haimberger	0
335	0-20000-0-25551	0	336	C:4628	1	MARKOVO			0	170.42	64.68				1	0	63			None																L.Haimberger	0
336	0-20000-0-40255	0	337	1:40230	1	IRBED			0	35.85	32.55				1	0	63			Irbid																L.Haimberger	0
337	0-20000-0-43063	0	338	6:20500	1	PUNE			0	73.85	18.53				1	0	63			Pune																L.Haimberger	0
338	0-20000-0-07603	0	339	1:7603	1	DAX			0	-1.07	43.69				1	0	63			Dax																L.Haimberger	0
339	0-20000-0-30802	0	340	1:30802	1	MONDY			0	100.98	51.68				1	0	63			Slyudyanka																L.Haimberger	0
340	0-20000-0-11240	0	341	11240	1	GRAZ-THALERHOF-FLUGHAFEN			0	15.44	46.98				1	0	63			Graz																L.Haimberger	0
341	0-20000-0-32071	0	342	32071	1	TYMOVSKOE			0	142.72	50.73				1	0	63			Aleksandrovsk-Sakhalinskiy																L.Haimberger	0
342	0-20000-0-22520	0	343	6:22522	1	KEM'			0	34.65	64.95				1	0	63			Kem																L.Haimberger	0
343	0-20000-0-80336	0	344	1:80337	1	TUMACO/LA FLORIDA			0	-78.75	1.82				1	0	63			Tumaco																L.Haimberger	0
344	0-20000-0-61809	0	345	61809	1	LABE			0	-12.3	11.32				1	0	63			Labe																L.Haimberger	0
345	0-20000-0-70235	0	346	26534	1	SPARREVOHN AFS			0	-155.57	61.1				1	0	63			None																L.Haimberger	0
346	0-20000-0-96009	0	347	96009	1	LHOKSEUMAWE/MALIKUSSALEH			0	96.95	5.23				1	0	63			Lhokseumawe																L.Haimberger	0
347	0-20000-0-10289	0	348	10289	1	GRUENOW			0	13.93	53.32				1	0	63			None																L.Haimberger	0
348	0-20000-0-07024	0	349	1:7021	1	MAUPERTUS GONNEVILLE			0	-1.46	49.65				1	0	63			Cherbourg																L.Haimberger	0
349	0-20000-0-06242	0	350	1:6242	1	VLIELAND			0	4.92	53.24				1	0	63			Den Helder																L.Haimberger	0
350	0-20000-0-72270	0	351	2:23038	1	SANTA TERESA, NM.			0	-106.7	31.87				1	0	63			El Paso																L.Haimberger	0
351	0-20000-0-08181	0	352	8181	1	BARCELONA SERVEI			0	2.12	41.38				1	0	63			El Prat De Llobregat																L.Haimberger	0
352	0-20000-0-67761	0	353	67761	1	KARIBA			0	28.88	-16.52				1	0	63			Kariba																L.Haimberger	0
353	0-20000-0-31532	0	354	31532	1	CEKUNDA			0	132.25	50.87				1	0	63			Chegdomyn																L.Haimberger	0
354	0-20000-0-10142	0	355	10142	1	ITZEHOE			0	9.57	53.99				1	0	63			None																L.Haimberger	0
355	0-20000-0-67867	0	356	1:67867	1	GWERU			0	29.85	-19.45				1	0	63			Gweru																L.Haimberger	0
356	0-20000-0-42260	0	357	42260	1	AGRA (42260-0)			0	77.97	27.15				1	0	63			Agra																L.Haimberger	0
357	0-20000-0-61970	0	358	1:61970	1	ILE JUAN DE NOVA			0	42.71	-17.05				1	0	63			Mocambique																L.Haimberger	0
358	0-20000-0-10126	0	359	10126	1	WITTMUNDHAVEN			0	7.67	53.55				1	0	63			Ishigaki																L.Haimberger	0
359	0-20000-0-72256	0	360	2:13928	1	WACO, MADISON-COOPER, TX.			0	-97.22	31.62				1	0	63			Waco																L.Haimberger	0
360	0-20000-0-01412	0	361	10256	1	OBRESTAD			0	5.56	58.66				1	0	63			None																L.Haimberger	0
361	0-20000-0-95767	0	362	9:1496	1	LAKE MACQUARIE AWS			0	151.46	-33.09				1	0	63			Newcastle																L.Haimberger	0
362	0-20000-0-59362	0	363	1:46699	1	HUALIAN			0	121.62	24.02				1	0	63			Puli																L.Haimberger	0
363	0-20000-0-38527	0	364	1:38527	1	DAVALY			0	57.38	40.07				1	0	63			Baherden																L.Haimberger	0
364	0-20000-0-71946	0	365	26203	1	FORT SIMPSON A, NWT			0	-121.24	61.76				1	0	63			None																L.Haimberger	0
365	0-20000-0-63332	0	366	2:31306	1	BAHAR DAR			0	37.42	11.6				1	0	63			Bahir Dar																L.Haimberger	0
366	0-20000-0-64056	0	367	64056	1	BAFWASENDE			0	27.13	1.08				1	0	63			Wamba																L.Haimberger	0
367	0-20000-0-22802	0	368	C:4648	1	SORTAVALA			0	30.72	61.72				1	0	63			Sortavala																L.Haimberger	0
368	0-20000-0-94238	0	369	1:94240	1	TENNANT CREEK AIRPORT			0	134.18	-19.64				1	0	63			Alice Springs																L.Haimberger	0
369	0-20000-0-41560	0	370	41560	1	PARACHINAR			0	70.08	33.87				1	0	63			Azrow																L.Haimberger	0
370	0-20000-0-25123	0	371	C:4624	1	CHERSKIJ			0	161.28	68.75				1	0	63			None																L.Haimberger	0
371	0-20000-0-24959	0	372	C:4658	1	JAKUTSK			0	129.72	62.02				1	0	63			Markha																L.Haimberger	0
372	0-20000-0-48477	0	373	2:41028	1	SATTAHIP			0	100.99	12.69				1	0	63			Ban Chang																L.Haimberger	0
373	0-20000-0-95866	0	374	9:1497	1	MELBOURNE AIRPORT			0	144.83	-37.67				1	0	63			Melbourne																L.Haimberger	0
374	0-20000-0-61721	0	375	61721	1	JANJANGBUREH (GEORGETOWN)			0	-14.77	13.54				1	0	63			Kuntaur																L.Haimberger	0
375	0-20000-0-71127	0	376	71127	1	EDMONTON STONY PLAIN CS, ALTA			0	-114.11	53.55				1	0	63			Grand Centre																L.Haimberger	0
376	0-20000-0-24944	0	377	C:4578	1	OLEKMINSK (24944-0)			0	120.42	60.4				1	0	63			Aldan																L.Haimberger	0
377	0-20000-0-08023	0	378	1:8023	1	SANTANDER			0	-3.8	43.49				1	0	63			Santander																L.Haimberger	0
378	0-20000-0-91232	0	379	1:91232	1	SAIPAN (CG), MARIANA IS.			0	145.73	15.12				1	0	63			None																L.Haimberger	0
379	0-20000-0-71799	0	380	72799	1	VICTORIA INT'L A, BC			0	-123.43	48.65				1	0	63			Duncan																L.Haimberger	0
380	0-20000-0-15360	0	381	1:15360	1	SULINA			0	29.73	45.16				1	0	63			Kiliya																L.Haimberger	0
381	0-20000-0-08433	0	382	1:8433	1	MURCIA/SAN JAVIER			0	-0.8	37.79				1	0	63			San Javier																L.Haimberger	0
382	0-20000-0-34300	0	383	C:4616	1	Kharkiv			0	36.28	49.93				1	0	63			Vysokyy																L.Haimberger	0
383	0-20000-0-87509	0	384	87509	1	SAN RAFAEL AERO			0	-68.4	-34.59				1	0	63			San Rafael																L.Haimberger	0
384	0-20000-0-65507	0	385	65507	1	FADA N'GOURMA			0	0.35	12.07				1	0	63			Ouargaye																L.Haimberger	0
385	0-20000-0-64810	0	386	64810	1	MALABO			0	8.77	3.75				1	0	63			Malabo																L.Haimberger	0
386	0-20000-0-14445	0	387	1:13333	1	SPLIT/MARJAN			0	16.43	43.51				1	0	63			Split																L.Haimberger	0
387	0-20000-0-10037	0	388	10037	1	SCHLESWIG-JAGEL			0	9.52	54.46				1	0	63			None																L.Haimberger	0
388	0-20000-0-74693	0	389	74693	1	POPE AFB, NC.			0	-79.03	35.17				1	0	63			Fayetteville																L.Haimberger	0
389	0-20000-0-41019	0	390	41019	1	MAHAZAT AL-SAID-2			0	42.07	22.35				1	0	63			Nakhon Ratchasima																L.Haimberger	0
390	0-20000-0-15490	0	391	15490	1	TURNU-MAGURELE			0	24.88	43.76				1	0	63			Turnu Magurele																L.Haimberger	0
391	0-20000-0-71916	0	392	71916	1	THOMSEN RIVER, NWT			0	-119.54	73.23				1	0	63			None																L.Haimberger	0
392	0-20000-0-41020	0	393	41020	1	JEDDAH I.E.			0	39.22	21.42				1	0	63			Nakhon Phanom																L.Haimberger	0
393	0-20000-0-74754	0	394	1:74754	1	ENGLAND AFB, LA.			0	-92.55	31.32				1	0	63			Alexandria																L.Haimberger	0
394	0-20000-0-60738	0	395	1:60738	1	THALA			0	8.68	35.55				1	0	63			Talah																L.Haimberger	0
395	0-20000-0-68244	0	396	1:68244	1	SERETSE KHAMA INTERNATIONAL AIRPORT			0	25.92	-24.55				1	0	63			Gaborone																L.Haimberger	0
396	0-20000-0-42909	0	397	C:5554	1	VERAVAL			0	70.37	20.9				1	0	63			Veraval																L.Haimberger	0
397	0-20000-0-23022	0	398	C:4540	1	AMDERMA			0	61.66	69.78				1	0	63			Severnyy																L.Haimberger	0
398	0-20000-0-62760	0	399	C:4949	1	EL FASHER			0	25.33	13.62				1	0	63			Umm Kaddadah																L.Haimberger	0
399	0-20000-0-12580	0	400	12580	1	RZESZOW-JASIONKA			0	22.02	50.11				1	0	63			Rzeszow																L.Haimberger	0
400	0-20000-0-72487	0	401	3113	1	CALIENTE, NV.			0	-114.52	37.62				1	0	63			Saint George																L.Haimberger	0
401	0-20000-0-62414	0	402	C:4955	1	ASSWAN			0	32.82	23.96				1	0	63			Aswan																L.Haimberger	0
402	0-20000-0-31004	0	403	C:4539	1	ALDAN			0	125.37	58.62				1	0	63			Aldan																L.Haimberger	0
403	0-20000-0-12935	0	404	12935	1	SIOFOK			0	18.05	46.92				1	0	63			Siofok																L.Haimberger	0
404	0-20000-0-74612	0	405	74612	1	CHINA LAKE, NAF, CA.			0	-117.68	35.68				1	0	63			Ridgecrest																L.Haimberger	0
405	0-20000-0-91601	0	406	2:40712	1	BUTARITARI			0	172.78	3.03				1	0	63			Bairiki																L.Haimberger	0
406	0-20000-0-83236	0	407	1:83236	1	BARREIRAS (83236-0)			0	-45.0	-12.15				1	0	63			Barreiras																L.Haimberger	0
407	0-20000-0-62795	0	408	1:62795	1	ABU NA'AMA			0	34.13	12.73				1	0	63			Sinjah																L.Haimberger	0
408	0-20000-0-58265	0	409	58265	1	LUSI			0	121.53	32.08				1	0	63			Huilong																L.Haimberger	0
409	0-20000-0-31909	0	410	C:4592	1	TERNEJ			0	136.6	45.0				1	0	63			Dalnegorsk																L.Haimberger	0
410	0-20000-0-66152	0	411	C:5970	1	DUNDO			0	20.82	-7.4				1	0	63			Tshikapa																L.Haimberger	0
411	0-20000-0-83525	0	412	83525	1	UBERLANDIA (AERO)			0	-48.22	-18.88				1	0	63			Uberlandia																L.Haimberger	0
412	0-20000-2-29842	0	413	9:3864	1	Novokuznetsk			0	87.1	53.9				1	0	63			Novokuznetsk																L.Haimberger	0
413	0-20000-0-67977	0	414	1:67977	1	BUFFALO RANGE			0	31.58	-21.02				1	0	63			Chiredzi																L.Haimberger	0
414	0-20000-0-63023	0	415	1:63023	1	MASSAWA			0	39.45	15.62				1	0	63			Ginda																L.Haimberger	0
415	0-20000-0-92035	0	416	2:80435	1	PORT MORESBY W.O.			0	147.22	-9.38				1	0	63			Port Moresby																L.Haimberger	0
416	0-20000-0-87078	0	417	1:87078	1	LAS LOMITAS			0	-60.59	-24.7				1	0	63			Presidencia Roque Saenz Pena																L.Haimberger	0
417	0-20000-0-10765	0	418	10765	1	ROTH			0	11.1	49.22				1	0	63			Roth																L.Haimberger	0
418	0-20000-0-67869	0	419	67869	1	KADOMA			0	29.88	-18.32				1	0	63			Kadoma																L.Haimberger	0
419	0-20000-0-67871	0	420	67871	1	CHIVHU			0	30.88	-19.03				1	0	63			Kwekwe																L.Haimberger	0
420	0-20000-0-10832	0	421	10832	1	TUERKHEIM (RADAR)			0	9.78	48.59				1	0	63			None																L.Haimberger	0
421	0-20000-0-15260	0	422	15260	1	SIBIU			0	24.09	45.79				1	0	63			Sibiu																L.Haimberger	0
422	0-20000-0-65475	0	423	65475	1	ADA			0	0.63	5.78				1	0	63			Anloga																L.Haimberger	0
423	0-20000-0-60566	0	424	1:60565	1	GHARDAIA			0	3.8	32.4				1	0	63			Warqla																L.Haimberger	0
424	0-20000-0-10376	0	425	10376	1	BARUTH			0	13.5	52.06				1	0	63			Dong Hoi																L.Haimberger	0
425	0-20000-0-87692	0	426	1:87696	1	MAR DEL PLATA AERO			0	-57.58	-37.93				1	0	63			Mar Del Plata																L.Haimberger	0
426	0-20000-0-85201	0	427	1:85201	1	LA PAZ/ALTO			0	-68.18	-16.52				1	0	63			La Paz																L.Haimberger	0
427	0-20000-0-24125	0	428	C:4639	1	OLENEK (24125-0)			0	112.43	68.5				1	0	63			Udachnyy																L.Haimberger	0
428	0-20000-0-08449	0	429	8449	1	ROTA B.N. OBSERVATORIO			0	-6.33	36.64				1	0	63			Rota																L.Haimberger	0
429	0-20000-0-38457	0	430	C:4695	1	TASHKENT			0	69.3	41.33				1	0	63			Tashkent																L.Haimberger	0
430	0-20000-0-06451	0	431	6448	1	BRUSSELS NATIONAL (AIRPORT)			0	4.53	50.9				1	0	63			Machelen																L.Haimberger	0
431	0-20000-0-96253	0	432	1:96253	1	BENGKULU/PADANG KEMILING			0	102.33	-3.88				1	0	63			Bengkulu																L.Haimberger	0
432	0-20000-0-07037	0	433	7036	1	ROUEN-BOOS			0	1.18	49.38				1	0	63			Le Grand-Quevilly																L.Haimberger	0
433	0-20000-0-72636	0	434	1:72636	1	MUSKEGON/COUNTY, MI.			0	-86.25	43.17				1	0	63			Grand Haven																L.Haimberger	0
434	0-20000-0-07005	0	435	1:7005	1	ABBEVILLE			0	1.83	50.14				1	0	63			Abbeville																L.Haimberger	0
435	0-20000-0-24817	0	436	C:4599	1	ERBOGACEN			0	108.02	61.27				1	0	63			Kirensk																L.Haimberger	0
436	0-20000-0-67339	0	437	C:4823	1	MAPUTO/MAVALANE			0	32.57	-25.92				1	0	63			Maputo																L.Haimberger	0
437	0-20000-0-10135	0	438	10135	1	Nordholz (WP)			0	8.67	53.78				1	0	63			None																L.Haimberger	0
438	0-20000-0-62366	0	439	C:4939	1	HELWAN			0	31.35	29.86				1	0	63			Cairo																L.Haimberger	0
439	0-20000-0-37897	0	440	1:37897	1	SISIAN			0	46.03	39.52				1	0	63			Sisian																L.Haimberger	0
440	0-20000-0-82764	0	441	82764	1	CAROLINA (82765-0)			0	-47.47	-7.33				1	0	63			Carolina																L.Haimberger	0
441	0-20000-0-74531	0	442	1:74531	1	AIR FORCE ACADEMY,  CO.			0	-104.82	38.97				1	0	63			Black Forest																L.Haimberger	0
442	0-20000-0-94996	0	443	93996	1	NORFOLK ISLAND AERO			0	167.94	-29.04				1	0	63			None																L.Haimberger	0
443	0-20000-0-62671	0	444	62671	1	TOKAR			0	37.73	18.43				1	0	63			Tawkar																L.Haimberger	0
444	0-20000-0-67037	0	445	1:67037	1	BESALAMPY			0	44.48	-16.75				1	0	63			Mahajanga																L.Haimberger	0
445	0-20000-0-62781	0	446	1:62781	1	EN NAHUD			0	28.43	12.7				1	0	63			Abu Zabad																L.Haimberger	0
446	0-20000-0-28952	0	447	C:4564	1	KOSTANAY			0	63.74	53.24				1	0	63			Qostanay																L.Haimberger	0
447	0-20000-0-61829	0	448	61829	1	KANKAN			0	-9.3	10.38				1	0	63			Kankan																L.Haimberger	0
448	0-20000-0-01412	0	449	6:102561	1	OBRESTAD			0	5.56	58.66				1	0	63			None																L.Haimberger	0
449	0-20000-0-15235	0	450	1:15300	1	FAGARAS			0	24.94	45.84				1	0	63			Fagaras																L.Haimberger	0
450	0-20000-0-63866	0	451	63866	1	MOROGORO			0	37.65	-6.83				1	0	63			Morogoro																L.Haimberger	0
451	0-20000-0-64754	0	452	64754	1	AM-TIMAN			0	20.28	11.03				1	0	63			Am Timan																L.Haimberger	0
452	0-20000-0-83220	0	453	83220	1	RIO XINGU			0	-53.4	-12.0				1	0	63			Alta Floresta																L.Haimberger	0
453	0-20000-0-65467	0	454	65467	1	TAKORADI			0	-1.77	4.88				1	0	63			Takoradi																L.Haimberger	0
454	0-20000-0-12935	0	455	1:12935	1	SIOFOK			0	18.05	46.92				1	0	63			Siofok																L.Haimberger	0
455	0-20000-0-30688	0	456	30688	1	POKROVKA			0	121.55	53.35				1	0	63			Mogocha																L.Haimberger	0
456	0-20000-0-89250	0	457	6:88934	1	KING GEORGE ISLAND			0	-58.4	-62.08				1	0	63			None																L.Haimberger	0
457	0-20000-0-59358	0	458	46743	1	TAINAN			0	120.22	23.0				1	0	63			Tainan																L.Haimberger	0
458	0-705-0-1950	0	459	9:1628	1	MARIBOR - VRBANSKI PLATO			0	15.63	46.57				1	0	63			Maribor																L.Haimberger	0
459	0-20000-0-91629	0	460	80707	1	ARORAE			0	176.83	-2.67				1	0	63			Bairiki																L.Haimberger	0
460	0-20000-0-10532	0	461	10532	1	GIESSEN-WETTENBERG			0	8.64	50.6				1	0	63			Langgons																L.Haimberger	0
461	0-20000-0-41950	0	462	1:41932	1	BARISAL			0	90.37	22.75				1	0	63			Barisal																L.Haimberger	0
462	0-20000-0-65442	0	463	65442	1	KUMASI			0	-1.6	6.72				1	0	63			Tafo																L.Haimberger	0
463	0-20000-0-62810	0	464	62810	1	KADOGLLI			0	29.72	11.0				1	0	63			Kaduqli																L.Haimberger	0
464	0-20000-0-30603	0	465	1:30603	1	ZIMA			0	102.05	53.93				1	0	63			Zima																L.Haimberger	0
465	0-20000-0-22543	0	466	C:4605	1	ARHANGEL'SK (22543-0)			0	40.51	64.62				1	0	63			Arkhangelsk																L.Haimberger	0
466	0-20000-0-20674	0	467	C:4581	1	OSTROV DIKSON			0	80.41	73.51				1	0	63			None																L.Haimberger	0
467	0-20000-0-38328	0	468	C:4680	1	SHYMKENT			0	69.71	42.35				1	0	63			Shymkent																L.Haimberger	0
468	0-20000-0-48972	0	469	48972	1	STUNG TRENG			0	105.97	13.52				1	0	63			Lumphat																L.Haimberger	0
469	0-20000-0-81253	0	470	81253	1	COEROENI			0	-57.33	3.37				1	0	63			Nieuw Nickerie																L.Haimberger	0
470	0-20000-0-62751	0	471	1:62751	1	WAD MEDANI			0	33.48	14.4				1	0	63			Wad Madani																L.Haimberger	0
471	0-20000-0-91232	0	472	91232	1	SAIPAN (CG), MARIANA IS.			0	145.73	15.12				1	0	63			None																L.Haimberger	0
472	0-20000-0-32509	0	473	1:32509	1	SEMYACHIK			0	159.98	54.12				1	0	63			Yelizovo																L.Haimberger	0
473	0-20000-0-71580	0	474	1:71914	1	TALOYOAK A, NU			0	-93.58	69.55				1	0	63			None																L.Haimberger	0
474	0-20000-0-87320	0	475	1:87320	1	CHAMICAL AERO			0	-66.3	-30.35				1	0	63			La Rioja																L.Haimberger	0
475	0-20000-0-65404	0	476	65404	1	WA			0	-2.5	10.05				1	0	63			Wa																L.Haimberger	0
476	0-20000-0-60220	0	477	60220	1	ESSAOUIRA			0	-9.77	31.51				1	0	63			Asfi																L.Haimberger	0
477	0-20000-0-76405	0	478	1:76405	1	LA PAZ, BCS			0	-110.32	24.13				1	0	63			La Paz																L.Haimberger	0
478	0-20000-0-74641	0	479	9:3394	1	GAGE, OK, GAGE ARPT			0	-99.78	36.3				1	0	63			Woodward																L.Haimberger	0
479	0-20000-0-30739	0	480	30739	1	HORINSK			0	109.78	52.17				1	0	63			Khilok																L.Haimberger	0
480	0-20000-0-66447	0	481	1:66447	1	MAVINGA			0	20.35	-15.83				1	0	63			Rundu																L.Haimberger	0
481	0-20000-0-87641	0	482	9:1338	1	AZUL AERO			0	-59.89	-36.83				1	0	63			Azul																L.Haimberger	0
482	0-20000-0-67485	0	483	67485	1	MZIMBA			0	33.62	-11.88				1	0	63			Mzimba																L.Haimberger	0
483	0-20000-0-94393	0	484	6:100800	1	FREDERICK REEF			0	154.4	-20.94				1	0	63			Yeppoon																L.Haimberger	0
484	0-20000-0-63671	0	485	63671	1	WAJIR			0	40.06	1.75				1	0	63			Wajir																L.Haimberger	0
485	0-20000-0-31004	0	486	C:4601	1	ALDAN			0	125.37	58.62				1	0	63			Aldan																L.Haimberger	0
486	0-20000-0-78647	0	487	1:78647	1	SAN JOSE (78647-0)			0	-90.82	13.92				1	0	63			San Jose																L.Haimberger	0
487	0-20000-0-71940	0	488	71940	1	GRANDE PRAIRIE A, ALTA			0	-118.89	55.18				1	0	63			Grande Prairie																L.Haimberger	0
488	0-20000-0-65465	0	489	65465	1	AXIM			0	-2.23	4.87				1	0	63			Axim																L.Haimberger	0
489	0-20000-0-64402	0	490	64402	1	MOUYONDZI			0	13.95	-4.0				1	0	63			Madingou																L.Haimberger	0
490	0-20000-0-48477	0	491	41028	1	SATTAHIP			0	100.99	12.69				1	0	63			Ban Chang																L.Haimberger	0
491	0-20000-0-12580	0	492	1:12580	1	RZESZOW-JASIONKA			0	22.02	50.11				1	0	63			Rzeszow																L.Haimberger	0
492	0-20000-0-87078	0	493	87078	1	LAS LOMITAS			0	-60.59	-24.7				1	0	63			Presidencia Roque Saenz Pena																L.Haimberger	0
493	0-20000-0-91551	0	494	1:91551	1	SOLA (VANUA LAVA)			0	167.55	-13.85				1	0	63			Luganville																L.Haimberger	0
494	0-20000-0-64701	0	495	64701	1	MAO			0	15.32	14.12				1	0	63			Mao																L.Haimberger	0
495	0-20000-0-71914	0	496	71914	1	SATURNA CAPMON, BC			0	-123.13	48.77				1	0	63			None																L.Haimberger	0
496	0-20000-0-87692	0	497	87696	1	MAR DEL PLATA AERO			0	-57.58	-37.93				1	0	63			Mar Del Plata																L.Haimberger	0
497	0-20000-0-74392	0	498	1:74392	1	GRAY, ME.			0	-70.26	43.89				1	0	63			Brunswick																L.Haimberger	0
498	0-20000-0-96145	0	499	1:96145	1	TAREMPA			0	106.22	3.22				1	0	63			Mersing																L.Haimberger	0
499	0-20001-0-34731	0	500	C:4643	1	ROSTOV-NA-DONU (34731-1)			0	39.82	47.25				1	0	63			Aksay																L.Haimberger	0
500	0-20000-0-07024	0	501	1:7024	1	MAUPERTUS GONNEVILLE			0	-1.46	49.65				1	0	63			Tourlaville																L.Haimberger	0
501	0-20000-0-87270	0	502	1:87270	1	RECONQUISTA AERO			0	-59.69	-29.2				1	0	63			Reconquista																L.Haimberger	0
502	0-20000-0-91551	0	503	91551	1	SOLA (VANUA LAVA)			0	167.55	-13.85				1	0	63			Luganville																L.Haimberger	0
503	0-20000-0-10139	0	504	10139	1	BREMERVOERDE			0	9.14	53.44				1	0	63			None																L.Haimberger	0
504	0-20000-0-41416	0	505	9:1857	1	KAMARAN			0	42.58	15.37				1	0	63			Bajil																L.Haimberger	0
505	0-20000-0-33587	0	506	1:33587	1	Uman			0	30.23	48.77				1	0	63			Zhashkiv																L.Haimberger	0
506	0-20000-0-88963	0	507	9:2224	1	BASE ESPERANZA			0	-57.0	-63.4				1	0	63			None																L.Haimberger	0
507	0-20000-0-72521	0	508	2:14896	1	AKRON/AKRON-CANTON REG. OH.			0	-81.43	40.92				1	0	63			Akron																L.Haimberger	0
508	0-20000-0-72404	0	509	13721	1	PATUXENT RIVER/NAS, MD.			0	-76.4	38.28				1	0	63			Lexington Park																L.Haimberger	0
509	0-20000-0-56786	0	510	1:56786	1	ZHANYI			0	103.83	25.58				1	0	63			Qujing																L.Haimberger	0
510	0-20000-0-47580	0	511	2:44403	1	MISAWA AB			0	141.37	40.71				1	0	63			Misawa																L.Haimberger	0
511	0-20000-0-60550	0	512	1:60550	1	EL-BAYADH			0	1.08	33.72				1	0	63			Aflu																L.Haimberger	0
512	0-20000-0-87791	0	513	1:87790	1	VIEDMA AERO			0	-63.01	-40.86				1	0	63			Viedma																L.Haimberger	0
513	0-20000-0-15450	0	514	1:15450	1	CRAIOVA			0	23.87	44.31				1	0	63			Craiova																L.Haimberger	0
514	0-20000-0-62722	0	515	62722	1	AROMA			0	36.15	15.83				1	0	63			Wagar																L.Haimberger	0
515	0-20000-0-17124	0	516	1:17124	1	ESKISEHIR HAVALIMANI			0	30.58	39.78				1	0	63			Eskisehir																L.Haimberger	0
516	0-20000-0-91629	0	517	2:80707	1	ARORAE			0	176.83	-2.67				1	0	63			Bairiki																L.Haimberger	0
517	0-20000-0-30636	0	518	C:4608	1	BARGUZIN			0	109.63	53.62				1	0	63			Onokhoy																L.Haimberger	0
518	0-20000-0-43150	0	519	43150	1	VISHAKHAPATNAM/WALTAIR			0	83.3	17.68				1	0	63			Visakhapatnam																L.Haimberger	0
519	0-20000-0-71393	0	520	1:72877	1	CALGARY INT'L CS, ALTA			0	-114.0	51.11				1	0	63			Calgary																L.Haimberger	0
520	0-20000-0-71946	0	521	71946	1	FORT SIMPSON A, NWT			0	-121.24	61.76				1	0	63			None																L.Haimberger	0
521	0-20000-0-64757	0	522	64757	1	FADA			0	21.55	17.17				1	0	63			Faya																L.Haimberger	0
522	0-20000-0-30935	0	523	C:4560	1	KRASNYJ CHIKOJ			0	108.75	50.37				1	0	63			Petrovsk-Zabaykalskiy																L.Haimberger	0
523	0-20000-0-47850	0	524	47850	1	KANOYA AB			0	130.84	31.37				1	0	63			Sueyoshi																L.Haimberger	0
524	0-20000-0-08140	0	525	1:8140	1	VALLADOLID/VILLANUBLA			0	-4.86	41.71				1	0	63			Valladolid																L.Haimberger	0
525	0-20000-0-91765	0	526	9:1278	1	PAGO PAGO/INT.AIRP. AMERICAN SAMOA			0	-170.72	-14.34				1	0	63			Apia																L.Haimberger	0
526	0-20000-0-24817	0	527	C:4659	1	ERBOGACEN			0	108.02	61.27				1	0	63			Kirensk																L.Haimberger	0
527	0-20000-0-63887	0	528	1:63887	1	IRINGA			0	35.75	-7.67				1	0	63			Iringa																L.Haimberger	0
528	0-20000-0-78073	0	529	2:12717	1	NASSAU AIRPORT NEW PROVIDENCE			0	-77.47	25.05				1	0	63			Nassau																L.Haimberger	0
529	0-20000-0-74619	0	530	2:3126	1	SUPERIOR VALLEY GUNNERY RANGE, CA			0	-117.1	36.33				1	0	63			Pahrump																L.Haimberger	0
530	0-20000-0-07061	0	531	1:7061	1	SAINT-QUENTIN			0	3.21	49.82				1	0	63			Saint-Quentin																L.Haimberger	0
531	0-20000-0-64920	0	532	64920	1	BAFIA			0	11.25	4.73				1	0	63			Bafia																L.Haimberger	0
532	0-20000-0-06400	0	533	6400	1	KOKSIJDE			0	2.65	51.09				1	0	63			Koksijde																L.Haimberger	0
533	0-20000-0-30603	0	534	30603	1	ZIMA			0	102.05	53.93				1	0	63			Zima																L.Haimberger	0
534	0-20000-0-20107	0	535	C:4607	1	BARENTSBURG			0	14.22	78.06				1	0	63			None																L.Haimberger	0
535	0-20000-0-30822	0	536	30822	1	BABUSKIN			0	105.85	51.71				1	0	63			Selenginsk																L.Haimberger	0
536	0-20000-0-30683	0	537	30683	1	EROFEJ PAVLOVIC			0	121.93	53.97				1	0	63			Skovorodino																L.Haimberger	0
537	0-20000-0-66160	0	538	1:661600	1	LUANDA			0	13.23	-8.85				1	0	63			Luanda																L.Haimberger	0
538	0-20000-0-28552	0	539	28552	1	SADRINSK			0	63.65	56.07				1	0	63			Shadrinsk																L.Haimberger	0
539	0-20000-0-38353	0	540	C:4692	1	BISHKEK			0	74.53	42.85				1	0	63			Kant																L.Haimberger	0
540	0-20000-0-91765	0	541	2:61702	1	PAGO PAGO/INT.AIRP. AMERICAN SAMOA			0	-170.72	-14.34				1	0	63			Apia																L.Haimberger	0
541	0-20000-0-74788	0	542	1:74788	1	TAMPA BAY AREA, FL.			0	-82.4	27.71				1	0	63			Tampa																L.Haimberger	0
542	0-20000-0-72514	0	543	3:IPT	1	WILLIAMSPORT/LYCOMING COUNTY, PA.			0	-76.92	41.25				1	0	63			Williamsport																L.Haimberger	0
543	0-20000-0-20891	0	544	C:4554	1	HATANGA			0	102.47	71.98				1	0	63			None																L.Haimberger	0
544	0-20000-0-71940	0	545	1:71940	1	GRANDE PRAIRIE A, ALTA			0	-118.89	55.18				1	0	63			Grande Prairie																L.Haimberger	0
545	0-20000-0-67085	0	546	67085	1	ANTANANARIVO/IVATO			0	47.48	-18.8				1	0	63			Antananarivo																L.Haimberger	0
546	0-20000-0-15300	0	547	15300	1	BRASOV-GHIMBAV			0	25.53	45.7				1	0	63			Fagaras																L.Haimberger	0
547	0-20000-0-72530	0	548	2:14810	1	CHICAGO/O'HARE, IL.			0	-87.9	41.98				1	0	63			Schiller Park																L.Haimberger	0
548	0-20000-0-42474	0	549	6:22097	1	ALLAHABAD/GHOORPUR			0	81.81	25.31				1	0	63			Allahabad																L.Haimberger	0
549	0-20000-0-72297	0	550	2:93106	1	LONG BEACH/LB AIRP. DAUGHERTY FIELD,  CA.			0	-118.15	33.82				1	0	63			Rossmoor																L.Haimberger	0
550	0-20000-0-58027	0	551	1:58028	1	XUZHOU			0	117.15	34.28				1	0	63			Xuzhou																L.Haimberger	0
551	0-20000-0-25551	0	552	C:4566	1	MARKOVO			0	170.42	64.68				1	0	63			None																L.Haimberger	0
552	0-20000-0-30054	0	553	C:4656	1	VITIM			0	112.58	59.45				1	0	63			Lensk																L.Haimberger	0
553	0-20000-0-48377	0	554	48377	1	BHUMIBOL DAM			0	99.0	17.24				1	0	63			Ban Tak																L.Haimberger	0
554	0-20000-0-61831	0	555	1:61831	1	CONAKRY			0	-13.62	9.57				1	0	63			Conakry																L.Haimberger	0
555	0-20000-0-65416	0	556	65416	1	BOLE			0	-2.48	9.03				1	0	63			Bouna																L.Haimberger	0
556	0-20000-0-71401	0	557	2:94115	1	WARFIELD RCS			0	-117.74	49.11				1	0	63			Penticton																L.Haimberger	0
557	0-20000-0-41515	0	558	6:20354	1	DROSH			0	71.78	35.57				1	0	63			Chitral																L.Haimberger	0
558	0-20000-0-81250	0	559	81250	1	TAFELBERG			0	-56.15	3.78				1	0	63			Lelydorp																L.Haimberger	0
559	0-20000-0-37914	0	560	37914	1	IMISHLY			0	48.05	39.87				1	0	63			Imisli																L.Haimberger	0
560	0-20000-0-66305	0	561	C:5971	1	LOBITO			0	13.53	-12.37				1	0	63			Catumbela																L.Haimberger	0
561	0-20000-0-40672	0	562	1:40672	1	DIWANIYA			0	44.95	31.95				1	0	63			Baghdad																L.Haimberger	0
562	0-20000-0-38545	0	563	C:4676	1	BIRATA			0	62.28	40.47				1	0	63			Gazojak																L.Haimberger	0
563	0-20000-0-32389	0	564	C:4621	1	KLJUCHI			0	160.83	56.32				1	0	63			Yelizovo																L.Haimberger	0
564	0-20000-0-48432	0	565	48432	1	SURIN			0	103.5	14.87				1	0	63			Surin																L.Haimberger	0
565	0-20000-0-47143	0	566	1:47102	1	DAEGU			0	128.65	35.83				1	0	63			Seoul																L.Haimberger	0
566	0-20000-0-10168	0	567	10168	1	GOLDBERG			0	12.1	53.61				1	0	63			Brigantine																L.Haimberger	0
567	0-20000-0-71023	0	568	1:71127	1	JIMMY LAKE AWOS, SASK			0	-109.96	54.91				1	0	63			Grand Centre																L.Haimberger	0
568	0-20000-0-40610	0	569	40610	1	BAAJ			0	41.73	36.03				1	0	63			None																L.Haimberger	0
569	0-20000-0-02531	0	570	1:2515	1	GOTEBORG, SOL			0	11.98	57.69				1	0	63			Goteborg																L.Haimberger	0
570	0-20000-0-03976	0	571	3976	1	BELMULLET			0	-10.01	54.23				1	0	63			Ballina																L.Haimberger	0
571	0-20000-0-78650	0	572	78650	1	ACAJUTLA			0	-89.83	13.58				1	0	63			Acajutla																L.Haimberger	0
572	0-20000-0-64659	0	573	64659	1	OBO			0	26.5	5.4				1	0	63			Obo																L.Haimberger	0
573	0-20000-0-78663	0	574	78662	1	SAN SALVADOR/ILOPANGO			0	-89.12	13.7				1	0	63			Mejicanos																L.Haimberger	0
574	0-20000-0-61829	0	575	1:61829	1	KANKAN			0	-9.3	10.38				1	0	63			Kankan																L.Haimberger	0
575	0-20000-0-29571	0	576	C:4561	1	MININO			0	92.73	56.07				1	0	63			Krasnoyarsk																L.Haimberger	0
576	0-20001-0-22522	0	577	C:4619	1	KEM'			0	34.65	64.95				1	0	63			Kem																L.Haimberger	0
577	0-20000-0-48918	0	578	2:40002	1	CON SON			0	106.6	8.68				1	0	63			Bac Lieu																L.Haimberger	0
578	0-20000-0-65010	0	579	65010	1	SOKOTO			0	5.25	13.02				1	0	63			Sokoto																L.Haimberger	0
579	0-20000-0-74516	0	580	2:23202	1	FAIRFIELD/TRAVIS AFB CA.			0	-121.95	38.27				1	0	63			Fairfield																L.Haimberger	0
580	0-20000-0-89070	0	581	1:88938	1	GABRIEL DE CASTILLA			0	-60.68	-62.98				1	0	63			None																L.Haimberger	0
581	0-20000-0-15230	0	582	1:15230	1	DEVA			0	22.9	45.87				1	0	63			Deva																L.Haimberger	0
582	0-20000-0-70267	0	583	70267	1	FORT GREELY, AK			0	-145.7	63.97				1	0	63			Fairbanks																L.Haimberger	0
583	0-20000-0-97395	0	584	1:97395	1	BAU CAU			0	126.4	-8.5				1	0	63			Atambua																L.Haimberger	0
584	0-20000-0-89175	0	585	89175	1	BROCKTON			0	-174.67	-78.8				1	0	63			None																L.Haimberger	0
585	0-20000-0-38527	0	586	38527	1	DAVALY			0	57.38	40.07				1	0	63			Baherden																L.Haimberger	0
586	0-20000-0-67561	0	587	1:67561	1	NDOLA			0	28.65	-13.0				1	0	63			Ndola																L.Haimberger	0
587	0-20000-0-87765	0	588	1:87765	1	BARILOCHE AERO			0	-71.16	-41.15				1	0	63			San Carlos De Bariloche																L.Haimberger	0
588	0-20000-0-22520	0	589	3:22522	1	KEM'			0	34.65	64.95				1	0	63			Kem																L.Haimberger	0
589	0-20000-0-91352	0	590	2:40609	1	PINGELAP ATOLL AWS, CAROLINE IS.			0	160.7	6.22				1	0	63			None																L.Haimberger	0
590	0-20000-0-08055	0	591	1:8055	1	LEON/VIRGEN DEL CAMINO			0	-5.65	42.59				1	0	63			San Andres Del Rabanedo																L.Haimberger	0
591	0-20000-0-63995	0	592	61971	1	ALDABRA			0	46.53	-9.35				1	0	63			Domoni																L.Haimberger	0
592	0-20000-0-34009	0	593	C:4563	1	KURSK			0	36.17	51.77				1	0	63			Kursk																L.Haimberger	0
593	0-20000-0-64655	0	594	64655	1	BRIA			0	21.98	6.53				1	0	63			Bria																L.Haimberger	0
594	0-20000-0-30157	0	595	30157	1	MAMA			0	112.87	58.32				1	0	63			Bodaybo																L.Haimberger	0
595	0-20000-0-36535	0	596	36535	1	KOKPEKTY			0	82.37	48.75				1	0	63			Serebryansk																L.Haimberger	0
596	0-20000-0-34009	0	597	C:4625	1	KURSK			0	36.17	51.77				1	0	63			Kursk																L.Haimberger	0
597	0-20000-0-54471	0	598	54471	1	YINGKOU			0	122.17	40.67				1	0	63			Dashiqiao																L.Haimberger	0
598	0-20000-0-61809	0	599	1:61809	1	LABE			0	-12.3	11.32				1	0	63			Labe																L.Haimberger	0
599	0-20000-0-07471	0	600	1:7470	1	LE PUY-LOUDES			0	3.76	45.07				1	0	63			Firminy																L.Haimberger	0
600	0-20000-0-67581	0	601	67581	1	CHIPATA			0	32.58	-13.55				1	0	63			Chipata																L.Haimberger	0
601	0-20000-0-10146	0	602	10146	1	QUICKBORN			0	9.88	53.73				1	0	63			None																L.Haimberger	0
602	0-20000-0-37914	0	603	1:37914	1	IMISHLY			0	48.05	39.87				1	0	63			Imisli																L.Haimberger	0
603	0-20000-0-84010	0	604	50804	1	SAN CRISTOBAL (GALAPAGOS)			0	-89.6	-0.9				1	0	63			None																L.Haimberger	0
604	0-20000-0-63023	0	605	63023	1	MASSAWA			0	39.45	15.62				1	0	63			Ginda																L.Haimberger	0
605	0-20000-0-64220	0	606	64220	1	KINSHASA/BINZA			0	15.25	-4.37				1	0	63			Kinshasa																L.Haimberger	0
606	0-20000-0-74755	0	607	1:74755	1	CLAIBORNE RANGE, LA. (AFS)			0	-92.57	31.13				1	0	63			Alexandria																L.Haimberger	0
607	0-20000-0-59362	0	608	1:59362	1	HUALIAN			0	121.62	24.02				1	0	63			Puli																L.Haimberger	0
608	0-20000-0-38062	0	609	C:4675	1	Tasboget AMS			0	65.53	44.77				1	0	63			Tasbuget																L.Haimberger	0
609	0-20000-0-41950	0	610	41932	1	BARISAL			0	90.37	22.75				1	0	63			Barisal																L.Haimberger	0
610	0-20000-0-72712	0	611	2:14623	1	CARIBOU/MUN., ME.			0	-68.01	46.87				1	0	63			Edmundston																L.Haimberger	0
611	0-20000-0-74693	0	612	1:74693	1	POPE AFB, NC.			0	-79.03	35.17				1	0	63			Fayetteville																L.Haimberger	0
612	0-20000-0-23205	0	613	C:4573	1	NAR'JAN-MAR			0	53.02	67.62				1	0	63			Naryan-Mar																L.Haimberger	0
613	0-20000-0-64390	0	614	1:64390	1	BUJUMBURA			0	29.32	-3.32				1	0	63			Bujumbura																L.Haimberger	0
614	0-20000-0-40233	0	615	1:62338	1	GAZA			0	34.45	31.5				1	0	63			Sederot																L.Haimberger	0
615	0-20000-0-71853	0	616	1:72853	1	SHILO, MAN			0	-99.64	49.78				1	0	63			Brandon																L.Haimberger	0
616	0-20000-0-64751	0	617	64751	1	ATI			0	18.32	13.22				1	0	63			Ati																L.Haimberger	0
617	0-20000-0-38599	0	618	1:38599	1	KHUDJANT			0	69.73	40.22				1	0	63			Gafurov																L.Haimberger	0
618	0-20000-0-64893	0	619	C:5570	1	KOUNDJA			0	10.75	5.65				1	0	63			Foumbot																L.Haimberger	0
619	0-20000-0-48402	0	620	2:41012	1	CHAI NAT AGROMET			0	100.19	15.16				1	0	63			Takhli																L.Haimberger	0
620	0-20000-0-61934	0	621	61934	1	PRINCIPE			0	7.42	1.65				1	0	63			Bata																L.Haimberger	0
621	0-20000-0-83437	0	622	83437	1	MONTES CLAROS (83437-0)			0	-43.87	-16.72				1	0	63			Montes Claros																L.Haimberger	0
622	0-20000-0-12465	0	623	1:12465	1	LODZ-LUBLINEK			0	19.4	51.72				1	0	63			Konstantynow Lodzki																L.Haimberger	0
623	0-20000-0-42867	0	624	6:20420	1	NAGPUR SONEGAON			0	79.05	21.1				1	0	63			Nagpur																L.Haimberger	0
624	0-20000-0-74413	0	625	1:74413	1	SAYLOR CREEK GUNNERY RANGE, ID.			0	-115.7	42.53				1	0	63			Mountain Home																L.Haimberger	0
625	0-20000-0-12772	0	626	12772	1	MISKOLC			0	20.73	48.09				1	0	63			Miskolc																L.Haimberger	0
626	0-20000-0-61612	0	627	61612	1	PODOR			0	-14.93	16.65				1	0	63			Dagana																L.Haimberger	0
627	0-20000-0-30731	0	628	30731	1	GORJACINSK			0	108.29	52.99				1	0	63			Onokhoy																L.Haimberger	0
628	0-20000-0-65472	0	629	1:65449	1	ACCRA			0	-0.17	5.6				1	0	63			Teshie																L.Haimberger	0
629	0-20000-0-65602	0	630	10103	1	SPRIGGS PAYNE AIRPORT			0	-10.75	6.33				1	0	63			Monrovia																L.Haimberger	0
630	0-20000-0-41170	0	631	40428	1	HAMAD INTERNATIONAL AIRPORT			0	51.61	25.27				1	0	63			Doha																L.Haimberger	0
631	0-20000-0-67137	0	632	1:67137	1	FIANARANTSOA			0	47.1	-21.45				1	0	63			Fianarantsoa																L.Haimberger	0
632	0-20000-0-38457	0	633	C:4696	1	TASHKENT			0	69.3	41.33				1	0	63			Tashkent																L.Haimberger	0
633	0-20000-0-96195	0	634	1:96195	1	JAMBI/SULTAN TAHA			0	103.65	-1.63				1	0	63			Jambi																L.Haimberger	0
634	0-20000-0-67781	0	635	1:67781	1	MUTOKO			0	32.22	-17.42				1	0	63			Mutoko																L.Haimberger	0
635	0-20000-0-96751	0	636	1:96755	1	BOGOR/CITEKO			0	106.95	-6.7				1	0	63			Sukaraja																L.Haimberger	0
636	0-20000-0-47184	0	637	47184	1	National Typhoon Center			0	126.68	33.33				1	0	63			Fukue																L.Haimberger	0
637	0-20000-0-17200	0	638	17200	1	MALATYA/ERHAC			0	38.09	38.43				1	0	63			Malatya																L.Haimberger	0
638	0-20000-0-71023	0	639	74127	1	JIMMY LAKE AWOS, SASK			0	-109.96	54.91				1	0	63			Grand Centre																L.Haimberger	0
639	0-20000-0-22113	0	640	C:4568	1	MURMANSK (22113-0)			0	33.04	68.96				1	0	63			Murmansk																L.Haimberger	0
640	0-20000-0-15145	0	641	1:15145	1	TARGU-MURES			0	24.52	46.53				1	0	63			Targu-Mures																L.Haimberger	0
641	0-20000-0-35188	0	642	1:35188	1	ASTANA			0	71.39	51.17				1	0	63			Astana																L.Haimberger	0
642	0-20001-0-34731	0	643	C:4583	1	ROSTOV-NA-DONU (34731-1)			0	39.82	47.25				1	0	63			Aksay																L.Haimberger	0
643	0-20000-0-63500	0	644	2:30304	1	ARBA MINCH			0	37.63	6.08				1	0	63			Gidole																L.Haimberger	0
644	0-20000-0-12822	0	645	12822	1	GYOR			0	17.68	47.72				1	0	63			Gyor																L.Haimberger	0
645	0-20000-0-10427	0	646	10427	1	KAHLER ASTEN			0	8.49	51.18				1	0	63			Bridgetown																L.Haimberger	0
646	0-20000-0-37018	0	647	C:4653	1	TUAPSE (37011-1)			0	39.03	44.1				1	0	63			Tuapse																L.Haimberger	0
647	0-20000-0-97686	0	648	1:97686	1	WAMENA			0	138.95	-4.1				1	0	63			Vanimo																L.Haimberger	0
648	0-20000-0-08508	0	649	8508	1	LAJES (ACORES) (8508-0)			0	-27.09	38.77				1	0	63			Angra																L.Haimberger	0
649	0-20000-0-87345	0	650	87345	1	CORDOBA OBSERVATORIO			0	-64.2	-31.42				1	0	63			Cordoba																L.Haimberger	0
650	0-20000-0-20292	0	651	C:4569	1	GMO IM.E.K. FEDOROVA			0	104.29	77.71				1	0	63			None																L.Haimberger	0
651	0-20000-0-28552	0	652	1:28552	1	SADRINSK			0	63.65	56.07				1	0	63			Shadrinsk																L.Haimberger	0
652	0-20000-0-38687	0	653	C:4669	1	TURKMENABAT			0	63.6	39.08				1	0	63			Turkmenabat																L.Haimberger	0
653	0-20000-0-74757	0	654	2:13820	1	GULFPORT, MS, GULFPORT-BILOXI INT. ARPT			0	-89.07	30.41				1	0	63			Biloxi																L.Haimberger	0
654	0-20000-0-96073	0	655	1:96073	1	SIBOLGA/PINANGSORI			0	98.88	1.55				1	0	63			Sibolga																L.Haimberger	0
655	0-20000-0-76499	0	656	1:76499	1	SOTO LA MARINA,  TAMPS.			0	-98.21	23.76				1	0	63			Aldama																L.Haimberger	0
656	0-20000-0-96171	0	657	1:96171	1	RENGAT/JAPURA			0	102.33	-0.35				1	0	63			Mendahara																L.Haimberger	0
657	0-20000-0-80425	0	658	1:80425	1	MENE GRANDE			0	-70.93	9.82				1	0	63			Bachaquero																L.Haimberger	0
658	0-20000-0-76393	0	659	76393	1	AEROP.INTERNACIONAL MONTERREY, N.L.			0	-100.23	25.87				1	0	63			Monterrey																L.Haimberger	0
659	0-20000-0-08330	0	660	8330	1	BADAJOZ/TALAVERA LA REAL			0	-6.81	38.88				1	0	63			Badajoz																L.Haimberger	0
660	0-20000-0-47041	0	661	2:43235	1	HAMHEUNG			0	127.55	39.93				1	0	63			Linjiang																L.Haimberger	0
661	0-894-1-mng0032	0	662	1:67441	1	MWINILUNGA			0	24.43	-11.75				1	0	63			Mwinilunga																L.Haimberger	0
662	0-20000-0-59362	0	663	46699	1	HUALIAN			0	121.62	24.02				1	0	63			Puli																L.Haimberger	0
663	0-20000-0-80403	0	664	80403	1	CORO			0	-69.68	11.42				1	0	63			Coro																L.Haimberger	0
664	0-20000-0-96001	0	665	96001	1	SABANG/CUT BAU			0	95.32	5.87				1	0	63			Sabang																L.Haimberger	0
665	0-20000-0-65028	0	666	65028	1	KATSINA			0	7.68	13.02				1	0	63			Katsina																L.Haimberger	0
666	0-20000-0-62375	0	667	C:5984	1	GIZA - AGRIMET			0	31.22	30.05				1	0	63			Madinat Sittah Uktubar																L.Haimberger	0
667	0-20000-0-72212	0	668	72212	1	CROSS CITY/CROSS CITY A., FL.			0	-83.1	29.62				1	0	63			Ocala																L.Haimberger	0
668	0-20000-0-71299	0	669	1:71831	1	KAPUSKASING CDA ON, ONT			0	-82.44	49.41				1	0	63			Timmins																L.Haimberger	0
669	0-20000-0-06451	0	670	1:6448	1	BRUSSELS NATIONAL (AIRPORT)			0	4.53	50.9				1	0	63			Machelen																L.Haimberger	0
670	0-20000-0-78361	0	671	78361	1	JUCARITO, GRANMA			0	-76.9	20.67				1	0	63			Banes																L.Haimberger	0
671	0-20000-0-85577	0	672	1:85579	1	QUINTA NORMAL			0	-70.68	-33.44				1	0	63			Santiago																L.Haimberger	0
672	0-20000-0-72281	0	673	72281	1	EL CENTRO NAF, CA.			0	-115.68	32.82				1	0	63			Imperial																L.Haimberger	0
673	0-20000-0-72793	0	674	24244	1	SEATTLE/S.-TACOMA, WA.			0	-122.3	47.45				1	0	63			Kirkland																L.Haimberger	0
674	0-20000-0-87270	0	675	87270	1	RECONQUISTA AERO			0	-59.69	-29.2				1	0	63			Reconquista																L.Haimberger	0
675	0-20000-0-48351	0	676	48351	1	UTTARADIT			0	100.1	17.62				1	0	63			Uttaradit																L.Haimberger	0
676	0-20000-0-36091	0	677	36091	1	NIZHNEUSINSKOE			0	93.01	52.26				1	0	63			Shagonar																L.Haimberger	0
677	0-20000-0-10954	0	678	1:10953	1	ALTENSTADT			0	10.87	47.83				1	0	63			Kaufbeuren																L.Haimberger	0
678	0-20000-0-61230	0	679	61230	1	NIORO DU SAHEL			0	-9.35	15.23				1	0	63			Nioro																L.Haimberger	0
679	0-20000-0-41140	0	680	1:40572	1	GIZAN (41140-0)			0	42.58	16.88				1	0	63			Jizan																L.Haimberger	0
680	0-20000-0-81202	0	681	81202	1	NICKERIE			0	-57.03	5.95				1	0	63			Nieuw Nickerie																L.Haimberger	0
681	0-20000-0-07535	0	682	7535	1	GOURDON			0	1.4	44.74				1	0	63			Cahors																L.Haimberger	0
682	0-20000-0-76612	0	683	1:76612	1	GUADALAJARA, JAL.			0	-103.39	20.71				1	0	63			Zapopan																L.Haimberger	0
683	0-20000-0-28676	0	684	28679	1	PETROPAVLOVSK (28676-0)			0	69.12	54.79				1	0	63			Petropavl																L.Haimberger	0
684	0-20000-0-74718	0	685	23164	1	SALTON SEA, CA. (AFS)			0	-115.87	33.22				1	0	63			Brawley																L.Haimberger	0
685	0-20000-0-38457	0	686	C:4651	1	TASHKENT			0	69.3	41.33				1	0	63			Tashkent																L.Haimberger	0
686	0-20000-0-63658	0	687	63658	1	SOROTI			0	33.62	1.72				1	0	63			Soroti																L.Haimberger	0
687	0-20000-0-60602	0	688	1:60600	1	BENI-ABBES			0	-2.17	30.13				1	0	63			Adrar																L.Haimberger	0
688	0-20000-0-42056	0	689	42055	1	JAMMU			0	74.83	32.67				1	0	63			Jammu																L.Haimberger	0
689	0-20000-0-48112	0	690	9:1748	1	Kawthaung			0	98.58	9.97				1	0	63			Ranong																L.Haimberger	0
690	0-20000-0-70265	0	691	2:26407	1	FAIRBANKS/EIELSON AFB			0	-147.07	64.65				1	0	63			Fairbanks																L.Haimberger	0
691	0-20000-0-63478	0	692	63478	1	GODE			0	43.58	5.9				1	0	63			Xuddur																L.Haimberger	0
692	0-20000-0-40022	0	693	6:40025	1	LATTAKIA			0	35.77	35.53				1	0	63			Jablah																L.Haimberger	0
693	0-20000-0-12822	0	694	1:12822	1	GYOR			0	17.68	47.72				1	0	63			Gyor																L.Haimberger	0
694	0-20000-0-61698	0	695	61698	1	KOLDA			0	-14.97	12.88				1	0	63			Kolda																L.Haimberger	0
695	0-20000-0-31168	0	696	C:4544	1	AYAN			0	138.15	56.45				1	0	63			Nikolayevsk-Na-Amure																L.Haimberger	0
696	0-20000-0-72662	0	697	2:24006	1	RAPID CITY WFO, SD.			0	-103.21	44.07				1	0	63			Rapid City																L.Haimberger	0
697	0-20000-0-48698	0	698	6:48698	1	SINGAPORE/CHANGI AIRPORT			0	103.98	1.37				1	0	63			Pasir Gudang																L.Haimberger	0
698	0-20000-0-26063	0	699	1:26065	1	ST.PETERSBURG (VOEJKOVO) (26063-0)			0	30.3	59.97				1	0	63			Saint Petersburg																L.Haimberger	0
699	0-20000-0-47981	0	700	1:47981	1	IWOTO			0	141.32	24.78				1	0	63			None																L.Haimberger	0
700	0-20001-0-29634	0	701	C:4577	1	NOVOSIBIRSK (29634-1)			0	82.95	54.97				1	0	63			Krasnoobsk																L.Haimberger	0
701	0-20000-0-41506	0	702	1:41506	1	CHITRAL			0	71.83	35.85				1	0	63			Chitral																L.Haimberger	0
702	0-20000-0-72290	0	703	2:23196	1	SAN DIEGO/LINDBERGH,  CA.			0	-117.17	32.73				1	0	63			Tijuana																L.Haimberger	0
703	0-20000-0-62615	0	704	62615	1	HALIB			0	36.65	22.22				1	0	63			Jiddah																L.Haimberger	0
704	0-20000-0-87637	0	705	1:87637	1	CORONEL SUAREZ AERO			0	-61.89	-37.45				1	0	63			Bahia Blanca																L.Haimberger	0
705	0-20000-0-40439	0	706	40439	1	YENBO			0	38.07	24.13				1	0	63			Umm Lajj																L.Haimberger	0
706	0-20000-0-25123	0	707	C:4562	1	CHERSKIJ			0	161.28	68.75				1	0	63			None																L.Haimberger	0
707	0-20000-0-81251	0	708	81251	1	TIRIOS			0	-55.95	2.22				1	0	63			Lelydorp																L.Haimberger	0
708	0-20000-0-62680	0	709	C:4957	1	ATBARA			0	33.97	17.7				1	0	63			Barbar																L.Haimberger	0
709	0-20000-0-92076	0	710	2:80516	1	KAVIENG W.O.			0	150.82	-2.57				1	0	63			Kavieng																L.Haimberger	0
710	0-20000-0-47771	0	711	1:47771	1	OSAKA INTERNATIONAL AIRPORT			0	135.44	34.78				1	0	63			Ikeda																L.Haimberger	0
711	0-20000-0-89866	0	712	87602	1	MARBLE POINT			0	163.75	-77.44				1	0	63			None																L.Haimberger	0
712	0-20000-0-63478	0	713	2:30405	1	GODE			0	43.58	5.9				1	0	63			Xuddur																L.Haimberger	0
713	0-20000-0-62762	0	714	62762	1	SENNAR			0	33.62	13.55				1	0	63			Sinnar																L.Haimberger	0
714	0-20000-0-94998	0	715	1:93998	1	MACQUARIE ISLAND			0	158.94	-54.5				1	0	63			None																L.Haimberger	0
715	0-20001-0-37055	0	716	1:37050	1	MINERAL'NYE VODY (37055-1)			0	43.1	44.22				1	0	63			Pyatigorsk																L.Haimberger	0
716	0-20000-0-82784	0	717	82784	1	BARBALHA (82784-0)			0	-39.3	-7.32				1	0	63			Barbalha																L.Haimberger	0
717	0-20000-0-31174	0	718	31174	1	BOL'SHOJ SHANTAR			0	137.53	54.83				1	0	63			Nikolayevsk-Na-Amure																L.Haimberger	0
718	0-20001-0-28695	0	719	C:4580	1	OMSK (RS)			0	73.4	54.93				1	0	63			Omsk																L.Haimberger	0
719	0-20000-0-42895	0	720	42895	1	BALASORE			0	86.93	21.52				1	0	63			Baleshwar																L.Haimberger	0
720	0-20000-0-07149	0	721	7149	1	TRAPPES			0	2.01	48.77				1	0	63			Villeneuve-Le-Roi																L.Haimberger	0
721	0-20000-0-86764	0	722	1:83498	1	CARAVELAS (83498-0)			0	-39.25	-17.73				1	0	63			Caravelas																L.Haimberger	0
722	0-20000-0-96581	0	723	96583	1	PONTIANAK/SUPADIO			0	109.4	-0.15				1	0	63			Pontianak																L.Haimberger	0
723	0-20000-0-67641	0	724	67641	1	KAOMA			0	24.8	-14.8				1	0	63			Kaoma																L.Haimberger	0
724	0-20000-0-15090	0	725	1:15090	1	IASI			0	27.63	47.16				1	0	63			Iasi																L.Haimberger	0
725	0-20000-0-30385	0	726	30385	1	UST'-NJUKZHA			0	121.5	56.58				1	0	63			Neryungri																L.Haimberger	0
726	0-20000-0-15247	0	727	1:15247	1	TIMISOARA			0	21.26	45.77				1	0	63			Timisoara																L.Haimberger	0
727	0-20000-0-58265	0	728	1:58265	1	LUSI			0	121.53	32.08				1	0	63			Huilong																L.Haimberger	0
728	0-20000-0-47116	0	729	47111	1	GWANAKSAN			0	126.96	37.45				1	0	63			Seoul																L.Haimberger	0
729	0-20000-0-33837	0	730	33838	1	Odesa			0	30.77	46.44				1	0	63			Odesa																L.Haimberger	0
730	0-20000-0-92076	0	731	80516	1	KAVIENG W.O.			0	150.82	-2.57				1	0	63			Kavieng																L.Haimberger	0
731	0-20000-0-72405	0	732	2:13710	1	WASHINGTON/NAT., VA.			0	-77.03	38.85				1	0	63			Washington																L.Haimberger	0
732	0-20000-0-64156	0	733	64156	1	KALIMA			0	26.55	-2.6				1	0	63			Kindu																L.Haimberger	0
733	0-20000-0-11968	0	734	1:11968	1	KOSICE			0	21.22	48.67				1	0	63			Kosice																L.Haimberger	0
734	0-20000-0-23330	0	735	C:4644	1	SALEHARD			0	66.67	66.53				1	0	63			Salekhard																L.Haimberger	0
735	0-20000-0-47940	0	736	47940	1	NAGO			0	127.97	26.59				1	0	63			Nago																L.Haimberger	0
736	0-20000-0-91163	0	737	2:22526	1	LIHUE, KAUAI, HAWAII			0	-159.35	21.99				1	0	63			Kapaa																L.Haimberger	0
737	0-20000-0-72408	0	738	6:110053	1	PHILADELPHIA/INT., PA.			0	-75.25	39.88				1	0	63			Pennsauken																L.Haimberger	0
738	0-20000-0-27459	0	739	C:4552	1	NIZHNIJ NOVGOROD			0	44.0	56.27				1	0	63			Nizhniy Novgorod																L.Haimberger	0
739	0-20000-0-15080	0	740	1:15080	1	ORADEA			0	21.9	47.04				1	0	63			Oradea																L.Haimberger	0
740	0-20000-0-29122	0	741	29122	1	KARGASOK			0	80.85	59.07				1	0	63			Kolpashevo																L.Haimberger	0
741	0-20000-0-63023	0	742	2:31305	1	MASSAWA			0	39.45	15.62				1	0	63			Ginda																L.Haimberger	0
742	0-20000-0-83361	0	743	83361	1	CUIABA (AERO)			0	-56.1	-15.65				1	0	63			Cuiaba																L.Haimberger	0
743	0-20000-0-29594	0	744	1:29594	1	TAJSHET			0	98.0	55.95				1	0	63			Tayshet																L.Haimberger	0
744	0-20000-0-62318	0	745	C:4942	1	NOUZHA			0	29.95	31.18				1	0	63			Alexandria																L.Haimberger	0
745	0-20000-0-34737	0	746	34737	1	KUSHCHEVSKAJA			0	39.62	46.53				1	0	63			Kushchevskaya																L.Haimberger	0
746	0-20000-0-83063	0	747	1:83063	1	PORTO NACIONAL (AERO)			0	-48.4	-10.7				1	0	63			Porto Nacional																L.Haimberger	0
747	0-20000-0-30815	0	748	30812	1	HAMAR-DABAN			0	103.6	51.53				1	0	63			Slyudyanka																L.Haimberger	0
748	0-20000-0-15150	0	749	1:15150	1	BACAU			0	26.9	46.56				1	0	63			Bacau																L.Haimberger	0
749	0-20000-0-10929	0	750	10929	1	KONSTANZ			0	9.13	47.7				1	0	63			Pascagoula																L.Haimberger	0
750	0-20000-0-07434	0	751	1:7435	1	LIMOGES-BELLEGARDE			0	1.18	45.86				1	0	63			Limoges																L.Haimberger	0
751	0-20000-0-92087	0	752	94087	1	MISIMA W.O.			0	152.83	-10.68				1	0	63			Alotau																L.Haimberger	0
752	0-20000-0-91170	0	753	1:91170	1	WAHIAWA (WHEELER/SCHOFIELD), OAHU,  HAWAII			0	-158.03	21.48				1	0	63			Wahiawa																L.Haimberger	0
753	0-20000-0-07535	0	754	1:7535	1	GOURDON			0	1.4	44.74				1	0	63			Cahors																L.Haimberger	0
754	0-20000-0-35746	0	755	C:4542	1	ARAL TENIZI			0	61.66	46.78				1	0	63			Dzhusaly																L.Haimberger	0
755	0-20000-0-80214	0	756	80214	1	IBAGUE/PERALES			0	-75.15	4.43				1	0	63			Ibague																L.Haimberger	0
756	0-20000-0-71928	0	757	1:72928	1	ROCKY MTN HOUSE (AUT), ALTA			0	-114.91	52.42				1	0	63			Sylvan Lake																L.Haimberger	0
757	0-20000-0-41515	0	758	9:1715	1	DROSH			0	71.78	35.57				1	0	63			Chitral																L.Haimberger	0
758	0-20000-0-94322	0	759	94322	1	PAPUNYA			0	131.92	-23.2				1	0	63			Alice Springs																L.Haimberger	0
759	0-20000-0-07434	0	760	7434	1	LIMOGES-BELLEGARDE			0	1.18	45.86				1	0	63			Limoges																L.Haimberger	0
760	0-20000-0-74504	0	761	2:93222	1	PILAR POINT AFS, CA.			0	-122.5	37.5				1	0	63			Half Moon Bay																L.Haimberger	0
761	0-20000-0-48024	0	762	48024	1	KALEMYO			0	94.07	23.2				1	0	63			Mawlaik																L.Haimberger	0
762	0-20000-0-03153	0	763	3153	1	DUNDRENNAN			0	-4.01	54.8				1	0	63			Lake Forest																L.Haimberger	0
763	0-20000-0-87934	0	764	1:87934	1	RIO GRANDE B.A.			0	-67.76	-53.78				1	0	63			Ushuaia																L.Haimberger	0
764	0-20000-0-28952	0	765	C:4626	1	KOSTANAY			0	63.74	53.24				1	0	63			Qostanay																L.Haimberger	0
765	0-20000-0-72302	0	766	2:13712	1	WILMINGTON, NC.			0	-77.9	34.27				1	0	63			Wilmington																L.Haimberger	0
766	0-20000-0-59158	0	767	46749	1	TAIZHONG			0	120.68	24.15				1	0	63			Taichung																L.Haimberger	0
767	0-20000-0-97300	0	768	97300	1	MAUMERE/WAI OTI			0	122.24	-8.64				1	0	63			Maumere																L.Haimberger	0
768	0-20000-0-78730	0	769	6:78730	1	PUERTO CABEZAS			0	-83.63	14.07				1	0	63			Puerto Cabezas																L.Haimberger	0
769	0-20000-0-40001	0	770	1:40001	1	KAMISHLI			0	41.22	37.05				1	0	63			Nusaybin																L.Haimberger	0
770	0-20000-0-96179	0	771	96179	1	SINGKEP/DABO			0	104.58	-0.48				1	0	63			Simpang																L.Haimberger	0
771	0-20000-0-03136	0	772	3136	1	PRESTWICK, GANNET			0	-4.58	55.52				1	0	63			Pahrump																L.Haimberger	0
772	0-20000-0-23205	0	773	C:4635	1	NAR'JAN-MAR			0	53.02	67.62				1	0	63			Naryan-Mar																L.Haimberger	0
773	0-152-0-85484	0	774	6:85487	1	Freirina Nicolasa			0	-71.01	-28.52				1	0	63			Vallenar																L.Haimberger	0
774	0-20000-0-47642	0	775	2:43313	1	YOKOTA			0	139.35	35.75				1	0	63			Fussa																L.Haimberger	0
775	0-20000-0-10615	0	776	10615	1	DEUSELBACH			0	7.05	49.76				1	0	63			None																L.Haimberger	0
776	0-20000-0-42299	0	777	42299	1	GANGTOK			0	88.62	27.33				1	0	63			Gangtok																L.Haimberger	0
777	0-20000-0-40445	0	778	40445	1	ABU DHABI INTERNATIONAL AIRPORT			0	54.65	24.43				1	0	63			Abu Dhabi																L.Haimberger	0
778	0-20000-0-74545	0	779	6:74545	1	SMOKEY HILL GUNNERY RANGE, KS.			0	-97.8	38.65				1	0	63			Salina																L.Haimberger	0
779	0-20000-0-08202	0	780	8202	1	SALAMANCA/MATACAN			0	-5.5	40.96				1	0	63			Santa Marta De Tormes																L.Haimberger	0
780	0-20000-0-82571	0	781	82571	1	BARRA DO CORDA (82571-0)			0	-45.27	-5.5				1	0	63			Barra Do Corda																L.Haimberger	0
781	0-20000-0-15023	0	782	1:15023	1	SUCEAVA			0	26.24	47.63				1	0	63			Suceava																L.Haimberger	0
782	0-20000-0-30758	0	783	C:4612	1	CHITA			0	113.48	52.08				1	0	63			Chita																L.Haimberger	0
783	0-20000-0-28445	0	784	C:4595	1	EKATERINBURG (VERHNEE DUBROVO)			0	61.07	56.73				1	0	63			Aramil																L.Haimberger	0
784	0-20000-0-54471	0	785	1:54471	1	YINGKOU			0	122.17	40.67				1	0	63			Dashiqiao																L.Haimberger	0
785	0-20000-0-71401	0	786	94115	1	WARFIELD RCS			0	-117.74	49.11				1	0	63			Penticton																L.Haimberger	0
786	0-20000-0-65257	0	787	65257	1	ENUGU			0	7.55	6.47				1	0	63			Enugu																L.Haimberger	0
787	0-20000-0-20674	0	788	C:4641	1	OSTROV DIKSON			0	80.41	73.51				1	0	63			None																L.Haimberger	0
788	0-20000-0-82893	0	789	82893	1	GARANHUNS			0	-36.52	-8.88				1	0	63			Garanhuns																L.Haimberger	0
789	0-276-0-10271	0	790	10271	1	NEURUPPIN-ALT RUPPIN			0	12.85	52.94				1	0	63			None																L.Haimberger	0
790	0-20000-0-43110	0	791	1:43110	1	RATNAGIRI			0	73.33	16.98				1	0	63			Ratnagiri																L.Haimberger	0
791	0-20000-0-63471	0	792	2:30401	1	DIREDAWA			0	41.85	9.6				1	0	63			Dire Dawa																L.Haimberger	0
792	0-20000-0-74413	0	793	74413	1	SAYLOR CREEK GUNNERY RANGE, ID.			0	-115.7	42.53				1	0	63			Mountain Home																L.Haimberger	0
793	0-20000-0-38836	0	794	C:4671	1	DUSHANBE			0	68.73	38.58				1	0	63			Dushanbe																L.Haimberger	0
794	0-20000-0-63021	0	795	31302	1	ASMARA			0	38.92	15.28				1	0	63			Asmara																L.Haimberger	0
795	0-20000-0-64705	0	796	64705	1	BOUSSO			0	16.72	10.48				1	0	63			Bousso																L.Haimberger	0
796	0-20000-0-07061	0	797	7061	1	SAINT-QUENTIN			0	3.21	49.82				1	0	63			Saint-Quentin																L.Haimberger	0
797	0-20000-0-59134	0	798	1:59137	1	XIAMEN			0	118.08	24.48				1	0	63			Xiamen																L.Haimberger	0
798	0-20000-0-72293	0	799	2:93107	1	SAN DIEGO/MIRAMAR,  NAS, CA.			0	-117.12	32.83				1	0	63			Poway																L.Haimberger	0
799	0-20000-0-41978	0	800	1:41941	1	CHITTAGONG (AMBAGAN)			0	91.82	22.35				1	0	63			Patiya																L.Haimberger	0
800	0-20000-0-07471	0	801	7470	1	LE PUY-LOUDES			0	3.76	45.07				1	0	63			Firminy																L.Haimberger	0
801	0-20000-0-28711	0	802	28711	1	BUGUL'MA			0	52.8	54.63				1	0	63			Bugulma																L.Haimberger	0
802	0-20000-0-30692	0	803	C:4647	1	SKOVORODINO			0	123.97	54.0				1	0	63			Skovorodino																L.Haimberger	0
803	0-20000-0-91801	0	804	91801	1	PENRHYN			0	-158.05	-9.03				1	0	63			None																L.Haimberger	0
804	0-20000-0-60748	0	805	60748	1	SIDI BOUZID			0	9.48	35.0				1	0	63			Sidi Bu Zayd																L.Haimberger	0
805	0-20000-0-06484	0	806	1:6480	1	BUZENOL			0	5.59	49.62				1	0	63			Virton																L.Haimberger	0
806	0-20000-0-30230	0	807	C:4620	1	KIRENSK			0	108.07	57.77				1	0	63			Kirensk																L.Haimberger	0
807	0-20000-0-38457	0	808	C:4591	1	TASHKENT			0	69.3	41.33				1	0	63			Tashkent																L.Haimberger	0
808	0-20000-0-80434	0	809	80434	1	VALLE DE LA PASCUA			0	-66.02	9.22				1	0	63			Wewak																L.Haimberger	0
809	0-20000-0-67107	0	810	67107	1	ANTSIRABE			0	47.07	-19.82				1	0	63			Antsirabe																L.Haimberger	0
810	0-20000-0-91631	0	811	80701	1	NANUMEA			0	176.13	-5.67				1	0	63			None																L.Haimberger	0
811	0-20000-0-48855	0	812	1:48856	1	DA NANG			0	108.35	16.07				1	0	63			Da Nang																L.Haimberger	0
812	0-20000-0-15360	0	813	15360	1	SULINA			0	29.73	45.16				1	0	63			Kiliya																L.Haimberger	0
813	0-20000-0-74630	0	814	1:74630	1	STALLION AAF, NM			0	-106.67	33.82				1	0	63			Los Lunas																L.Haimberger	0
814	0-20000-0-67241	0	815	C:4832	1	LUMBO			0	40.67	-15.03				1	0	63			Mocambique																L.Haimberger	0
815	0-20000-0-10860	0	816	10862	1	INGOLSTADT (FLUGPLATZ)			0	11.54	48.71				1	0	63			Abensberg																L.Haimberger	0
816	0-20000-0-32562	0	817	32564	1	BOL' SHERETZK			0	156.3	52.83				1	0	63			Yelizovo																L.Haimberger	0
817	0-20000-0-96109	0	818	1:96109	1	PEKAN BARU/SIMPANGTIGA			0	101.45	0.47				1	0	63			Balaipungut																L.Haimberger	0
818	0-20000-0-91533	0	819	80606	1	BANABA			0	169.53	-0.9				1	0	63			Bairiki																L.Haimberger	0
819	0-20000-0-48992	0	820	48992	1	KOMPONG SPEU			0	104.57	11.47				1	0	63			Phnum Penh																L.Haimberger	0
820	0-20000-0-08202	0	821	1:8202	1	SALAMANCA/MATACAN			0	-5.5	40.96				1	0	63			Santa Marta De Tormes																L.Haimberger	0
821	0-20000-0-37897	0	822	37897	1	SISIAN			0	46.03	39.52				1	0	63			Sisian																L.Haimberger	0
822	0-20000-0-38599	0	823	38599	1	KHUDJANT			0	69.73	40.22				1	0	63			Gafurov																L.Haimberger	0
823	0-20000-0-08330	0	824	1:8330	1	BADAJOZ/TALAVERA LA REAL			0	-6.81	38.88				1	0	63			Badajoz																L.Haimberger	0
824	0-20000-0-41506	0	825	41506	1	CHITRAL			0	71.83	35.85				1	0	63			Chitral																L.Haimberger	0
825	0-20000-0-91176	0	826	91176	1	KANEOHE BAY (MCAS),  OAHU, HAWAII			0	-157.77	21.45				1	0	63			Kaneohe																L.Haimberger	0
826	0-20000-0-72561	0	827	94007	1	SIDNEY/MUN., NE.			0	-102.98	41.1				1	0	63			Sterling																L.Haimberger	0
827	0-20000-0-29605	0	828	29605	1	TATARSK			0	76.02	55.22				1	0	63			Tatarsk																L.Haimberger	0
828	0-20000-0-63674	0	829	1:63674	1	KASESE			0	30.1	0.18				1	0	63			Kasese																L.Haimberger	0
829	0-20000-0-31909	0	830	C:4652	1	TERNEJ			0	136.6	45.0				1	0	63			Dalnegorsk																L.Haimberger	0
830	0-20000-0-67853	0	831	67853	1	HWANGE NATIONAL PARK			0	27.0	-18.63				1	0	63			Hwange																L.Haimberger	0
831	0-20000-0-17200	0	832	1:17200	1	MALATYA/ERHAC			0	38.09	38.43				1	0	63			Malatya																L.Haimberger	0
832	0-20000-0-72258	0	833	2:13907	1	DALLAS, TX, DALLAS LOVE FIELD ARPT			0	-96.85	32.85				1	0	63			Grand Prairie																L.Haimberger	0
833	0-20000-0-12295	0	834	12295	1	BIALYSTOK			0	23.17	53.11				1	0	63			Bialystok																L.Haimberger	0
834	0-20000-0-91369	0	835	91369	1	JALUIT ATOLL, MARSHALL IS.			0	169.65	5.92				1	0	63			Bairiki																L.Haimberger	0
835	0-20000-0-85201	0	836	85203	1	LA PAZ/ALTO			0	-68.18	-16.52				1	0	63			La Paz																L.Haimberger	0
836	0-20000-0-62675	0	837	62675	1	AGIG			0	38.18	18.23				1	0	63			Tawkar																L.Haimberger	0
837	0-20000-0-94857	0	838	1:94856	1	GEELONG RACECOURSE			0	144.38	-38.17				1	0	63			Geelong																L.Haimberger	0
838	0-20000-0-91690	0	839	1:91690	1	LAUTHALA BAY			0	178.45	-18.15				1	0	63			None																L.Haimberger	0
839	0-20000-0-87436	0	840	1:87436	1	SAN LUIS AERO			0	-66.35	-33.27				1	0	63			San Luis																L.Haimberger	0
840	0-20000-0-74370	0	841	2:14715	1	FORT DRUM/WHEELER-SACK AAF, NY			0	-75.73	44.05				1	0	63			Watertown																L.Haimberger	0
841	0-20000-0-76499	0	842	76499	1	SOTO LA MARINA,  TAMPS.			0	-98.21	23.76				1	0	63			Aldama																L.Haimberger	0
842	0-20000-0-47184	0	843	1:47184	1	National Typhoon Center			0	126.68	33.33				1	0	63			Fukue																L.Haimberger	0
843	0-20000-0-87765	0	844	87765	1	BARILOCHE AERO			0	-71.16	-41.15				1	0	63			San Carlos De Bariloche																L.Haimberger	0
844	0-20000-0-42123	0	845	42123	1	GANGANAGAR			0	73.88	29.92				1	0	63			Ganganagar																L.Haimberger	0
845	0-20000-0-91354	0	846	2:40607	1	UJELANG,  CAROLINE IS.			0	160.98	9.77				1	0	63			None																L.Haimberger	0
846	0-20000-0-82280	0	847	1:82280	1	SAO LUIZ (AERO)			0	-44.23	-2.6				1	0	63			Sao Luis																L.Haimberger	0
847	0-20000-0-30710	0	848	30718	1	IRKUTSK (30710-0)			0	104.32	52.27				1	0	63			Shelekhov																L.Haimberger	0
848	0-20000-0-20292	0	849	C:4631	1	GMO IM.E.K. FEDOROVA			0	104.29	77.71				1	0	63			None																L.Haimberger	0
849	0-20000-0-47516	0	850	47516	1	OMINATO AB			0	141.13	41.23				1	0	63			Mutsu																L.Haimberger	0
850	0-20000-0-47688	0	851	47688	1	TATEYAMA AB			0	139.83	34.99				1	0	63			Tateyama																L.Haimberger	0
851	0-20000-0-31168	0	852	C:4606	1	AYAN			0	138.15	56.45				1	0	63			Nikolayevsk-Na-Amure																L.Haimberger	0
852	0-20000-0-63680	0	853	63680	1	KAMPALA			0	32.62	0.32				1	0	63			Kampala																L.Haimberger	0
853	0-20000-0-80410	0	854	1:80410	1	BARQUISIMETO			0	-69.32	10.07				1	0	63			Barquisimeto																L.Haimberger	0
854	0-20000-0-42970	0	855	42970	1	CUTTACK			0	85.93	20.47				1	0	63			Bhuban																L.Haimberger	0
855	0-20000-0-70162	0	856	2:26537	1	UMIAT			0	-152.13	69.37				1	0	63			College																L.Haimberger	0
856	0-20000-0-47580	0	857	44403	1	MISAWA AB			0	141.37	40.71				1	0	63			Misawa																L.Haimberger	0
857	0-20000-0-80438	0	858	80438	1	MERIDA			0	-71.18	8.6				1	0	63			Kimbe																L.Haimberger	0
858	0-20000-0-64708	0	859	64708	1	BOKORO			0	17.05	12.38				1	0	63			Bokoro																L.Haimberger	0
859	0-20000-0-60355	0	860	1:60355	1	SKIKDA			0	6.9	36.88				1	0	63			Constantine																L.Haimberger	0
860	0-20000-0-72408	0	861	6:110052	1	PHILADELPHIA/INT., PA.			0	-75.25	39.88				1	0	63			Ardmore																L.Haimberger	0
861	0-20000-0-74695	0	862	1:74695	1	DARE COUNTY GUNNERY RANGE, NC.			0	-75.9	35.67				1	0	63			Elizabeth City																L.Haimberger	0
862	0-20000-0-58944	0	863	58944	1	PINGTAN			0	119.78	25.52				1	0	63			Rongcheng																L.Haimberger	0
