	primary_id	primary_id_scheme	record_number	secondary_id	secondary_id_scheme	station_name	station_abbreviation	alternative_name	station_crs	longitude	latitude	local_gravity	start_date	end_date	station_type	platform_type	platform_sub_type	operating_institute	operating_territory	city	contact	role	observing_frequency	reporting_time	telecommunication_method	station_automation	measuring_system_model	measuring_system_id	observed_variables	comment	optional_data	bbox_min_longitude	bbox_max_longitude	bbox_min_latitude	bbox_max_latitude	metadata_contact	metadata_contact_role	distance_km	distance_km_minusLat	city_dist_km	file
0	0-20500-0-42028	0	1	2:42028	3	CHUNGKING			0	106.58	28.6		19450718	19450830	1	0	63	NMS	47	Tongzi									[106, 107]							L.Haimberger	0	0.0		56.4	era5.1761.conv.2:42028
1	0-20500-0-26204	0	2	2:26204	3	TROUT LAKE			0	-121.8	60.27		19440401	19450301	1	0	63	NMS	37	Fort Saint John									[106, 107]							L.Haimberger	0	0.0		451.3	era5.1761.conv.2:26204
2	0-20000-0-89564	0	3	9:3282	3	MAWSON			0	62.875277777777775	-67.60166666666666		19560301	19571231	1	0	63	NMS	214	None									[106, 107]							L.Haimberger	0	0.3		None	era5.1761.conv.9:3282
3	0-20000-0-01271	0	4	9:1396	3	TRONDHEIM/VERNES			0	10.935	63.45916666666667		19420117	19420117	1	0	63	NMS	166	Trondheim									[85, 117]							L.Haimberger	0	1.2		26.3	era5.1761.conv.9:1396
4	0-20000-0-88963	0	5	9:2224	3	BASE ESPERANZA			0	-56.99777777777778	-63.39888888888889		19530114	19580617	1	0	63	NMS	71	None									[106, 107]							L.Haimberger	0	0.9		None	era5.1761.conv.9:2224
5	0-20000-0-01271	0	6	9:4175	3	TRONDHEIM/VERNES			0	10.935	63.45916666666667		19401203	19420228	1	0	63	NMS	166	Trondheim									[85, 117]							L.Haimberger	0	1.2		26.3	era5.1761.conv.9:4175
6	0-20000-0-52436	0	7	1:52436	3	YUMENZHEN			0	97.03333333333332	40.266666666666666		19570301	19591231	1	0	63	NMS	47	Yumen									[106, 107]							L.Haimberger	0	12.5		67.7	era5.1761.conv.1:52436
7	0-20500-0-42015	0	8	2:42015	3	LULIANG			0	103.58	25.0		19440720	19451111	1	0	63	NMS	47	Zhongshu									[106, 107]							L.Haimberger	0	0.0		56.8	era5.1761.conv.2:42015
8	0-20000-0-47931	0	9	2:42202	3	KADENA			0	127.76777777777778	26.355555555555558		19521008	19530714	1	0	63	NMS	113	Yomitan									[106, 107]							L.Haimberger	0	3.2		2.2	era5.1761.conv.2:42202
9	0-20000-0-42314	0	10	2:32908	3	DIBRUGARH /MOHANBARI			0	95.01666666666668	27.48333333333333		19440623	19450921	1	0	63	NMS	104	Tinsukia									[106, 107]							L.Haimberger	0	25.4		9.8	era5.1761.conv.2:32908
10	0-20000-0-68263	0	11	1:68262	3	PRETORIA (IRENE)			0	28.210555555555555	-25.910555555555554		19570701	19581221	1	0	63	NMS	246	Pretoria									[85, 117]							L.Haimberger	0	20.2		5.6	era5.1761.conv.1:68262
11	0-20000-0-56651	0	12	2:42009	3	LIJING			0	100.21666666666668	26.83333333333333		19440402	19450728	1	0	63	NMS	47	Dali									[106, 107]							L.Haimberger	0	5.3		130.8	era5.1761.conv.2:42009
12	0-20000-0-98426	0	13	2:41206	3	SUBIC BAY WEATHER STATION			0	120.275	14.808333333333335		19450305	19450630	1	0	63	NMS	176	Castillejos									[106, 107]							L.Haimberger	0	19.6		4.4	era5.1761.conv.2:41206
13	0-20000-0-54342	0	14	2:44201	3	SHENYANG			0	123.51666666666668	41.73333333333333		19460526	19470424	1	0	63	NMS	47	Shenyang									[106, 107]							L.Haimberger	0	13.6		4.5	era5.1761.conv.2:44201
14	0-20000-0-47127	0	15	2:43230	3	CHUNGJU			0	127.95277777777778	36.97027777777778		19510219	19510228	1	0	63	NMS	121	Seoul									[106, 107]							L.Haimberger	0	16.1		124.5	era5.1761.conv.2:43230
15	0-20000-0-84390	0	16	1:84390	3	TALARA			0	-81.25	-4.566666666666666		19490106	19540812	1	0	63	NMS	173	Talara									[106, 107]							L.Haimberger	0	0.4		2.6	era5.1761.conv.1:84390
16	0-20000-0-72797	0	17	2:24252	3	QUILLAYUTE, WA.			0	-124.56027777777777	47.933888888888895		19440511	19450831	1	0	63	NMS	231	Port Angeles									[106, 107]							L.Haimberger	0	2.9		84.2	era5.1761.conv.2:24252
17	0-20500-0-24204	0	18	2:24204	3	MADRAS AAF			0	-121.17	44.67		19440514	19440514	1	0	63	NMS	231	Redmond									[106, 107]							L.Haimberger	0	0.0		44.1	era5.1761.conv.2:24204
18	0-20500-0-10808	0	19	2:10808	3	COCLE DEL NORTE			0	-80.57	9.08		19450408	19450425	1	0	63	NMS	172	Puerto Escondido									[106, 107]							L.Haimberger	0	0.0		54.4	era5.1761.conv.2:10808
19	0-20000-0-48062	0	20	9:1745	3	SITTWE			0	92.88333333333334	20.133333333333333		19460502	19481224	1	0	63	NMS	145	Akyab									[106, 107]							L.Haimberger	0	3.9		3.0	era5.1761.conv.9:1745
20	0-20000-0-81225	0	21	2:10509	3	ZANDERIJ			0	-55.2	5.45		19430622	19440801	1	0	63	NMS	206	Lelydorp									[106, 107]							L.Haimberger	0	2.2		25.7	era5.1761.conv.2:10509
21	0-20000-0-72202	0	22	2:12826	3	MIAMI, FL (72202-0)			0	-80.38333333333334	25.75		19450601	19450914	1	0	63	NMS	231	Leisure City									[106, 107]							L.Haimberger	0	29.9		5.2	era5.1761.conv.2:12826
22	0-20000-0-50745	0	23	1:50745	3	QIQIHAR			0	123.91666666666669	47.38333333333333		19570301	19591231	1	0	63	NMS	47	Qiqihar									[106, 107]							L.Haimberger	0	6.0		3.1	era5.1761.conv.1:50745
23	0-20000-0-72231	0	24	2:93906	3	NEW ORLEANS/MOISANT INT., LA.			0	-90.25	29.98333333333333		19421102	19450731	1	0	63	NMS	231	New Orleans									[106, 107]							L.Haimberger	0	18.1		8.4	era5.1761.conv.2:93906
24	0-20500-0-50404	0	25	2:50405	3	IGARAPE			0	-47.62	-1.07		19440502	19450331	1	0	63	NMS	30	Igarape-Acu									[106, 107]							L.Haimberger	0	0.0		5.2	era5.1761.conv.2:50405
25	0-20500-0-93121	0	26	2:93121	3	TWENTYNINE PALM NAAS			0	-116.05	34.22		19441003	19451026	1	0	63	NMS	231	Twentynine Palms									[106, 107]							L.Haimberger	0	0.0		9.4	era5.1761.conv.2:93121
26	0-20000-0-17351	0	27	2:33307	3	ADANA/BOLGE			0	35.344166666666666	37.00416666666667		19450411	19460117	1	0	63	NMS	223	Adana									[106, 107]							L.Haimberger	0	4.8		3.5	era5.1761.conv.2:33307
27	0-20000-0-47840	0	28	2:43317	3	TSUIKI AB			0	131.04027777777782	33.684999999999995		19510111	19530407	1	0	63	NMS	113	Yukuhashi									[106, 107]							L.Haimberger	0	1.9		8.3	era5.1761.conv.2:43317
28	0-20000-0-04211	0	29	2:17501	3	MITTARFIK UPERNAVIK (UPERNAVIK LUFTHAVN)			0	-56.13333333333333	72.78333333333333		19431201	19431201	1	0	63	NMS	83	None									[106, 107]							L.Haimberger	0	5.8		None	era5.1761.conv.2:17501
29	0-20500-0-20701	0	30	2:20701	3	BAKER ISLAND AAF			0	-176.47	0.22		19431021	19450930	1	0	63	NMS	218	None									[106, 107]							L.Haimberger	0	0.0		None	era5.1761.conv.2:20701
30	0-20000-0-68906	0	31	1:68906	3	GOUGH ISLAND			0	-9.880277777777778	-40.34944444444445		19570701	19581231	1	0	63	NMS	198	None									[85, 117]							L.Haimberger	0	0.1		None	era5.1761.conv.1:68906
31	0-20000-0-91232	0	32	2:41410	3	SAIPAN (CG), MARIANA IS.			0	145.73333333333332	15.116666666666667		19450710	19450729	1	0	63	NMS	148	None									[106, 107]							L.Haimberger	0	19.4		None	era5.1761.conv.2:41410
32	0-20500-0-26632	0	33	2:26632	3	NORTHEAST CAPE			0	-168.93	63.32		19540812	19560823	1	0	63	NMS	231	None									[106, 107]							L.Haimberger	0	0.0		None	era5.1761.conv.2:26632
33	0-20500-0-43011	0	34	2:43011	3	NINGHSIA			0	106.25	35.25		19451101	19451216	1	0	63	NMS	47	Pingliang									[106, 107]							L.Haimberger	0	0.0		51.0	era5.1761.conv.2:43011
34	0-20300-0-22003	0	35	2:22003	3	BRACKETTVILLE (FORT CLARK)			0	-100.4333	29.3		19290624	19301126	1	0	63	NMS	231	Del Rio									[106, 107]							L.Haimberger	0	0.3		45.8	era5.1761.conv.2:22003
35	0-20000-0-41533	0	36	9:4192	3	RISALPUR			0	71.98333333333333	34.06666666666667		19390628	19391217	1	0	63	NMS	177	Risalpur									[38, 85, 117]							L.Haimberger	0	0.5		1.4	era5.1761.conv.9:4192
36	0-20000-2-29842	0	37	9:3864	3	Novokuznetsk			0	87.10166666666666	53.89527777777778		19550102	19561230	1	0	63	NMS	190	Novokuznetsk									[117]							L.Haimberger	0	16.3		8.1	era5.1761.conv.9:3864
37	0-20000-0-56571	0	38	2:42011	3	XICHANG			0	102.26666666666668	27.9		19440806	19441228	1	0	63	NMS	47	Xichang									[106, 107]							L.Haimberger	0	4.0		4.4	era5.1761.conv.2:42011
38	0-20000-0-47937	0	39	2:42210	3	NAHA/ITOKAZU			0	127.76444444444445	26.15333333333333		19451102	19470929	1	0	63	NMS	113	Nishihara									[106, 107]							L.Haimberger	0	5.4		1.8	era5.1761.conv.2:42210
39	0-20000-0-95997	0	40	1:94997	3	HEARD ISLAND (ATLAS COVE)			0	73.3916666666667	-53.018888888888895		19480914	19480914	1	0	63	NMS	95	None									[85, 117]							L.Haimberger	0	0.8		None	era5.1761.conv.1:94997
40	0-20000-0-82193	0	41	1:82191	3	BELEM (AERO)			0	-48.48333333333333	-1.3833333333333333		19431009	19450331	1	0	63	NMS	30	Belem									[85, 117]							L.Haimberger	0	2.6		5.8	era5.1761.conv.1:82191
41	0-20000-0-78397	0	42	2:11707	3	KINGSTON/NORMAN MANLEY			0	-76.78333333333333	17.933333333333334		19430712	19431231	1	0	63	NMS	111	Half Way Tree									[106, 107]							L.Haimberger	0	16.6		23.3	era5.1761.conv.2:11707
42	0-20500-0-12962	0	43	2:12903	3	HONDO WSMO AIRPORT			0	-99.17	29.35		19450315	19450621	1	0	63	NMS	231	Uvalde									[106, 107]							L.Haimberger	0	0.0		61.8	era5.1761.conv.2:12903
43	0-20000-0-01192	0	44	9:4178	3	STRAUMSNES			0	17.66222222222222	68.43194444444445		19400929	19410628	1	0	63	NMS	166	Narvik									[85, 117]							L.Haimberger	0	7.9		4.6	era5.1761.conv.9:4178
44	0-20500-0-41215	0	45	2:41215	3	NACOCO AAF			0	121.83	13.37		19450726	19451111	1	0	63	NMS	176	Victoria									[106, 107]							L.Haimberger	0	0.0		63.5	era5.1761.conv.2:41215
45	0-20000-0-91231	0	46	2:41413	3	TINIAN, MARIANA ISLANDS			0	145.63333333333333	15.0		19441202	19451130	1	0	63	NMS	148	None									[106, 107]							L.Haimberger	0	0.4		None	era5.1761.conv.2:41413
46	0-20001-0-72662	0	47	2:24006	3	RAPID CITY WFO, SD.			0	-103.21027777777779	44.07305555555556		19510220	19510228	1	0	63	NMS	231	Rapid City									[106, 107]							L.Haimberger	0	12.3		13.0	era5.1761.conv.2:24006
47	0-20000-0-41977	0	48	9:1742	3	CHITTAGONG (AMBAGAN)			0	91.81666666666666	22.35		19440111	19481229	1	0	63	NMS	19	Patiya									[106, 107]							L.Haimberger	0	1.4		16.1	era5.1761.conv.9:1742
48	0-20000-0-70026	0	49	2:27504	3	BARROW/W. POST W. ROGERS			0	-156.78333333333333	71.28888888888889		19530901	19530930	1	0	63	NMS	231	None									[106, 107]							L.Haimberger	0	6.6		None	era5.1761.conv.2:27504
49	0-20000-0-72314	0	50	2:13831	3	CHARLOTTE/DOUGLAS, NC.			0	-80.93333333333334	35.21666666666667		19420301	19441030	1	0	63	NMS	231	Charlotte									[106, 107]							L.Haimberger	0	2.4		10.2	era5.1761.conv.2:13831
50	0-20000-0-60360	0	51	2:33034	3	ANNABA			0	7.816666666666666	36.833333333333336		19450701	19450701	1	0	63	NMS	61	Tabarqah									[106, 107]							L.Haimberger	0	1.5		86.5	era5.1761.conv.2:33034
51	0-20000-0-57957	0	52	2:42102	3	GUILIN			0	110.3	25.33333333333333		19440327	19440811	1	0	63	NMS	47	Guilin									[106, 107]							L.Haimberger	0	13.1		12.9	era5.1761.conv.2:42102
52	0-20001-0-53845	0	53	2:43002	3	YAN AN (53845-1)			0	109.45	36.56666666666667		19441123	19460323	1	0	63	NMS	47	Yanan									[106, 107]							L.Haimberger	0	5.2		9.5	era5.1761.conv.2:43002
53	0-20000-0-47777	0	54	1:47777	3	WAKAYAMA			0	135.16416666666666	34.22888888888889		19371111	19410227	1	0	63	NMS	113	Kainan									[106, 107]							L.Haimberger	0	0.6		9.3	era5.1761.conv.1:47777
54	0-20000-0-70162	0	55	2:26506	3	UMIAT			0	-152.13333333333333	69.36666666666666		19450505	19460723	1	0	63	NMS	231	College									[106, 107]							L.Haimberger	0	0.4		536.9	era5.1761.conv.2:26506
55	0-20000-0-71707	0	56	2:14646	3	SYDNEY A, NS			0	-60.048055555555564	46.16666666666666		19550701	19581230	1	0	63	NMS	37	Glace Bay									[106, 107]							L.Haimberger	0	0.4		7.2	era5.1761.conv.2:14646
56	0-20500-0-14791	0	57	2:14791	3	SANFORD			0	-70.75	43.4		19431002	19451015	1	0	63	NMS	231	Sanford									[106, 107]							L.Haimberger	0	0.0		4.8	era5.1761.conv.2:14791
57	0-20000-0-32540	0	58	2:45501	3	PETROPAVLOVSK-KAMCHATSKIJ (32540-0)			0	158.58333333333334	53.08333333333334		19451021	19451214	1	0	63	NMS	190	Petropavlovsk-Kamchatskiy									[106, 107]							L.Haimberger	0	1.0		6.5	era5.1761.conv.2:45501
58	0-20000-0-72288	0	59	2:23150	3	BURBANK, CA			0	-118.3575	34.20055555555556		19440628	19440706	1	0	63	NMS	231	Burbank									[106, 107]							L.Haimberger	0	4.1		1.1	era5.1761.conv.2:23150
59	0-20000-0-43003	0	60	2:31702	3	BOMBAY / SANTACRUZ			0	72.85	19.116666666666667		19441221	19451124	1	0	63	NMS	104	Bombay									[106, 107]							L.Haimberger	0	5.1		12.9	era5.1761.conv.2:31702
60	0-20500-0-11708	0	61	2:11708	3	NAVASSA ISLAND			0	-75.02	18.48		19440326	19440430	1	0	63	NMS	98	Jeremie									[106, 107]							L.Haimberger	0	0.0		100.0	era5.1761.conv.2:11708
61	0-20500-0-24247	0	62	2:24247	3	ARLINGTON NAAS			0	-122.18	48.2		19441001	19441231	1	0	63	NMS	231	North Marysville									[106, 107]							L.Haimberger	0	0.0		11.4	era5.1761.conv.2:24247
62	0-20000-0-54534	0	63	1:54534	3	TANGSHAN			0	118.1	39.65		19570303	19591231	1	0	63	NMS	47	Fengrun									[106, 107]							L.Haimberger	0	2.8		18.1	era5.1761.conv.1:54534
63	0-20500-0-40305	0	64	2:40305	3	PELELIU ISLAND PALAU			0	134.25	7.0		19450317	19470531	1	0	63	NMS	184	Koror									[106, 107]							L.Haimberger	0	0.0		45.0	era5.1761.conv.2:40305
64	0-20000-0-98646	0	65	2:41222	3	MACTAN			0	123.98333333333332	10.316666666666666		19460101	19460331	1	0	63	NMS	176	Lapu-Lapu									[106, 107]							L.Haimberger	0	3.7		1.1	era5.1761.conv.2:41222
65	0-20300-0-14725	0	66	2:14779	3	FT. MONMOUTH			0	-74.05	40.3		19471204	19481031	1	0	63	NMS	231	Eatontown									[85, 106, 107, 117]							L.Haimberger	0	0.0		0.4	era5.1761.conv.2:14779
66	0-20000-0-47735	0	67	1:47675	3	OSHIMA AIRPORT			0	139.36027777777778	34.78194444444444		19420801	19441016	1	0	63	NMS	113	Ito									[106, 107]							L.Haimberger	0	2.2		34.8	era5.1761.conv.1:47675
67	0-20000-0-47660	0	68	2:43307	3	TACHIKAWA AB			0	139.40305555555554	35.71083333333333		19520803	19540526	1	0	63	NMS	113	Tachikawa									[106, 107]							L.Haimberger	0	1.2		1.8	era5.1761.conv.2:43307
68	0-20000-0-16261	0	69	2:34133	3	AMENDOLA			0	15.713888888888887	41.53805555555555		19450401	19450531	1	0	63	NMS	109	Cerignola									[106, 107]							L.Haimberger	0	28.2		6.9	era5.1761.conv.2:34133
69	0-20000-0-74631	0	70	1:74631	3	White Sands Rhodes Canyon			0	-106.48916666666666	33.162777777777784		19551122	19610124	1	0	63	NMS	231	Alamogordo									[85, 117]							L.Haimberger	0	2.1		57.7	era5.1761.conv.1:74631
70	0-20300-0-93204	0	71	2:23241	3	HOLLISTER			0	-121.4	36.8333		19441018	19451011	1	0	63	NMS	231	Hollister									[106, 107]							L.Haimberger	0	5.2		3.1	era5.1761.conv.2:23241
71	0-20000-0-94610	0	72	1:94612	3	PERTH AIRPORT			0	115.97638888888888	-31.9275		19491123	19520627	1	0	63	NMS	13	Perth									[85, 117]							L.Haimberger	0	28.8		34.7	era5.1761.conv.1:94612
72	0-20400-0-5492	0	73	9:3354	3	Abisko			0	18.8	68.26		19300917	19410222	1	0	63	NMS	196	Narvik									[85, 117]							L.Haimberger	0	0.0		59.5	era5.1761.conv.9:3354
73	0-404-300-472781389CO63741	0	74	1:63740	3	DAGORETTI CORNER			0	36.759722222222216	-1.3013888888888892		19570401	19570930	1	0	63	NMS	114	Nairobi									[85, 117]							L.Haimberger	0	8.2		1.5	era5.1761.conv.1:63740
74	0-20300-0-14704	0	75	2:14785	3	FALMOUTH OTIS AFB			0	-70.5167	41.65		19431201	19440930	1	0	63	NMS	231	Falmouth									[106, 107]							L.Haimberger	0	29.1		16.8	era5.1761.conv.2:14785
75	0-20000-0-66285	0	76	1:66285	3	LUENA (LUSO)			0	19.916666666666668	-11.783333333333333		19560102	19591223	1	0	63	NMS	8	Luena									[85, 117]							L.Haimberger	0	0.8		0.8	era5.1761.conv.1:66285
76	0-20000-0-56492	0	77	2:42012	3	YIBIN			0	104.6	28.766666666666666		19440404	19450829	1	0	63	NMS	47	Yibin									[106, 107]							L.Haimberger	0	9.0		13.5	era5.1761.conv.2:42012
77	0-20000-0-47041	0	78	2:43235	3	HAMHEUNG			0	127.55	39.93333333333333		19501113	19501205	1	0	63	NMS	120	Linjiang									[106, 107]							L.Haimberger	0	17.1		231.1	era5.1761.conv.2:43235
78	0-20000-0-07684	0	79	2:34007	3	CANNES			0	6.950555555555557	43.55638888888888		19440819	19440821	1	0	63	NMS	74	Frejus									[106, 107]							L.Haimberger	0	23.0		11.0	era5.1761.conv.2:34007
79	0-20000-0-47930	0	80	2:42206	3	NAHA AIRPORT			0	127.64583333333334	26.19583333333333		19520915	19530212	1	0	63	NMS	113	Tomigusuku									[106, 107]							L.Haimberger	0	0.6		3.0	era5.1761.conv.2:42206
80	0-20500-0-31301	0	81	2:31301	3	GURA			0	39.05	15.03		19430424	19431231	1	0	63	NMS	66	Addi Ugri									[106, 107]							L.Haimberger	0	0.0		29.8	era5.1761.conv.2:31301
81	0-20000-0-78439	0	82	2:11701	3	PORT-AU-PRINCE/AEROPORT INT.			0	-72.3	18.566666666666666		19450301	19451231	1	0	63	NMS	98	Port-Au-Prince									[106, 107]							L.Haimberger	0	5.6		2.0	era5.1761.conv.2:11701
82	0-20500-0-15606	0	83	2:15606	3	INDIAN HOUSE LAKE			0	-64.73	56.23		19440928	19581228	1	0	63	NMS	37	None									[106, 107]							L.Haimberger	0	0.0		None	era5.1761.conv.2:15606
83	0-20000-0-74500	0	84	2:23224	3	SHERIDAN, CA			0	-121.33333333333331	39.0		19480101	19480430	1	0	63	NMS	231	North Auburn									[85, 117]							L.Haimberger	0	23.5		2.3	era5.1761.conv.2:23224
84	0-20000-0-47616	0	85	1:47616	3	FUKUI			0	136.2225	36.05555555555555		19380601	19410625	1	0	63	NMS	113	Maruoka									[106, 107]							L.Haimberger	0	0.9		11.6	era5.1761.conv.1:47616
85	0-20000-0-16168	0	86	2:34127	3	MONTE ARGENTARIO			0	11.169722222222221	42.38694444444445		19440624	19440718	1	0	63	NMS	109	Orbetello									[106, 107]							L.Haimberger	0	9.5		4.9	era5.1761.conv.2:34127
86	0-20300-0-94775	0	87	2:14782	3	POINT JUDITH			0	-71.4833	41.3667		19430804	19470429	1	0	63	NMS	231	Westerly									[106, 107]							L.Haimberger	0	16.1		14.2	era5.1761.conv.2:14782
87	0-20000-0-82400	0	88	2:50310	3	FERNANDO DE NORONHA			0	-32.416666666666664	-3.85		19440601	19440731	1	0	63	NMS	30	Sao Miguel									[106, 107]							L.Haimberger	0	0.4		372.6	era5.1761.conv.2:50310
88	0-20000-0-17064	0	89	2:34201	3	ISTANBUL BOLGE (KARTAL)			0	29.15583333333333	40.91138888888889		19450601	19460228	1	0	63	NMS	223	Istanbul									[106, 107]							L.Haimberger	0	24.9		9.6	era5.1761.conv.2:34201
89	0-20500-0-33201	0	90	2:33201	3	GAMBUT			0	24.6	31.87		19440121	19440222	1	0	63	NMS	135	Tubruq									[106, 107]							L.Haimberger	0	0.0		63.5	era5.1761.conv.2:33201
90	0-20000-0-54511	0	91	2:43104	3	BEIJING			0	116.28333333333332	39.93333333333333		19451101	19460403	1	0	63	NMS	47	Peking									[106, 107]							L.Haimberger	0	11.8		2.9	era5.1761.conv.2:43104
91	0-20500-0-50404	0	92	2:50404	3	IGARAPE			0	-47.62	-1.07		19450516	19450919	1	0	63	NMS	30	Igarape-Acu									[106, 107]							L.Haimberger	0	0.0		5.2	era5.1761.conv.2:50404
92	0-20000-0-40672	0	93	1:40672	3	DIWANIYA			0	44.95	31.95		19490213	19560531	1	0	63	NMS	106	Baghdad									[106, 107]							L.Haimberger	0	4.4		160.4	era5.1761.conv.1:40672
93	0-20000-0-58813	0	94	2:42109	3	GUANGCHANG			0	116.3	26.83333333333333		19450901	19451014	1	0	63	NMS	47	Shaowu									[106, 107]							L.Haimberger	0	8.6		129.0	era5.1761.conv.2:42109
94	0-20300-0-52889	0	95	2:43009	3	LANZHOU			0	103.883	36.05		19451201	19460322	1	0	63	NMS	47	Lanzhou									[106, 107]							L.Haimberger	0	13.2		7.3	era5.1761.conv.2:43009
95	0-20001-0-72202	0	96	2:12848	3	MIAMI, FL (72202-1)			0	-80.38305555555554	25.754444444444445		19440505	19450228	1	0	63	NMS	231	Coral Gables									[106, 107]							L.Haimberger	0	15.6		4.0	era5.1761.conv.2:12848
96	0-20000-0-98637	0	97	2:41214	3	ILOILO			0	122.57944444444445	10.772777777777776		19450605	19450820	1	0	63	NMS	176	Iloilo									[106, 107]							L.Haimberger	0	5.9		2.6	era5.1761.conv.2:41214
97	0-20000-0-74629	0	98	2:23037	3	White Sands Desert Site			0	-106.37027777777777	32.4		19460528	19461025	1	0	63	NMS	231	Alamogordo									[106, 107]							L.Haimberger	0	20.7		58.2	era5.1761.conv.2:23037
98	0-20000-0-07761	0	99	2:34003	3	AJACCIO			0	8.792777777777777	41.91805555555555		19440701	19441019	1	0	63	NMS	74	Ajaccio									[106, 107]							L.Haimberger	0	0.6		5.5	era5.1761.conv.2:34003
99	0-20000-0-41923	0	100	2:32946	3	DHAKA			0	90.38333333333334	23.766666666666666		19450303	19451223	1	0	63	NMS	19	Dhaka									[106, 107]							L.Haimberger	0	1.5		6.9	era5.1761.conv.2:32946
100	0-20000-0-47933	0	101	2:42205	3	FUTENMA			0	127.75638888888888	26.27444444444445		19450331	19450531	1	0	63	NMS	113	Urasoe									[106, 107]							L.Haimberger	0	10.0		9.0	era5.1761.conv.2:42205
101	0-246-0-101794	0	102	9:4169	3	OULU VIHREASAARI HARBOUR			0	25.39333333333333	65.00638888888889		19440914	19441124	1	0	63	NMS	69	Oulu									[85, 117]							L.Haimberger	0	4.9		5.3	era5.1761.conv.9:4169
102	0-20000-0-70296	0	103	2:26402	3	CORDOVA/MILE 13			0	-145.5	60.5		19420723	19421215	1	0	63	NMS	231	Anchorage									[106, 107]							L.Haimberger	0	18.9		259.3	era5.1761.conv.2:26402
103	0-20001-0-52866	0	104	1:52866	3	XINING (52866-1)			0	101.71666666666668	36.65		19570302	19591231	1	0	63	NMS	47	Xining									[106, 107]							L.Haimberger	0	19.8		14.3	era5.1761.conv.1:52866
104	0-20000-0-74389	0	105	2:14784	3	GRAY, ME.			0	-70.25722222222223	43.8925		19430903	19450814	1	0	63	NMS	231	Auburn									[106, 107]							L.Haimberger	0	17.5		5.5	era5.1761.conv.2:14784
105	0-20000-0-42708	0	106	2:32802	3	SHANTI NIKETAN			0	87.7	23.65		19441023	19441030	1	0	63	NMS	104	Guskhara									[106, 107]							L.Haimberger	0	21.5		4.5	era5.1761.conv.2:32802
106	0-20000-0-72521	0	107	2:14896	3	AKRON/AKRON-CANTON REG. OH.			0	-81.43333333333334	40.91666666666666		19480609	19510829	1	0	63	NMS	231	Akron									[106, 107]							L.Haimberger	0	13.2		6.6	era5.1761.conv.2:14896
107	0-20000-0-57426	0	108	2:43005	3	LIANGPING			0	107.8	30.68333333333333		19450301	19451020	1	0	63	NMS	47	Wanxian									[106, 107]							L.Haimberger	0	11.8		59.1	era5.1761.conv.2:43005
108	0-20000-0-57245	0	109	2:43013	3	ANKANG			0	109.03333333333332	32.71666666666667		19450502	19450814	1	0	63	NMS	47	Ankang									[106, 107]							L.Haimberger	0	25.4		24.5	era5.1761.conv.2:43013
109	0-20001-0-56187	0	110	9:1441	3	WENJIANG (56187-1)			0	103.86666666666666	30.75		19570301	19591229	1	0	63	NMS	47	Chengdu									[106, 107]							L.Haimberger	0	21.4		0.5	era5.1761.conv.9:1441
110	0-20000-0-87938	0	111	1:87938	3	USHUAIA AERO			0	-68.30333333333333	-54.84		19570901	19580509	1	0	63	NMS	10	Ushuaia									[85, 117]							L.Haimberger	0	4.5		0.6	era5.1761.conv.1:87938
111	0-20000-0-98232	0	112	2:41217	3	APARRI			0	121.63333333333334	18.366666666666667		19450804	19450916	1	0	63	NMS	176	Claveria									[106, 107]							L.Haimberger	0	12.5		51.5	era5.1761.conv.2:41217
112	0-20500-0-12823	0	113	2:12823	3	MONTBROOK AAF			0	-82.47	29.35		19440123	19440310	1	0	63	NMS	231	Gainesville									[106, 107]							L.Haimberger	0	0.0		36.2	era5.1761.conv.2:12823
113	0-20000-0-26063	0	114	9:3836	3	ST.PETERSBURG (VOEJKOVO) (26063-0)			0	30.3	59.96666666666667		19540103	19561231	1	0	63	NMS	190	Saint Petersburg									[85, 117]							L.Haimberger	0	4.1		4.7	era5.1761.conv.9:3836
114	0-20000-0-72242	0	115	2:12929	3	GALVESTON, TX.			0	-94.8	29.3		19430706	19431031	1	0	63	NMS	231	Santa Fe									[106, 107]							L.Haimberger	0	26.8		4.6	era5.1761.conv.2:12929
115	0-20300-0-13937	0	116	2:13937	3	DE RIDDER (AFB)			0	-93.3667	30.8333		19421213	19450322	1	0	63	NMS	231	Sulphur									[106, 107]							L.Haimberger	0	0.5		65.8	era5.1761.conv.2:13937
116	0-20000-0-92035	0	117	9:4129	3	PORT MORESBY W.O.			0	147.21666666666667	-9.383333333333333		19440305	19771001	1	0	63	NMS	175	Port Moresby									[85, 117]							L.Haimberger	0	5.2		4.3	era5.1761.conv.9:4129
117	0-20000-0-70308	0	118	2:25705	3	ST. PAUL ISLANDS, AK			0	-170.21666666666667	57.15		19440404	19451014	1	0	63	NMS	231	None									[106, 107]							L.Haimberger	0	3.9		None	era5.1761.conv.2:25705
118	0-20000-0-59431	0	119	2:42007	3	NANNING			0	108.55	22.78333333333333		19440629	19450908	1	0	63	NMS	47	Nanning									[106, 107]							L.Haimberger	0	25.7		2.5	era5.1761.conv.2:42007
119	0-20500-0-32926	0	120	2:32926	3	WARAZUP			0	96.65	25.8		19450218	19450614	1	0	63	NMS	145	Myitkyina									[106, 107]							L.Haimberger	0	0.0		88.4	era5.1761.conv.2:32926
120	0-20300-0-20357	0	121	9:3778	3	RUSSKAJA GAVAN			0	62.5667	76.1833		19530219	19541231	1	0	63	NMS	190	None									[117]							L.Haimberger	0	26.5		None	era5.1761.conv.9:3778
121	0-20000-0-42415	0	122	1:42415	3	TEZPUR			0	92.78333333333332	26.61666666666667		19560606	19600808	1	0	63	NMS	104	Tezpur									[106, 107]							L.Haimberger	0	0.5		2.5	era5.1761.conv.1:42415
122	0-20300-0-72257	0	123	2:13955	3	FT HOOD AAF/KILLEEN			0	-97.71700000000001	31.1		19460714	19520408	1	0	63	NMS	231	Killeen									[106, 107]							L.Haimberger	0	3.3		1.6	era5.1761.conv.2:13955
123	0-20000-0-72251	0	124	2:12946	3	CORPUS CHRISTI/INT., TX.			0	-97.50555555555556	27.77888888888889		19521029	19521128	1	0	63	NMS	231	Corpus Christi									[106, 107]							L.Haimberger	0	12.3		14.3	era5.1761.conv.2:12946
124	0-20000-0-68588	0	125	1:68588	3	DURBAN INTNL. AIRPORT			0	30.926388888888887	-30.013333333333332		19570918	19581220	1	0	63	NMS	246	Durban									[85, 117]							L.Haimberger	0	6.3		13.7	era5.1761.conv.1:68588
125	0-20001-0-57816	0	126	2:42029	3	GUIYANG (57816-1)			0	106.65	26.48333333333333		19450819	19450831	1	0	63	NMS	47	Guiyang									[106, 107]							L.Haimberger	0	5.5		7.5	era5.1761.conv.2:42029
126	0-20300-0-13838	0	127	2:13838	3	MOBILE (BROOKLEY AFB)			0	-88.0667	30.6333		19430106	19450131	1	0	63	NMS	231	Daphne									[106, 107]							L.Haimberger	0	13.2		3.1	era5.1761.conv.2:13838
127	0-20500-0-14801	0	128	2:14801	3	BATTLE CK KLG FD ANG			0	-85.25	42.3		19430617	19450124	1	0	63	NMS	231	Battle Creek									[106, 107]							L.Haimberger	0	0.0		6.3	era5.1761.conv.2:14801
128	0-20000-0-71822	0	129	2:4732	3	CHIBOUGAMAU-CHAPAIS A, QUE			0	-74.53333333333333	49.76666666666666		19550701	19581230	1	0	63	NMS	37	Dolbeau									[106, 107]							L.Haimberger	0	10.8		191.6	era5.1761.conv.2:4732
129	0-20000-0-10015	0	130	9:1393	3	HELGOLAND			0	7.8919444444444435	54.175		19400126	19420327	1	0	63	NMS	56	Cuxhaven									[85, 117]							L.Haimberger	0	0.8		62.0	era5.1761.conv.9:1393
130	0-20500-0-13735	0	131	2:13709	3	MILLVILLE MUNI AP			0	-75.07	39.37		19440111	19450926	1	0	63	NMS	231	Millville									[106, 107]							L.Haimberger	0	0.0		4.4	era5.1761.conv.2:13709
131	0-20000-0-41640	0	132	9:4195	3	LAHORE CITY			0	74.33333333333333	31.55		19390508	19400627	1	0	63	NMS	177	Lahore									[38, 85, 117]							L.Haimberger	0	7.2		6.3	era5.1761.conv.9:4195
132	0-20000-0-43555	0	133	9:1884	3	MALE			0	73.52916666666667	4.191666666666666		19540721	19560105	1	0	63	NMS	154	Male									[106, 107]							L.Haimberger	0	4.0		0.4	era5.1761.conv.9:1884
133	0-20500-0-42004	0	134	2:42004	3	YANGKAI			0	103.08	25.5		19440329	19451031	1	0	63	NMS	47	Kunming									[106, 107]							L.Haimberger	0	0.0		62.7	era5.1761.conv.2:42004
134	0-20000-0-74787	0	135	2:12846	3	DAYTONA BEACH, FL, DAYTONA BEACH INT. ARPT			0	-81.06	29.176944444444448		19431101	19460410	1	0	63	NMS	231	Daytona Beach									[106, 107]							L.Haimberger	0	1.0		5.7	era5.1761.conv.2:12846
135	0-20000-0-72310	0	136	9:200	3	COLUMBIA, SC.			0	-81.11666666666666	33.95		19181101	19181231	1	0	63	NMS	231	Forest Acres									[106, 107]							L.Haimberger	0	14.6		2.8	era5.1761.conv.9:200
136	0-20300-0-14723	0	137	2:14794	3	FISHERS ISLAND FORT H G WRIGHT			0	-72.0167	41.2667		19431001	19440930	1	0	63	NMS	231	Westerly									[106, 107]							L.Haimberger	0	20.4		3.8	era5.1761.conv.2:14794
137	0-20000-0-91801	0	138	9:2230	3	PENRHYN			0	-158.05	-9.033333333333333		19530720	19580228	1	0	63	NMS	174	None									[106, 107]							L.Haimberger	0	2.6		None	era5.1761.conv.9:2230
138	0-504-1-60291	0	139	2:12102	3	Tarfaya			0	-12.931111111111115	27.93833333333333		19450829	19451010	1	0	63	NMS	136	Puerto Del Rosario									[106, 107]							L.Haimberger	0	6.8		105.7	era5.1761.conv.2:12102
139	0-20300-0-12863	0	140	2:12807	3	BURRWOOD			0	-89.3667	28.9833		19420803	19440201	1	0	63	NMS	231	Estelle									[106, 107]							L.Haimberger	0	3.7		122.3	era5.1761.conv.2:12807
140	0-20000-0-07765	0	141	2:34013	3	SOLENZARA			0	9.397222222222222	41.92388888888889		19441217	19450406	1	0	63	NMS	74	Porto-Vecchio									[106, 107]							L.Haimberger	0	8.5		46.7	era5.1761.conv.2:34013
141	0-20000-0-83746	0	142	1:83743	3	GALEAO			0	-43.25	-22.816666666666666		19390601	19460830	1	0	63	NMS	30	Niteroi									[106, 107]							L.Haimberger	0	12.4		4.1	era5.1761.conv.1:83743
142	0-20000-0-74492	0	143	2:14790	3	BLUE HILL OBS. MA.			0	-71.11666666666666	42.21666666666667		19420601	19451128	1	0	63	NMS	231	Rockland									[106, 107]							L.Haimberger	0	17.1		2.4	era5.1761.conv.2:14790
143	0-20000-0-91831	0	144	9:2231	3	AITUTAKI AWS			0	-159.76666666666668	-18.83333333333333		19530101	19580228	1	0	63	NMS	44	Avarua									[106, 107]							L.Haimberger	0	1.9		261.0	era5.1761.conv.9:2231
144	0-20000-0-07648	0	145	2:34023	3	SALON DE PROVENCE			0	5.104166666666666	43.603611111111114		19440829	19440905	1	0	63	NMS	74	Salon-De-Provence									[106, 107]							L.Haimberger	0	3.0		1.2	era5.1761.conv.2:34023
145	0-20000-0-98326	0	146	2:41210	3	BASA AB			0	120.48333333333332	14.983333333333333		19450710	19470227	1	0	63	NMS	176	Pio									[106, 107]							L.Haimberger	0	0.5		8.4	era5.1761.conv.2:41210
146	0-20500-0-42104	0	147	2:42104	3	SUICHWAN			0	114.5	26.42		19440405	19440621	1	0	63	NMS	47	Ganzhou									[106, 107]							L.Haimberger	0	0.0		76.6	era5.1761.conv.2:42104
147	0-20000-0-59287	0	148	9:3020	3	GUANGZHOU			0	113.48333333333332	23.216666666666665		19451103	19460312	1	0	63	NMS	47	Guangzhou									[106, 107]							L.Haimberger	0	18.4		8.3	era5.1761.conv.9:3020
148	0-20000-0-91487	0	149	2:20502	3	FANNING ISLAND (91487-0)			0	-159.36666666666667	3.85		19430425	19450612	1	0	63	NMS	117	None									[106, 107]							L.Haimberger	0	6.7		None	era5.1761.conv.2:20502
149	0-20000-0-72289	0	150	9:154	3	MOUNT WILSON, CA.			0	-118.06666666666666	34.23333333333333		19181104	19211001	1	0	63	NMS	231	Arcadia									[106, 107]							L.Haimberger	0	12.0		1.2	era5.1761.conv.9:154
150	0-20000-0-61986	0	151	1:61986	3	ST. BRANDON (RAPHAEL ISLAND)			0	59.61666666666667	-16.45		19530417	19561231	1	0	63	NMS	153	Goodlands									[106, 107]							L.Haimberger	0	7.1		445.1	era5.1761.conv.1:61986
151	0-620-2001-08515	0	152	2:13203	3	SANTA MARIA (ACORES)			0	-25.17277777777777	36.97305555555555		19441109	19460909	1	0	63	NMS	183	Ponta Delgada									[106, 107]							L.Haimberger	0	0.4		95.5	era5.1761.conv.2:13203
152	0-20000-0-72712	0	153	2:14623	3	CARIBOU/MUN., ME.			0	-68.01361111111112	46.86833333333333		19510220	19520326	1	0	63	NMS	231	Edmundston									[106, 107]							L.Haimberger	0	13.6		57.7	era5.1761.conv.2:14623
153	0-20500-0-24202	0	154	2:24248	3	CORVALLIS			0	-123.28	44.5		19440525	19441128	1	0	63	NMS	231	Corvallis									[106, 107]							L.Haimberger	0	0.0		7.4	era5.1761.conv.2:24248
154	0-20500-0-13906	0	155	2:13906	3	COFFEYVILLE AAF			0	-95.58	37.1		19440701	19450615	1	0	63	NMS	231	Coffeyville									[106, 107]							L.Haimberger	0	0.0		7.7	era5.1761.conv.2:13906
155	0-20000-0-47407	0	156	1:47407	3	ASAHIKAWA			0	142.37222222222226	43.756944444444436		19220712	19410721	1	0	63	NMS	113	Asahikawa									[106, 107]							L.Haimberger	0	1.5		0.2	era5.1761.conv.1:47407
156	0-20500-0-11616	0	157	2:11616	3	CULEBRA NF			0	-65.28	18.32		19360120	19400221	1	0	63	NMS	181	Fajardo									[106, 107]							L.Haimberger	0	0.0		39.4	era5.1761.conv.2:11616
157	0-20500-0-80426	0	158	2:80426	3	ARAWE AAF			0	149.03	-6.13		19440107	19440921	1	0	63	NMS	175	Kimbe									[106, 107]							L.Haimberger	0	1.1		140.6	era5.1761.conv.2:80426
158	0-20000-0-94996	0	159	9:1493	3	NORFOLK ISLAND AERO			0	167.94083333333333	-29.038888888888888		19490102	19551222	1	0	63	NMS	162	None									[106, 107]							L.Haimberger	0	1.6		None	era5.1761.conv.9:1493
159	0-20000-0-84200	0	160	9:4103	3	SALINAS AEROPUERTO			0	-80.98583333333333	-2.2077777777777783		19431113	19440713	1	0	63	NMS	62	Salinas									[85, 117]							L.Haimberger	0	1.8		4.1	era5.1761.conv.9:4103
160	0-20300-0-03995	0	161	9:1403	3	ULANHOT			0	122.05	46.22		19570301	19591230	1	0	63	NMS	47	Wulanhaote									[106, 107]							L.Haimberger	0	0.0		15.4	era5.1761.conv.9:1403
161	0-20000-0-70218	0	162	2:26605	3	NUNIVAK			0	-166.0	60.0		19431012	19450831	1	0	63	NMS	231	None									[106, 107]							L.Haimberger	0	23.0		None	era5.1761.conv.2:26605
162	0-20300-0-11611	0	163	2:11611	3	MAYAGUEZ			0	-67.1333	18.25		19421206	19430415	1	0	63	NMS	181	San Sebastian									[106, 107]							L.Haimberger	0	0.3		16.1	era5.1761.conv.2:11611
163	0-20001-0-04270	0	164	2:16413	3	MITTARFIK NARSARSUAQ (4270-1)			0	-45.41666666666666	61.16666666666666		19420701	19420830	1	0	63	NMS	83	None									[106, 107]							L.Haimberger	0	13.6		None	era5.1761.conv.2:16413
164	0-20000-0-41856	0	165	9:3368	3	RAJARHAT, KURIGRAM			0	89.545	25.798333333333336		19440419	19460414	1	0	63	NMS	19	Lalmanir Hat									[85, 117]							L.Haimberger	0	14.7		3.0	era5.1761.conv.9:3368
165	0-20500-0-24253	0	166	2:24253	3	SHELTON NAAS			0	-123.13	47.25		19440301	19450912	1	0	63	NMS	231	Olympia									[106, 107]							L.Haimberger	0	0.0		29.3	era5.1761.conv.2:24253
166	0-20000-0-74619	0	167	2:3126	3	SUPERIOR VALLEY GUNNERY RANGE, CA			0	-117.1	36.333333333333336		19550208	19550331	1	0	63	NMS	231	Pahrump									[106, 107]							L.Haimberger	0	24.9		85.6	era5.1761.conv.2:3126
167	0-20000-0-42803	0	168	2:32807	3	MIDNAPORE			0	87.31666666666666	22.41666666666667		19450909	19451209	1	0	63	NMS	104	Jhargram									[106, 107]							L.Haimberger	0	22.4		19.4	era5.1761.conv.2:32807
168	0-20500-0-24036	0	169	2:24010	3	LEWISTOWN FCWOS			0	-109.45	47.05		19440505	19441129	1	0	63	NMS	231	Great Falls									[106, 107]							L.Haimberger	0	0.0		148.7	era5.1761.conv.2:24010
169	0-20500-0-32939	0	170	2:32939	3	BAHE			0	96.57	23.38		19450212	19450331	1	0	63	NMS	145	Mogok									[106, 107]							L.Haimberger	0	0.0		51.8	era5.1761.conv.2:32939
170	0-20500-0-25708	0	171	2:25708	3	ATKA ISLAND			0	-174.2	52.22		19440706	19451007	1	0	63	NMS	231	None									[106, 107]							L.Haimberger	0	0.0		None	era5.1761.conv.2:25708
171	0-20000-0-38001	0	172	1:38001	3	FORT SHEVCHENKO			0	50.243055555555564	44.548055555555564		19530219	19531230	1	0	63	NMS	124	Aktau									[85, 117]							L.Haimberger	0	0.6		125.6	era5.1761.conv.1:38001
172	0-20000-0-71912	0	173	2:15903	3	GILLAM A, MAN			0	-94.70416666666668	56.35888888888889		19430912	19450714	1	0	63	NMS	37	Thompson									[106, 107]							L.Haimberger	0	1.0		208.3	era5.1761.conv.2:15903
173	0-20000-0-48112	0	174	9:1748	3	Kawthaung			0	98.58333333333331	9.966666666666667		19470428	19551026	1	0	63	NMS	216	Ranong									[106, 107]							L.Haimberger	0	1.5		6.2	era5.1761.conv.9:1748
174	0-20000-0-58238	0	175	2:43102	3	NANJING			0	118.9	31.93333333333333		19450908	19451220	1	0	63	NMS	47	Nanjing									[106, 107]							L.Haimberger	0	21.6		3.3	era5.1761.conv.2:43102
175	0-20000-0-54511	0	176	2:44101	3	BEIJING			0	116.28333333333332	39.93333333333333		19470101	19470328	1	0	63	NMS	47	Peking									[106, 107]							L.Haimberger	0	19.9		12.4	era5.1761.conv.2:44101
176	0-20000-0-41564	0	177	9:4191	3	KOHAT			0	71.43333333333334	33.56666666666667		19390125	19400628	1	0	63	NMS	177	Kohat									[38, 85, 117]							L.Haimberger	0	4.0		2.0	era5.1761.conv.9:4191
177	0-20000-0-10224	0	178	2:35001	3	BREMEN			0	8.797777777777778	53.045		19451108	19480220	1	0	63	NMS	56	Bremen									[106, 107]							L.Haimberger	0	0.6		3.7	era5.1761.conv.2:35001
178	0-20000-0-83971	0	179	1:83967	3	PORTO ALEGRE (AERO)			0	-51.18333333333333	-30.0		19500605	19541222	1	0	63	NMS	30	Cachoeirinha									[85, 117]							L.Haimberger	0	13.7		5.8	era5.1761.conv.1:83967
179	0-20000-0-16270	0	180	2:34109	3	BARI/PALESE			0	16.765	41.138055555555546		19440423	19450331	1	0	63	NMS	109	Modugno									[106, 107]							L.Haimberger	0	1.5		5.2	era5.1761.conv.2:34109
180	0-20000-0-96581	0	181	9:2244	3	PONTIANAK/SUPADIO			0	109.4	-0.15		19540704	19581228	1	0	63	NMS	100	Pontianak									[106, 107]							L.Haimberger	0	18.3		3.7	era5.1761.conv.9:2244
181	0-20000-0-72315	0	182	2:13842	3	ASHEVILLE/MUN., NC.			0	-82.55	35.43333333333333		19440310	19450131	1	0	63	NMS	231	Hendersonville									[106, 107]							L.Haimberger	0	7.3		12.4	era5.1761.conv.2:13842
182	0-20500-0-33703	0	183	9:4194	3	PESHAWAR			0	71.58	34.02		19390304	19400507	1	0	63	NMS	177	Peshawar									[38, 85, 117]							L.Haimberger	0	6.0		5.5	era5.1761.conv.9:4194
183	0-20000-0-43295	0	184	9:3366	3	BANGALORE			0	77.58333333333333	12.966666666666667		19440414	19460302	1	0	63	NMS	104	Bangalore									[85, 117]							L.Haimberger	0	0.5		1.5	era5.1761.conv.9:3366
184	0-20000-0-84200	0	185	9:1311	3	SALINAS AEROPUERTO			0	-80.98583333333333	-2.2077777777777783		19420726	19460130	1	0	63	NMS	62	Salinas									[106, 107]							L.Haimberger	0	3.9		6.2	era5.1761.conv.9:1311
185	0-20000-0-54401	0	186	1:54401	3	ZHANGJIAKOU			0	114.88333333333334	40.78333333333333		19570301	19591231	1	0	63	NMS	47	Zhangjiakou									[106, 107]							L.Haimberger	0	25.6		25.5	era5.1761.conv.1:54401
186	0-20000-0-54423	0	187	1:54423	3	CHENGDE			0	117.91666666666669	40.96666666666667		19570304	19591231	1	0	63	NMS	47	Chengde									[106, 107]							L.Haimberger	0	7.3		36.2	era5.1761.conv.1:54423
187	0-20000-0-50353	0	188	1:50353	3	HUMA			0	126.63333333333334	51.73333333333333		19570301	19591231	1	0	63	NMS	47	Shimanovsk									[106, 107]							L.Haimberger	0	8.0		85.5	era5.1761.conv.1:50353
188	0-20300-0-50873	0	189	9:1404	3	CHIAMUSSU			0	130.333	46.817		19570301	19591105	1	0	63	NMS	47	Jiamusi									[106, 107]							L.Haimberger	0	0.4		2.1	era5.1761.conv.9:1404
189	0-20000-0-91165	0	190	2:22526	3	LIHUE, KAUAI, HAWAII			0	-159.34666666666666	21.993333333333336		19491108	19500105	1	0	63	NMS	231	Kapaa									[106, 107]							L.Haimberger	0	28.1		34.8	era5.1761.conv.2:22526
190	0-20000-0-78807	0	191	2:10716	3	COROZAL OESTE			0	-79.56666666666666	8.966666666666667		19541130	19561018	1	0	63	NMS	172	Panama									[106, 107]							L.Haimberger	0	4.1		5.7	era5.1761.conv.2:10716
191	0-20000-0-47430	0	192	1:47430	3	HAKODATE			0	140.75416666666666	41.81666666666667		19380607	19440930	1	0	63	NMS	113	Hakodate									[106, 107]							L.Haimberger	0	0.5		5.0	era5.1761.conv.1:47430
192	0-20500-0-16601	0	193	2:16601	3	LAKE HARBOUR			0	-69.9	62.83		19440126	19450330	1	0	63	NMS	37	None									[106, 107]							L.Haimberger	0	0.0		None	era5.1761.conv.2:16601
193	0-20000-0-62318	0	194	2:33203	3	NOUZHA			0	29.946388888888887	31.18166666666667		19440904	19450329	1	0	63	NMS	64	Alexandria									[106, 107]							L.Haimberger	0	6.6		3.7	era5.1761.conv.2:33203
194	0-20000-0-74570	0	195	2:13813	3	DAYTON/WRIGHT-PATTERSON AFB, OH.			0	-84.05	39.833333333333336		19440619	19441018	1	0	63	NMS	231	Riverside									[106, 107]							L.Haimberger	0	5.7		3.1	era5.1761.conv.2:13813
195	0-20000-0-95767	0	196	9:1496	3	LAKE MACQUARIE AWS			0	151.46361111111108	-33.08861111111111		19490205	19530329	1	0	63	NMS	13	Newcastle									[106, 107]							L.Haimberger	0	13.4		21.9	era5.1761.conv.9:1496
196	0-20300-0-14723	0	197	2:14723	3	FISHERS ISLAND FORT H G WRIGHT			0	-72.0167	41.2667		19440906	19450711	1	0	63	NMS	231	Groton									[106, 107]							L.Haimberger	0	0.5		10.2	era5.1761.conv.2:14723
197	0-20000-0-02611	0	198	9:4183	3	HELSINGBORG			0	12.765277777777778	56.030555555555544		19280112	19280914	1	0	63	NMS	196	Eslov									[85, 117]							L.Haimberger	0	28.7		27.3	era5.1761.conv.9:4183
198	0-20000-0-47807	0	199	9:1181	3	FUKUOKA			0	130.37638888888893	33.582222222222235		19400601	19440924	1	0	63	NMS	113	Shingu									[106, 107]							L.Haimberger	0	11.1		5.1	era5.1761.conv.9:1181
199	0-20000-0-42314	0	200	9:1744	3	DIBRUGARH /MOHANBARI			0	95.01666666666668	27.48333333333333		19480604	19481231	1	0	63	NMS	104	Dibrugarh									[106, 107]							L.Haimberger	0	9.7		2.1	era5.1761.conv.9:1744
200	0-20000-0-42809	0	201	9:3369	3	KOLKATA/DUM DUM			0	88.45	22.65		19440624	19460724	1	0	63	NMS	104	Barakpur									[85, 117]							L.Haimberger	0	15.6		1.0	era5.1761.conv.9:3369
201	0-20000-0-42809	0	202	9:4197	3	KOLKATA/DUM DUM			0	88.45	22.65		19410430	19410516	1	0	63	NMS	104	Calcutta									[38, 85, 117]							L.Haimberger	0	12.1		0.0	era5.1761.conv.9:4197
202	0-20500-0-13950	0	203	2:13950	3	BROWNWOOD AAF			0	-98.95	31.78		19440901	19520409	1	0	63	NMS	231	Brownwood									[106, 107]							L.Haimberger	0	0.0		8.8	era5.1761.conv.2:13950
203	0-20500-0-3108	0	204	2:23126	3	TEJON AIRPORT			0	-118.75	35.03		19420201	19450120	1	0	63	NMS	231	Arvin									[106, 107]							L.Haimberger	0	11.0		15.3	era5.1761.conv.2:23126
204	0-20000-0-47679	0	205	2:43304	3	ATSUGI NAS			0	139.45	35.454722222222216		19450906	19460828	1	0	63	NMS	113	Ayase									[106, 107]							L.Haimberger	0	2.7		5.7	era5.1761.conv.2:43304
205	0-20000-0-60135	0	206	2:13009	3	RABAT-SALE			0	-6.758055555555557	34.04611111111111		19430114	19430314	1	0	63	NMS	136	Rabat									[106, 107]							L.Haimberger	0	7.6		7.5	era5.1761.conv.2:13009
206	0-20000-0-04360	0	207	2:16301	3	TASIILAQ (AMMASSALIK)			0	-37.636666666666656	65.6111111111111		19420822	19430528	1	0	63	NMS	83	None									[106, 107]							L.Haimberger	0	4.2		None	era5.1761.conv.2:16301
207	0-20000-0-10655	0	208	2:34163	3	WUERZBURG			0	9.957777777777775	49.77027777777778		19470603	19470715	1	0	63	NMS	56	Kitzingen									[106, 107]							L.Haimberger	0	17.6		3.0	era5.1761.conv.2:34163
208	0-20000-0-41780	0	209	9:4190	3	KARACHI AIRPORT			0	67.13333333333334	24.9		19390517	19411124	1	0	63	NMS	177	Karachi									[38, 85, 117]							L.Haimberger	0	10.4		5.3	era5.1761.conv.9:4190
209	0-20500-0-13847	0	210	2:13847	3	TOWNSEND HARRIS NECK			0	-81.27	31.63		19440501	19441216	1	0	63	NMS	231	Fort Stewart									[106, 107]							L.Haimberger	0	0.0		34.9	era5.1761.conv.2:13847
210	0-20300-0-24203	0	211	2:24203	3	EVERETT (PAINE FIELD)			0	-122.2833	47.9		19430718	19450620	1	0	63	NMS	231	Mukilteo									[106, 107]							L.Haimberger	0	0.2		5.3	era5.1761.conv.2:24203
211	0-20000-0-41768	0	212	9:1723	3	CHHOR			0	69.78333333333333	25.516666666666666		19460222	19481231	1	0	63	NMS	177	Chor									[106, 107]							L.Haimberger	0	4.7		6.4	era5.1761.conv.9:1723
212	0-20500-0-26304	0	213	2:26304	3	SWIFT RIVER			0	-131.18	60.0		19441015	19450228	1	0	63	NMS	37	Whitehorse									[106, 107]							L.Haimberger	0	0.0		228.0	era5.1761.conv.2:26304
213	0-20500-0-10002	0	214	2:10002	3	CAPE PALMAS			0	-7.68	4.37		19430603	19460108	1	0	63	NMS	130	Harper									[106, 107]							L.Haimberger	0	0.0		4.1	era5.1761.conv.2:10002
214	0-20000-0-89564	0	215	9:4151	3	MAWSON			0	62.875277777777775	-67.60166666666666		19551030	19570131	1	0	63	NMS	214	None									[85, 117]							L.Haimberger	0	0.3		None	era5.1761.conv.9:4151
215	0-20000-0-41780	0	216	2:32601	3	KARACHI AIRPORT			0	67.13333333333334	24.9		19441107	19460409	1	0	63	NMS	177	Karachi									[85, 106, 107, 117]							L.Haimberger	0	4.7		9.9	era5.1761.conv.2:32601
216	0-20500-0-34138	0	217	2:34138	3	ROSIGNANO MU 1			0	10.48	43.35		19440917	19440926	1	0	63	NMS	109	Cecina									[106, 107]							L.Haimberger	0	0.0		4.7	era5.1761.conv.2:34138
217	0-20000-0-72365	0	218	2:23004	3	ALBUQUERQUE/INT., NM.			0	-106.62194444444445	35.037777777777784		19420101	19450407	1	0	63	NMS	231	Albuquerque									[106, 107]							L.Haimberger	0	1.4		4.7	era5.1761.conv.2:23004
218	0-20500-0-10710	0	219	2:10710	3	MANDINGA			0	-79.08	9.45		19430729	19440413	1	0	63	NMS	172	Chepo									[106, 107]							L.Haimberger	0	0.0		31.4	era5.1761.conv.2:10710
219	0-20000-0-72221	0	220	2:3845	3	VALPARAISO/EGLIN AFB, FL.			0	-86.51666666666668	30.48333333333333		19490913	19491026	1	0	63	NMS	231	Wright									[106, 107]							L.Haimberger	0	25.5		20.2	era5.1761.conv.2:3845
220	0-20000-0-98558	0	221	2:41205	3	GUIUAN			0	125.75555555555556	11.045555555555556		19450116	19450809	1	0	63	NMS	176	Guiuan									[106, 107]							L.Haimberger	0	4.2		0.6	era5.1761.conv.2:41205
221	0-20500-0-43010	0	222	2:43010	3	LANCHOW			0	103.5	36.6		19450801	19451231	1	0	63	NMS	47	Baiyin									[106, 107]							L.Haimberger	0	0.0		63.5	era5.1761.conv.2:43010
222	0-20000-0-68032	0	223	1:68032	3	MAUN			0	23.41666666666667	-19.983333333333334		19570918	19581221	1	0	63	NMS	34	Maun									[85, 117]							L.Haimberger	0	0.8		0.8	era5.1761.conv.1:68032
223	0-20000-0-72424	0	224	1:72424	3	FT.KNOX, KY. (ARMY)			0	-85.96666666666668	37.9		19540516	19541002	1	0	63	NMS	231	Radcliff									[85, 117]							L.Haimberger	0	0.3		6.9	era5.1761.conv.1:72424
224	0-20000-0-78970	0	225	2:11605	3	PIARCO INT. AIRPORT,  TRINIDAD			0	-61.35	10.616666666666667		19430323	19431020	1	0	63	NMS	224	Chaguanas									[106, 107]							L.Haimberger	0	14.0		2.6	era5.1761.conv.2:11605
225	0-20000-0-02847	0	226	9:4173	3	ROVANIEMI RAUTATIEASEMA			0	25.70888888888889	66.49833333333333		19420403	19440913	1	0	63	NMS	69	Rovaniemi									[85, 117]							L.Haimberger	0	0.5		0.1	era5.1761.conv.9:4173
226	0-20000-0-16261	0	227	2:34105	3	AMENDOLA			0	15.713888888888887	41.53805555555555		19440804	19460122	1	0	63	NMS	109	Foggia									[106, 107]							L.Haimberger	0	16.8		1.4	era5.1761.conv.2:34105
227	0-20300-0-13719	0	228	2:13719	3	CUMBERLAND			0	-78.6667	39.6667		19290109	19310910	1	0	63	NMS	231	Cumberland									[106, 107]							L.Haimberger	0	0.5		8.2	era5.1761.conv.2:13719
228	0-20000-0-60390	0	229	2:33045	3	DAR-EL-BEIDA			0	3.216666666666667	36.69		19430702	19440331	1	0	63	NMS	61	Algiers									[106, 107]							L.Haimberger	0	15.1		2.7	era5.1761.conv.2:33045
229	0-20000-0-72507	0	230	2:14713	3	PROVIDENCE/GREEN STATE, RI.			0	-71.43333333333334	41.73333333333333		19440603	19440621	1	0	63	NMS	231	West Warwick									[106, 107]							L.Haimberger	0	3.1		5.2	era5.1761.conv.2:14713
230	0-20000-0-02464	0	231	9:4187	3	STOCKHOLM/BROMMA			0	17.897777777777776	59.36527777777778		19361119	19371217	1	0	63	NMS	196	Solna									[85, 117]							L.Haimberger	0	3.4		4.2	era5.1761.conv.9:4187
231	0-20000-0-07491	0	232	2:34011	3	CHAMBERY-AIX-LES-BAINS			0	5.878055555555557	45.64138888888889		19440906	19440906	1	0	63	NMS	74	Voiron									[106, 107]							L.Haimberger	0	29.8		27.2	era5.1761.conv.2:34011
232	0-20000-0-47938	0	233	2:42203	3	IEJIMA (US BASE)			0	127.78333333333332	26.716666666666665		19450516	19590827	1	0	63	NMS	113	Nago									[106, 107]							L.Haimberger	0	5.0		28.8	era5.1761.conv.2:42203
233	0-20000-0-48001	0	234	2:32903	3	PUTAO			0	97.41666666666669	27.33333333333333		19440409	19440716	1	0	63	NMS	145	Tezu									[106, 107]							L.Haimberger	0	7.6		134.5	era5.1761.conv.2:32903
234	0-20000-0-42314	0	235	9:3365	3	DIBRUGARH /MOHANBARI			0	95.01666666666668	27.48333333333333		19440401	19461020	1	0	63	NMS	104	Dibrugarh									[85, 117]							L.Haimberger	0	9.7		2.1	era5.1761.conv.9:3365
235	0-20000-0-02173	0	236	9:3355	3	ALVSBYN			0	21.06638888888889	65.67027777777777		19320815	19331213	1	0	63	NMS	196	Pitea									[85, 117]							L.Haimberger	0	25.9		17.9	era5.1761.conv.9:3355
236	0-504-1-60291	0	237	9:2092	3	Tarfaya			0	-12.931111111111115	27.93833333333333		19520119	19540830	1	0	63	NMS	136	Puerto Del Rosario									[106, 107]							L.Haimberger	0	1.4		112.1	era5.1761.conv.9:2092
237	0-20000-0-12200	0	238	9:1397	3	SWINOUJSCIE			0	14.242222222222221	53.92333333333333		19391201	19400304	1	0	63	NMS	178	Swinoujscie									[85, 117]							L.Haimberger	0	0.9		1.4	era5.1761.conv.9:1397
238	0-20000-0-41480	0	239	9:1708	3	ADEN			0	45.03333333333333	12.833333333333336		19440130	19480906	1	0	63	NMS	243	Aden									[106, 107]							L.Haimberger	0	1.5		4.5	era5.1761.conv.9:1708
239	0-20500-0-14857	0	240	2:14857	3	TRAVERSE CITY			0	-85.55	44.72		19421102	19451020	1	0	63	NMS	231	Traverse City									[106, 107]							L.Haimberger	0	0.0		7.4	era5.1761.conv.2:14857
240	0-20500-0-10101	0	241	2:10101	3	FISHERMANS LAKE			0	-11.25	6.75		19430803	19450504	1	0	63	NMS	130	Robertsport									[106, 107]							L.Haimberger	0	0.0		13.1	era5.1761.conv.2:10101
241	0-20000-0-04219	0	242	2:16505	3	QEQERTARSUAQ HELIPORT			0	-53.53333333333333	69.25		19420121	19421219	1	0	63	NMS	83	None									[106, 107]							L.Haimberger	0	1.3		None	era5.1761.conv.2:16505
242	0-20000-0-70200	0	243	2:26604	3	NOME, AK			0	-165.43472222222226	64.50722222222223		19460102	19460226	1	0	63	NMS	231	None									[85, 117]							L.Haimberger	0	1.4		None	era5.1761.conv.2:26604
243	0-20000-0-74641	0	244	9:3394	3	GAGE, OK, GAGE ARPT			0	-99.775	36.296944444444435		19520716	19520926	1	0	63	NMS	231	Woodward									[85, 117]							L.Haimberger	0	0.6		37.2	era5.1761.conv.9:3394
244	0-20500-0-12927	0	245	2:12927	3	HOUMA NAS			0	-90.67	29.52		19430601	19450731	1	0	63	NMS	231	Houma									[106, 107]							L.Haimberger	0	0.0		9.6	era5.1761.conv.2:12927
245	0-20001-0-04030	0	246	2:16203	3	REYKJAVIK (4030-1)			0	-21.93333333333333	64.13333333333334		19420401	19431015	1	0	63	NMS	108	Reykjavik									[106, 107]							L.Haimberger	0	0.4		2.4	era5.1761.conv.2:16203
246	0-20000-0-42379	0	247	9:1729	3	GORAKHPUR			0	83.36666666666666	26.75		19440103	19481226	1	0	63	NMS	104	Gorakhpur									[106, 107]							L.Haimberger	0	0.3		0.7	era5.1761.conv.9:1729
247	0-20000-0-48035	0	248	2:32942	3	LASHIO			0	97.75	22.93333333333333		19450510	19450814	1	0	63	NMS	145	Lashio									[106, 107]							L.Haimberger	0	5.2		5.2	era5.1761.conv.2:32942
248	0-20000-0-02171	0	249	9:4182	3	BODEN			0	21.634444444444448	65.80833333333334		19320815	19331213	1	0	63	NMS	196	Boden									[85, 117]							L.Haimberger	0	3.2		1.0	era5.1761.conv.9:4182
249	0-20000-0-94866	0	250	9:1497	3	MELBOURNE AIRPORT			0	144.83222222222219	-37.665555555555564		19490201	19530331	1	0	63	NMS	13	Melbourne									[106, 107]							L.Haimberger	0	9.3		10.9	era5.1761.conv.9:1497
250	0-20000-0-87576	0	251	1:87585	3	EZEIZA AERO			0	-58.54222222222222	-34.818611111111125		19490201	19570831	1	0	63	NMS	10	San Vicente									[85, 106, 107, 117]							L.Haimberger	0	27.1		45.7	era5.1761.conv.1:87585
251	0-20000-0-72530	0	252	2:14855	3	CHICAGO/O'HARE, IL.			0	-87.9	41.98333333333333		19430501	19460430	1	0	63	NMS	231	Glenview									[106, 107]							L.Haimberger	0	12.2		3.7	era5.1761.conv.2:14855
252	0-20000-0-10868	0	253	1:10868	3	MUENCHEN-OBERSCHLEISSHEIM			0	11.5525	48.24472222222222		19271026	19381230	1	0	63	NMS	56	Ismaning									[85, 117]							L.Haimberger	0	0.6		6.5	era5.1761.conv.1:10868
253	0-20000-0-74486	0	254	2:14795	3	NEW YORK/JOHN F. KENNEDY INT., NY.			0	-73.78333333333333	40.65		19200713	19210729	1	0	63	NMS	231	Woodmere									[106, 107]							L.Haimberger	0	9.3		7.6	era5.1761.conv.2:14795
254	0-20000-0-72220	0	255	2:12827	3	APALACHICOLA/MUN.,  FL.			0	-85.03333333333333	29.73333333333333		19450106	19450820	1	0	63	NMS	231	Callaway									[106, 107]							L.Haimberger	0	0.5		70.1	era5.1761.conv.2:12827
255	0-20000-0-06484	0	256	9:1555	3	BUZENOL			0	5.5875	49.62027777777778		19490124	19500728	1	0	63	NMS	20	Virton									[106, 107]							L.Haimberger	0	7.9		3.2	era5.1761.conv.9:1555
256	0-20000-0-16289	0	257	2:34120	3	NAPOLI/CAPODICHINO			0	14.290833333333332	40.88444444444443		19440113	19440120	1	0	63	NMS	109	Ottaviano									[106, 107]							L.Haimberger	0	15.2		2.2	era5.1761.conv.2:34120
257	0-20500-0-43105	0	258	2:43105	3	TAIHO			0	115.67	33.17		19450701	19450731	1	0	63	NMS	47	Jieshou									[106, 107]							L.Haimberger	0	0.0		31.1	era5.1761.conv.2:43105
258	0-20000-0-40676	0	259	1:40676	3	NASIRIYA			0	46.23333333333333	31.016666666666666		19490208	19581231	1	0	63	NMS	106	Susangerd									[106, 107]							L.Haimberger	0	0.5		195.4	era5.1761.conv.1:40676
259	0-20000-0-72258	0	260	2:13908	3	DALLAS, TX, DALLAS LOVE FIELD ARPT			0	-96.85111111111112	32.84694444444445		19290106	19300727	1	0	63	NMS	231	University Park									[106, 107]							L.Haimberger	0	0.4		4.7	era5.1761.conv.2:13908
260	0-20000-0-85799	0	261	2:54701	3	PUERTO MONTT			0	-73.09777777777778	-41.435		19500714	19580827	1	0	63	NMS	45	Puerto Montt									[106, 107]							L.Haimberger	0	23.5		10.4	era5.1761.conv.2:54701
261	0-20000-0-31736	0	262	2:44301	3	HABAROVSK (31736-0)			0	135.23333333333332	48.53333333333333		19450914	19451031	1	0	63	NMS	190	Khabarovsk									[106, 107]							L.Haimberger	0	19.2		28.6	era5.1761.conv.2:44301
262	0-20000-0-72228	0	263	2:13818	3	BIRMINGHAM/MUN., AL.			0	-86.75	33.56666666666667		19420901	19440410	1	0	63	NMS	231	Birmingham									[106, 107]							L.Haimberger	0	1.5		8.2	era5.1761.conv.2:13818
263	0-20500-0-11639	0	264	2:11639	3	VIEQUES ISLAND NS			0	-65.38	18.12		19531001	19531120	1	0	63	NMS	181	Fajardo									[106, 107]							L.Haimberger	0	0.0		36.9	era5.1761.conv.2:11639
264	0-20000-0-72250	0	265	2:12915	3	BROWNSVILLE/INT., TX			0	-97.41916666666668	25.91666666666667		19290128	19291106	1	0	63	NMS	231	Matamoros									[106, 107]							L.Haimberger	0	13.7		5.0	era5.1761.conv.2:12915
265	0-20000-0-74465	0	266	9:1687	3	DUNNE CRIB IL.			0	-87.53333333333332	41.78333333333333		19430927	19440615	1	0	63	NMS	231	Chicago									[106, 107]							L.Haimberger	0	5.6		8.8	era5.1761.conv.9:1687
266	0-20000-0-22768	0	267	1:22768	3	SHENKURSK			0	42.9	62.1		19530216	19541231	1	0	63	NMS	190	Mirnyy									[117]							L.Haimberger	0	0.0		121.6	era5.1761.conv.1:22768
267	0-20000-0-98531	0	268	2:41216	3	SAN JOSE (98531-0)			0	121.03333333333332	12.35		19450720	19450818	1	0	63	NMS	176	San Jose									[106, 107]							L.Haimberger	0	11.4		6.5	era5.1761.conv.2:41216
268	0-20000-0-72207	0	269	2:13853	3	SAVANNAH/MUNICIPAL,  GA.			0	-81.2	32.13333333333333		19440701	19491130	1	0	63	NMS	231	Garden City									[106, 107]							L.Haimberger	0	0.4		4.7	era5.1761.conv.2:13853
269	0-20000-0-82030	0	270	2:10507	3	AMAPA			0	-50.85	2.066666666666667		19431201	19440821	1	0	63	NMS	30	Macapa									[106, 107]							L.Haimberger	0	2.7		227.2	era5.1761.conv.2:10507
270	0-20000-0-91610	0	271	2:40707	3	TARAWA			0	172.91666666666663	1.35		19431212	19440530	1	0	63	NMS	117	Bairiki									[106, 107]							L.Haimberger	0	2.7		7.2	era5.1761.conv.2:40707
271	0-20000-0-07790	0	272	2:34005	3	BASTIA			0	9.485277777777776	42.540555555555564		19440726	19450531	1	0	63	NMS	74	Bastia									[106, 107]							L.Haimberger	0	4.4		14.7	era5.1761.conv.2:34005
272	0-20000-0-74598	0	273	9:295	3	LANGLEY AFB, VA.			0	-76.35	37.083333333333336		19180501	19200430	1	0	63	NMS	231	Hampton									[106, 107]							L.Haimberger	0	10.3		5.2	era5.1761.conv.9:295
273	0-20000-0-72507	0	274	2:14787	3	PROVIDENCE/GREEN STATE, RI.			0	-71.43333333333334	41.73333333333333		19400109	19400930	1	0	63	NMS	231	Middletown									[106, 107]							L.Haimberger	0	23.6		5.1	era5.1761.conv.2:14787
274	0-20500-0-12808	0	275	2:12808	3	LAKELAND			0	-82.02	28.0		19430617	19450331	1	0	63	NMS	231	Lakeland									[106, 107]							L.Haimberger	0	0.0		8.1	era5.1761.conv.2:12808
275	0-20000-0-47108	0	276	2:43215	3	SEOUL			0	126.96583333333334	37.57138888888889		19501209	19530127	1	0	63	NMS	121	Seoul									[106, 107]							L.Haimberger	0	4.8		8.0	era5.1761.conv.2:43215
276	0-20000-0-57265	0	277	2:43101	3	LAOHEKOU			0	111.73333333333332	32.43333333333333		19450203	19450221	1	0	63	NMS	47	Danjiangkou									[106, 107]							L.Haimberger	0	22.0		13.6	era5.1761.conv.2:43101
277	0-20000-0-74754	0	278	1:74754	3	ENGLAND AFB, LA.			0	-92.55	31.316666666666666		19550215	19550430	1	0	63	NMS	231	Alexandria									[85, 117]							L.Haimberger	0	1.5		10.2	era5.1761.conv.1:74754
278	0-20000-0-72309	0	279	2:13768	3	CHERRY POINT/MCAS, NC.			0	-76.88333333333334	34.85		19411103	19411209	1	0	63	NMS	231	New Bern									[106, 107]							L.Haimberger	0	29.7		3.2	era5.1761.conv.2:13768
279	0-20000-0-58362	0	280	9:1464	3	SHANGHAI (BAOSHAN)			0	121.45	31.41666666666667		19570313	19591027	1	0	63	NMS	47	Shanghai									[106, 107]							L.Haimberger	0	24.1		17.4	era5.1761.conv.9:1464
280	0-20000-0-16158	0	281	2:34144	3	PISA S. GIUSTO			0	10.395555555555557	43.6825		19441002	19450323	1	0	63	NMS	109	Leghorn									[106, 107]							L.Haimberger	0	20.6		5.8	era5.1761.conv.2:34144
281	0-504-1-60098	0	282	2:13011	3	Amizmiz			0	-8.233333333333333	31.216666666666665		19450501	19450614	1	0	63	NMS	136	Marrakesh									[106, 107]							L.Haimberger	0	26.0		71.0	era5.1761.conv.2:13011
282	0-20500-0-34115	0	283	2:34115	3	SPINAZZOLA MU 10			0	16.1	40.95		19440404	19450430	1	0	63	NMS	109	Venosa									[106, 107]							L.Haimberger	0	0.0		23.9	era5.1761.conv.2:34115
283	0-20000-0-10658	0	284	2:35107	3	BAD KISSINGEN			0	10.079166666666666	50.22416666666667		19471001	19471028	1	0	63	NMS	56	Schweinfurt									[106, 107]							L.Haimberger	0	20.4		4.5	era5.1761.conv.2:35107
284	0-20000-0-04202	0	285	2:17611	3	PITUFFIK (THULE AIR BASE)			0	-68.75	76.53333333333333		19570626	19580912	1	0	63	NMS	83	None									[85, 117]							L.Haimberger	0	16.9		None	era5.1761.conv.2:17611
285	0-20000-0-62062	0	286	2:33204	3	TOBRUK			0	23.95888888888889	32.095555555555556		19441027	19450922	1	0	63	NMS	135	Tubruq									[106, 107]							L.Haimberger	0	27.4		26.3	era5.1761.conv.2:33204
286	0-20500-0-93131	0	287	2:23143	3	GRAND CANYON			0	-112.13	36.05		19421231	19430621	1	0	63	NMS	231	Flagstaff									[106, 107]							L.Haimberger	0	0.0		104.0	era5.1761.conv.2:23143
287	0-20300-0-13819	0	288	2:13819	3	BAINBRIDGE AAF			0	-84.6333	30.9833		19421027	19450110	1	0	63	NMS	231	Bainbridge									[106, 107]							L.Haimberger	0	0.5		9.9	era5.1761.conv.2:13819
288	0-20000-0-57447	0	289	2:43008	3	ENSHI			0	109.46666666666668	30.28333333333333		19450601	19450827	1	0	63	NMS	47	Enshi									[106, 107]							L.Haimberger	0	1.3		2.2	era5.1761.conv.2:43008
289	0-20500-0-32924	0	290	2:32924	3	TINGKAWK SAKAN			0	96.72	26.07		19440617	19450204	1	0	63	NMS	145	Myitkyina									[106, 107]							L.Haimberger	0	0.0		102.2	era5.1761.conv.2:32924
290	0-20000-0-70162	0	291	2:26537	3	UMIAT			0	-152.13333333333333	69.36666666666666		19540501	19540804	1	0	63	NMS	231	College									[106, 107]							L.Haimberger	0	0.4		536.9	era5.1761.conv.2:26537
291	0-20000-0-02226	0	292	9:4185	3	OSTERSUND FROSON			0	14.500277777777775	63.19555555555554		19330608	19350307	1	0	63	NMS	196	Ostersund									[85, 117]							L.Haimberger	0	6.8		1.1	era5.1761.conv.9:4185
292	0-20000-0-74370	0	293	2:14715	3	FORT DRUM/WHEELER-SACK AAF, NY			0	-75.73333333333333	44.05		19440501	19530312	1	0	63	NMS	231	Watertown									[106, 107]							L.Haimberger	0	1.1		17.5	era5.1761.conv.2:14715
293	0-20000-0-72221	0	294	2:3843	3	VALPARAISO/EGLIN AFB, FL.			0	-86.51666666666668	30.48333333333333		19490920	19491102	1	0	63	NMS	231	Niceville									[106, 107]							L.Haimberger	0	9.3		5.0	era5.1761.conv.2:3843
294	0-20000-0-62306	0	295	2:33205	3	MERSA MATRUH			0	27.221666666666664	31.32527777777777		19441229	19450219	1	0	63	NMS	64	Marsa Matruh									[106, 107]							L.Haimberger	0	14.0		11.5	era5.1761.conv.2:33205
295	0-152-0-320051	0	296	9:1485	3	Los Libertadores			0	-70.11916666666666	-32.845555555555556		19360407	19390420	1	0	63	NMS	45	Los Andes									[106, 107]							L.Haimberger	0	4.1		50.2	era5.1761.conv.9:1485
296	0-20500-0-12809	0	297	2:12809	3	BARTOW MUNICIPAL ARP			0	-81.78	27.95		19440415	19450301	1	0	63	NMS	231	Bartow									[106, 107]							L.Haimberger	0	0.0		8.6	era5.1761.conv.2:12809
297	0-20000-0-53529	0	298	1:53529	3	OTOG QI			0	107.98333333333332	39.1		19570306	19591231	1	0	63	NMS	47	Wuda									[106, 107]							L.Haimberger	0	0.3		118.1	era5.1761.conv.1:53529
298	0-20000-0-07790	0	299	2:34017	3	BASTIA			0	9.485277777777776	42.540555555555564		19450601	19451111	1	0	63	NMS	74	Bastia									[106, 107]							L.Haimberger	0	1.1		17.1	era5.1761.conv.2:34017
299	0-20000-0-02919	0	300	9:4170	3	LAPPEENRANTA HIEKKAPAKKA			0	28.473055555555554	61.19833333333333		19440710	19440919	1	0	63	NMS	69	Imatra									[85, 117]							L.Haimberger	0	16.8		0.8	era5.1761.conv.9:4170
300	0-20500-0-42101	0	301	2:42101	3	HENGYANG			0	112.57	26.93		19440404	19440619	1	0	63	NMS	47	Hengyang									[106, 107]							L.Haimberger	0	0.0		6.4	era5.1761.conv.2:42101
301	0-20500-0-14792	0	302	2:14792	3	TRENTON MERCER CO AP			0	-74.82	40.27		19431115	19450831	1	0	63	NMS	231	Ewing									[106, 107]							L.Haimberger	0	0.0		1.7	era5.1761.conv.2:14792
302	0-20000-0-87765	0	303	9:1486	3	BARILOCHE AERO			0	-71.16416666666667	-41.1475		19390128	19410707	1	0	63	NMS	10	San Carlos De Bariloche									[106, 107]							L.Haimberger	0	11.4		1.1	era5.1761.conv.9:1486
303	0-20000-0-72231	0	304	2:13943	3	NEW ORLEANS/MOISANT INT., LA.			0	-90.25	29.98333333333333		19420901	19440204	1	0	63	NMS	231	Chalmette									[106, 107]							L.Haimberger	0	27.5		9.7	era5.1761.conv.2:13943
304	0-20000-0-85799	0	305	9:1484	3	PUERTO MONTT			0	-73.09777777777778	-41.435		19500714	19560524	1	0	63	NMS	45	Puerto Montt									[106, 107]							L.Haimberger	0	14.5		1.2	era5.1761.conv.9:1484
305	0-20000-0-47661	0	306	2:43321	3	KISARAZU AB			0	139.90972222222223	35.39833333333333		19540624	19540805	1	0	63	NMS	113	Kisarazu									[106, 107]							L.Haimberger	0	2.2		0.6	era5.1761.conv.2:43321
306	0-20000-0-43367	0	307	1:43367	3	CAR NICOBAR			0	92.83333333333331	9.166666666666666		19550102	19621031	1	0	63	NMS	104	Port Blair									[106, 107]							L.Haimberger	0	0.5		276.3	era5.1761.conv.1:43367
307	0-20500-0-3152	0	308	2:3138	3	MOJAVE FLT E 4			0	-115.67	35.83		19570716	19571210	1	0	63	NMS	231	Pahrump									[106, 107]							L.Haimberger	0	16.5		34.9	era5.1761.conv.2:3138
308	0-20500-0-26106	0	309	2:26106	3	SAWMILL BAY			0	-118.92	65.73		19480201	19480409	1	0	63	NMS	37	Yellowknife									[106, 107]							L.Haimberger	0	0.0		428.0	era5.1761.conv.2:26106
309	0-20000-0-89250	0	310	9:2222	3	KING GEORGE ISLAND			0	-58.4	-62.08333333333334		19530208	19580616	1	0	63	NMS	9	None									[106, 107]							L.Haimberger	0	3.7		None	era5.1761.conv.9:2222
310	0-20000-0-91246	0	311	2:41602	3	WAKE ISLAND WQ, WAKE ISLAND AIRFIELD ARPT			0	166.64194444444445	19.28		19460701	19480518	1	0	63	NMS	230	None									[106, 107]							L.Haimberger	0	3.2		None	era5.1761.conv.2:41602
311	0-20000-0-72537	0	312	2:14856	3	DETROIT/METROPOLITAN, MI.			0	-83.33333333333333	42.23333333333333		19430301	19460731	1	0	63	NMS	231	Grosse Ile									[106, 107]							L.Haimberger	0	20.0		3.9	era5.1761.conv.2:14856
312	0-20500-0-14894	0	313	9:435	3	WHEELING OHIO CO AP			0	-80.65	40.18		19220512	19231229	1	0	63	NMS	231	Wheeling									[106, 107]							L.Haimberger	0	29.9		16.1	era5.1761.conv.9:435
313	0-20500-0-40303	0	314	2:40303	3	PEGUN ISLAND			0	134.28	0.82		19441208	19450729	1	0	63	NMS	100	Manokwari									[106, 107]							L.Haimberger	0	0.0		187.8	era5.1761.conv.2:40303
314	0-20000-0-78486	0	315	2:11629	3	SANTO DOMINGO (78486-0)			0	-69.88333333333334	18.433333333333334		19200801	19230131	1	0	63	NMS	60	Santo Domingo									[106, 107]							L.Haimberger	0	4.1		2.1	era5.1761.conv.2:11629
315	0-20000-0-72270	0	316	9:269	3	EL PASO/INT., TX.			0	-106.4	31.8		19200814	19210824	1	0	63	NMS	231	El Paso									[106, 107]							L.Haimberger	0	5.9		14.3	era5.1761.conv.9:269
316	0-20000-0-91203	0	317	2:41301	3	FALALOP ISLAND (CG), ULITHI ATOLL			0	139.8	10.033333333333333		19450816	19451110	1	0	63	NMS	72	None									[106, 107]							L.Haimberger	0	3.3		None	era5.1761.conv.2:41301
317	0-20000-0-68104	0	318	9:4092	3	WALVIS BAY (PELICAN POINT)			0	14.433333333333335	-22.88333333333333		19570812	19581221	1	0	63	NMS	159	Swakopmund									[85, 117]							L.Haimberger	0	24.2		1.4	era5.1761.conv.9:4092
318	0-20000-0-04339	0	319	2:17201	3	ITTOQQORTOORMIIT (SCORESBYSUND)			0	-21.95111111111111	70.48444444444445		19420820	19440831	1	0	63	NMS	83	Akureyri									[106, 107]							L.Haimberger	0	0.9		560.3	era5.1761.conv.2:17201
319	0-20000-0-41661	0	320	9:3357	3	QUETTA (SHEIKH MANDA)			0	66.91666666666667	30.266666666666666		19460304	19471118	1	0	63	NMS	177	Quetta									[85, 117]							L.Haimberger	0	14.6		3.4	era5.1761.conv.9:3357
320	0-20000-0-61901	0	321	2:51004	3	ST. HELENA IS.			0	-5.667222222222222	-15.941944444444443		19430518	19450912	1	0	63	NMS	198	None									[106, 107]							L.Haimberger	0	6.2		None	era5.1761.conv.2:51004
321	0-20500-0-13823	0	322	2:13823	3	GRENADA AAF			0	-89.8	33.78		19431005	19440518	1	0	63	NMS	231	Grenada									[106, 107]							L.Haimberger	0	0.0		1.5	era5.1761.conv.2:13823
322	0-20500-0-23249	0	323	2:23249	3	WATSONVILLE MUNI AP			0	-121.78	36.93		19440323	19450930	1	0	63	NMS	231	Watsonville									[106, 107]							L.Haimberger	0	0.0		3.1	era5.1761.conv.2:23249
323	0-20000-0-78092	0	324	2:12704	3	GEORGE TOWN, EXUMA			0	-75.76666666666667	23.5		19450623	19450715	1	0	63	NMS	31	Nassau									[106, 107]							L.Haimberger	0	1.7		239.0	era5.1761.conv.2:12704
324	0-20000-0-72293	0	325	2:23198	3	SAN DIEGO/MIRAMAR,  NAS, CA.			0	-117.11666666666666	32.833333333333336		19430719	19450626	1	0	63	NMS	231	Solana Beach									[106, 107]							L.Haimberger	0	19.6		3.0	era5.1761.conv.2:23198
325	0-20000-0-11010	0	326	2:34182	3	LINZ/HOERSCHING-FLUGHAFEN			0	14.188055555555556	48.235277777777775		19480105	19490125	1	0	63	NMS	12	Traun									[106, 107]							L.Haimberger	0	0.8		4.2	era5.1761.conv.2:34182
326	0-20000-0-02562	0	327	9:4184	3	LINKOPING/MALMSLATT			0	15.525833333333335	58.398055555555565		19280204	19350911	1	0	63	NMS	196	Linkoping									[38, 85, 117]							L.Haimberger	0	2.5		5.7	era5.1761.conv.9:4184
327	0-20500-0-33703	0	328	9:3358	3	PESHAWAR			0	71.58	34.02		19440921	19470708	1	0	63	NMS	177	Peshawar									[85, 117]							L.Haimberger	0	0.0		1.3	era5.1761.conv.9:3358
328	0-20300-0-53420	0	329	9:1222	3	XAMBA			0	107.17	40.97		19570301	19581205	1	0	63	NMS	47	Haibowan									[106, 107]							L.Haimberger	0	0.0		148.1	era5.1761.conv.9:1222
329	0-20000-0-42416	0	330	2:32909	3	TEZPUR/BINDUKURI			0	92.8	26.716666666666665		19441027	19450228	1	0	63	NMS	104	Rangapara									[106, 107]							L.Haimberger	0	20.1		3.5	era5.1761.conv.2:32909
330	0-20500-0-14793	0	331	2:14793	3	WILLOW GROVE NAS			0	-75.15	40.2		19430802	19500731	1	0	63	NMS	231	Horsham									[106, 107]							L.Haimberger	0	0.0		3.0	era5.1761.conv.2:14793
331	0-20500-0-40705	0	332	2:40705	3	APAMAMA NF			0	173.83	0.47		19431223	19440913	1	0	63	NMS	117	Bairiki									[106, 107]							L.Haimberger	0	0.0		134.2	era5.1761.conv.2:40705
332	0-20300-0-13916	0	333	2:13913	3	MUSKOGEE (HATBOX FIELD/AAF)			0	-95.3667	35.75		19440801	19450622	1	0	63	NMS	231	Muskogee									[106, 107]							L.Haimberger	0	8.9		8.6	era5.1761.conv.2:13913
333	0-20300-0-03371	0	334	9:3371	3	SEWASTOPOL			0	33.53	44.62		19461204	19491129	1	0	63	NMS	228	Bakhchysaray									[85, 117]							L.Haimberger	0	0.0		30.0	era5.1761.conv.9:3371
334	0-20000-0-72290	0	335	2:23196	3	SAN DIEGO/LINDBERGH,  CA.			0	-117.16666666666669	32.73333333333333		19450204	19460328	1	0	63	NMS	231	Tijuana									[106, 107]							L.Haimberger	0	24.4		6.2	era5.1761.conv.2:23196
335	0-20000-0-71921	0	336	2:15619	3	SCHEFFERVILLE A, QC			0	-66.80527777777777	54.805277777777775		19550701	19581231	1	0	63	NMS	37	Sept-Iles									[106, 107]							L.Haimberger	0	1.1		512.7	era5.1761.conv.2:15619
336	0-20000-0-41416	0	337	9:1857	3	KAMARAN			0	42.583333333333336	15.366666666666667		19490306	19541112	1	0	63	NMS	243	Bajil									[106, 107]							L.Haimberger	0	5.7		77.0	era5.1761.conv.9:1857
337	0-20000-0-47813	0	338	1:47813	3	SAGA			0	130.3052777777778	33.26638888888889		19390112	19410218	1	0	63	NMS	113	Saga									[106, 107]							L.Haimberger	0	1.9		0.1	era5.1761.conv.1:47813
338	0-20001-0-37055	0	339	1:37050	3	MINERAL'NYE VODY (37055-1)			0	43.1	44.21666666666667		19470503	19511120	1	0	63	NMS	190	Pyatigorsk									[85, 117]							L.Haimberger	0	19.3		2.4	era5.1761.conv.1:37050
339	0-20000-0-72240	0	340	9:373	3	LAKE CHARLES/MUN., LA.			0	-93.21611111111113	30.125277777777782		19181005	19190114	1	0	63	NMS	231	Lake Charles									[106, 107]							L.Haimberger	0	11.3		17.1	era5.1761.conv.9:373
340	0-20300-0-13819	0	341	2:13851	3	BAINBRIDGE AAF			0	-84.6333	30.9833		19421214	19450128	1	0	63	NMS	231	Bainbridge									[106, 107]							L.Haimberger	0	23.3		23.0	era5.1761.conv.2:13851
341	0-20000-0-48062	0	342	2:32945	3	SITTWE			0	92.88333333333334	20.133333333333333		19450302	19791231	1	0	63	NMS	145	Akyab									[85, 106, 107, 117]							L.Haimberger	0	0.5		3.0	era5.1761.conv.2:32945
342	0-20000-0-01271	0	343	9:1391	3	TRONDHEIM/VERNES			0	10.935	63.45916666666667		19401203	19420321	1	0	63	NMS	166	Trondheim									[85, 117]							L.Haimberger	0	1.2		26.3	era5.1761.conv.9:1391
343	0-20000-0-72366	0	344	2:23007	3	CHILDRESS, TX CHILDRESS MUNI ARPT			0	-100.28805555555556	34.43388888888889		19450204	19450625	1	0	63	NMS	231	Altus									[106, 107]							L.Haimberger	0	0.9		89.9	era5.1761.conv.2:23007
344	0-20000-0-60445	0	345	1:60445	3	SETIF/AIN ARNAT			0	5.316666666666666	36.16666666666666		19520330	19570312	1	0	63	NMS	61	Tazmalt									[106, 107]							L.Haimberger	0	1.9		86.5	era5.1761.conv.1:60445
345	0-20000-0-57494	0	346	2:43103	3	WUHAN			0	114.05	30.6		19451001	19460531	1	0	63	NMS	47	Wuhan									[85, 106, 107, 117]							L.Haimberger	0	19.3		2.2	era5.1761.conv.2:43103
346	0-20500-0-93199	0	347	2:93199	3	ENSENADA			0	-116.63	31.87		19480316	19570123	1	0	63	NMS	156	Ensenada									[106, 107]							L.Haimberger	0	0.0		1.3	era5.1761.conv.2:93199
347	0-20000-0-56033	0	348	1:56033	3	MADOI			0	98.21666666666668	34.916666666666664		19570701	19591126	1	0	63	NMS	47	Xining									[106, 107]							L.Haimberger	0	8.7		377.2	era5.1761.conv.1:56033
348	0-20500-0-13844	0	349	2:13844	3	PERRY FOLEY AP			0	-83.58	30.07		19440601	19450128	1	0	63	NMS	231	Tallahassee									[106, 107]							L.Haimberger	0	0.0		78.8	era5.1761.conv.2:13844
349	0-20000-0-74486	0	350	2:14726	3	NEW YORK/JOHN F. KENNEDY INT., NY.			0	-73.78333333333333	40.65		19290102	19311211	1	0	63	NMS	231	Woodmere									[106, 107]							L.Haimberger	0	13.3		17.3	era5.1761.conv.2:14726
350	0-20300-0-45703	0	351	2:45710	3	KISKA ISLAND			0	177.5667	51.9833		19431203	19440718	1	0	63	NMS	231	None									[106, 107]							L.Haimberger	0	2.5		None	era5.1761.conv.2:45710
351	0-20000-0-27995	0	352	1:27995	3	SAMARA (BEZENCHUK)			0	49.43333333333333	52.98333333333333		19510501	19540528	1	0	63	NMS	190	Bezenchuk									[85, 117]							L.Haimberger	0	0.4		0.3	era5.1761.conv.1:27995
352	0-20500-0-40201	0	353	9:2261	3	MOROTAI AAF			0	128.3	2.03		19540705	19580315	1	0	63	NMS	100	Ternate									[106, 107]							L.Haimberger	0	3.1		172.0	era5.1761.conv.9:2261
353	0-20000-0-57127	0	354	2:43006	3	HANZHONG			0	107.03333333333332	33.06666666666667		19450307	19450929	1	0	63	NMS	47	Hanzhong									[106, 107]							L.Haimberger	0	18.9		19.5	era5.1761.conv.2:43006
354	0-20000-0-10544	0	355	1:10544	3	WASSERKUPPE			0	9.942777777777778	50.49722222222222		19260803	19310914	1	0	63	NMS	56	Kunzell									[85, 117]							L.Haimberger	0	0.6		17.5	era5.1761.conv.1:10544
355	0-20000-0-72212	0	356	2:12822	3	CROSS CITY/CROSS CITY A., FL.			0	-83.1	29.61666666666667		19431223	19440227	1	0	63	NMS	231	Gainesville									[106, 107]							L.Haimberger	0	2.4		77.0	era5.1761.conv.2:12822
356	0-20300-0-47963	0	357	9:1918	3	TORISHIMA			0	140.3	30.483		19520901	19530716	1	0	63	NMS	113	Shimoda									[106, 107]							L.Haimberger	0	0.3		481.3	era5.1761.conv.9:1918
357	0-20500-0-3117	0	358	2:3117	3	PONY SPRINGS			0	-114.62	38.52		19511012	19511129	1	0	63	NMS	231	Cedar City									[106, 107]							L.Haimberger	0	0.0		165.7	era5.1761.conv.2:3117
358	0-20000-0-10954	0	359	2:34161	3	ALTENSTADT			0	10.866666666666667	47.83416666666667		19490214	19490412	1	0	63	NMS	56	Kaufbeuren									[106, 107]							L.Haimberger	0	18.9		1.5	era5.1761.conv.2:34161
359	0-20000-0-72521	0	360	2:14813	3	AKRON/AKRON-CANTON REG. OH.			0	-81.43333333333334	40.91666666666666		19480102	19480630	1	0	63	NMS	231	Tallmadge									[106, 107]							L.Haimberger	0	12.7		8.0	era5.1761.conv.2:14813
360	0-20000-0-71001	0	361	2:26310	3	BURWASH A, YT			0	-139.04	61.37055555555556		19440523	19441230	1	0	63	NMS	37	Whitehorse									[106, 107]							L.Haimberger	0	2.5		225.8	era5.1761.conv.2:26310
361	0-20000-0-54857	0	362	2:43205	3	QINGDAO			0	120.33333333333331	36.06666666666667		19460109	19480930	1	0	63	NMS	47	Qingdao									[106, 107]							L.Haimberger	0	13.3		9.1	era5.1761.conv.2:43205
362	0-20000-0-01317	0	363	9:4176	3	BERGEN/FLORIDA			0	5.333611111111111	60.383055555555565		19401203	19420331	1	0	63	NMS	166	Bergen									[85, 117]							L.Haimberger	0	0.4		1.3	era5.1761.conv.9:4176
363	0-20000-0-56985	0	364	2:42020	3	MENGZI			0	103.32777777777777	23.44444444444445		19450501	19450930	1	0	63	NMS	47	Gejiu									[106, 107]							L.Haimberger	0	14.4		30.4	era5.1761.conv.2:42020
364	0-20000-0-74730	0	365	2:23030	3	SANDERSON, TX.			0	-102.41666666666669	30.16666666666667		19290102	19350929	1	0	63	NMS	231	Del Rio									[106, 107]							L.Haimberger	0	22.9		149.0	era5.1761.conv.2:23030
365	0-20000-0-47114	0	366	2:43222	3	WONJU			0	127.94666666666667	37.33750000000001		19510622	19520803	1	0	63	NMS	121	Seoul									[106, 107]							L.Haimberger	0	12.7		89.2	era5.1761.conv.2:43222
366	0-20000-0-47741	0	367	1:47742	3	MATSUE			0	133.06555555555556	35.45722222222223		19340701	19370813	1	0	63	NMS	113	Sakaiminato									[106, 107]							L.Haimberger	0	18.1		0.3	era5.1761.conv.1:47742
367	0-20000-0-04063	0	368	2:16101	3	AKUREYRI			0	-18.08333333333333	65.68333333333334		19440206	19440731	1	0	63	NMS	108	Akureyri									[106, 107]							L.Haimberger	0	1.5		1.0	era5.1761.conv.2:16101
368	0-20000-0-72509	0	369	2:14789	3	BOSTON/LOGAN INT., MA.			0	-71.03333333333333	42.36666666666667		19420601	19451030	1	0	63	NMS	231	Quincy									[106, 107]							L.Haimberger	0	7.4		5.7	era5.1761.conv.2:14789
369	0-20000-0-42618	0	370	2:32935	3	KAILASHAHAR			0	92.0	24.316666666666666		19450514	19451010	1	0	63	NMS	104	Kailasahar									[106, 107]							L.Haimberger	0	10.7		11.1	era5.1761.conv.2:32935
370	0-20000-0-83498	0	371	2:51303	3	CARAVELAS (83498-0)			0	-39.25	-17.733333333333334		19440115	19441231	1	0	63	NMS	30	Caravelas									[106, 107]							L.Haimberger	0	7.3		9.1	era5.1761.conv.2:51303
371	0-20000-0-10113	0	372	1:10113	3	NORDERNEY			0	7.151944444444445	53.71222222222222		19351102	19381231	1	0	63	NMS	56	Norden									[85, 117]							L.Haimberger	0	0.9		13.8	era5.1761.conv.1:10113
372	0-20500-0-26201	0	373	2:26201	3	FORT WRIGLEY			0	-123.33	63.2		19440314	19440914	1	0	63	NMS	37	None									[106, 107]							L.Haimberger	0	0.0		None	era5.1761.conv.2:26201
373	0-20500-0-12956	0	374	2:12956	3	MATAGORDA IS AF			0	-96.45	28.33		19560210	19571003	1	0	63	NMS	231	Port Lavaca									[106, 107]							L.Haimberger	0	0.0		35.9	era5.1761.conv.2:12956
374	0-20000-0-72509	0	375	2:14716	3	BOSTON/LOGAN INT., MA.			0	-71.03333333333333	42.36666666666667		19440205	19440622	1	0	63	NMS	231	Cambridge									[106, 107]							L.Haimberger	0	5.5		0.7	era5.1761.conv.2:14716
375	0-20001-0-51463	0	376	9:1405	3	WU LU MU QI (51463-1)			0	87.61666666666666	43.78333333333333		19570301	19591231	1	0	63	NMS	47	Urumqi									[106, 107]							L.Haimberger	0	1.5		3.8	era5.1761.conv.9:1405
376	0-20300-0-13828	0	377	2:13828	3	DYERSBURG AAF			0	-89.4	35.9		19430523	19440630	1	0	63	NMS	231	Dyersburg									[106, 107]							L.Haimberger	0	0.0		15.0	era5.1761.conv.2:13828
377	0-20000-0-71421	0	378	2:15603	3	LAC EON, QUE			0	-63.28333333333333	51.867222222222225		19431129	19480824	1	0	63	NMS	37	Sept-Iles									[106, 107]							L.Haimberger	0	28.1		305.4	era5.1761.conv.2:15603
378	0-20000-0-40179	0	379	9:1086	3	BET DAGAN			0	34.81666666666667	32.0		19440422	19450517	1	0	63	NMS	102	Qiryat Ono									[106, 107]							L.Haimberger	0	7.9		4.0	era5.1761.conv.9:1086
379	0-20000-0-74756	0	380	2:12817	3	GAINSVILLE, FL GAINSVILLE RGNL ARPT			0	-82.27194444444444	29.69		19440106	19440219	1	0	63	NMS	231	Gainesville									[106, 107]							L.Haimberger	0	24.9		31.6	era5.1761.conv.2:12817
380	0-20000-0-60096	0	381	2:12103	3	DAKHLA			0	-15.930833333333332	23.711111111111112		19451108	19460316	1	0	63	NMS	65	Nouadhibou									[106, 107]							L.Haimberger	0	4.3		336.6	era5.1761.conv.2:12103
381	0-20500-0-80305	0	382	9:3139	3	MARDROME AAF			0	132.08	-0.5		19450126	19450920	1	0	63	NMS	100	Sorong									[106, 107]							L.Haimberger	0	0.0		101.6	era5.1761.conv.9:3139
382	0-20000-0-71401	0	383	9:463	3	WARFIELD RCS			0	-117.73888888888891	49.111944444444454		19440609	19460124	1	0	63	NMS	37	Spokane									[106, 107]							L.Haimberger	0	22.7		141.6	era5.1761.conv.9:463
383	0-20000-0-78970	0	384	2:11617	3	PIARCO INT. AIRPORT,  TRINIDAD			0	-61.35	10.616666666666667		19430401	19431031	1	0	63	NMS	224	Chaguanas									[106, 107]							L.Haimberger	0	14.0		2.6	era5.1761.conv.2:11617
384	0-20000-0-33506	0	385	1:33506	3	Poltava			0	34.54472222222222	49.609444444444456		19461105	19490903	1	0	63	NMS	228	Poltava									[85, 117]							L.Haimberger	0	1.1		1.0	era5.1761.conv.1:33506
385	0-20500-0-12847	0	386	2:12847	3	DELAND NAS			0	-81.42	29.08		19430415	19450530	1	0	63	NMS	231	De Land									[106, 107]							L.Haimberger	0	0.0		12.7	era5.1761.conv.2:12847
386	0-20000-0-71868	0	387	2:25002	3	HUDSON BAY (AUT), SASK			0	-102.31666666666666	52.81666666666667		19440103	19450711	1	0	63	NMS	37	Yorkton									[106, 107]							L.Haimberger	0	8.2		184.0	era5.1761.conv.2:25002
387	0-20001-0-16080	0	388	2:34019	3	MILANO LINATE RDS			0	9.283055555555556	45.46138888888889		19450919	19460201	1	0	63	NMS	109	Segrate									[106, 107]							L.Haimberger	0	1.6		2.0	era5.1761.conv.2:34019
388	0-20300-0-45703	0	389	2:45703	3	KISKA ISLAND			0	177.5667	51.9833		19421112	19451008	1	0	63	NMS	231	None									[106, 107]							L.Haimberger	0	0.4		None	era5.1761.conv.2:45703
389	0-20000-0-48071	0	390	2:31902	3	KYAUKPYU			0	93.55	19.416666666666668		19450501	19450609	1	0	63	NMS	145	Akyab									[106, 107]							L.Haimberger	0	2.6		106.2	era5.1761.conv.2:31902
390	0-20500-0-34155	0	391	2:34155	3	FANO MU 5+11			0	13.03	43.83		19450420	19450731	1	0	63	NMS	109	Fano									[106, 107]							L.Haimberger	0	0.0		1.1	era5.1761.conv.2:34155
391	0-20000-0-82397	0	392	2:50306	3	FORTALEZA (82397-0)			0	-38.6	-3.7666666666666666		19440109	19450430	1	0	63	NMS	30	Caucaia									[106, 107]							L.Haimberger	0	5.2		9.5	era5.1761.conv.2:50306
392	0-20300-0-12811	0	393	2:12811	3	FORT MYERS (PAIGE FIELD)			0	-81.8667	26.5833		19430814	19441008	1	0	63	NMS	231	Villas									[106, 107]							L.Haimberger	0	0.5		3.3	era5.1761.conv.2:12811
393	0-20000-0-10637	0	394	1:10637	3	FRANKFURT/MAIN			0	8.52138888888889	50.02583333333333		19350909	19381231	1	0	63	NMS	56	Kelsterbach									[85, 117]							L.Haimberger	0	6.2		5.1	era5.1761.conv.1:10637
394	0-20500-0-16501	0	395	2:16501	3	CRUNCHER ISLAND			0	-53.57	66.03		19430528	19480410	1	0	63	NMS	83	Nuuk									[106, 107]							L.Haimberger	0	0.0		222.9	era5.1761.conv.2:16501
395	0-20500-0-26105	0	396	2:26105	3	MILLS LAKE			0	-118.63	61.25		19440510	19440815	1	0	63	NMS	37	Yellowknife									[106, 107]							L.Haimberger	0	0.0		262.0	era5.1761.conv.2:26105
396	0-20000-0-42809	0	397	2:32814	3	KOLKATA/DUM DUM			0	88.45	22.65		19440401	19440515	1	0	63	NMS	104	Calcutta									[106, 107]							L.Haimberger	0	19.6		7.5	era5.1761.conv.2:32814
397	0-20000-0-42591	0	398	2:32805	3	GAYA (42591-0)			0	84.95	24.75		19440812	19450331	1	0	63	NMS	104	Gaya									[106, 107]							L.Haimberger	0	0.0		6.3	era5.1761.conv.2:32805
398	0-20000-0-43295	0	399	2:31701	3	BANGALORE			0	77.58333333333333	12.966666666666667		19441109	19451122	1	0	63	NMS	104	Bangalore									[106, 107]							L.Haimberger	0	5.4		6.3	era5.1761.conv.2:31701
399	0-20500-0-3116	0	400	2:3116	3	GROOM MINE			0	-115.7	37.33		19511119	19511130	1	0	63	NMS	231	Pahrump									[106, 107]							L.Haimberger	0	0.0		127.0	era5.1761.conv.2:3116
400	0-20000-0-42420	0	401	2:32920	3	GOLAGHAT			0	93.98333333333332	26.516666666666666		19440228	19440329	1	0	63	NMS	104	Dergaon									[106, 107]							L.Haimberger	0	22.8		2.8	era5.1761.conv.2:32920
401	0-20500-0-24044	0	402	9:479	3	ALLIANCE MUNI AP			0	0.0	0.0		19181216	19190111	1	0	63	NMS	81	Takoradi									[106, 107]							L.Haimberger	0	0.0		574.0	era5.1761.conv.9:479
402	0-20000-0-42895	0	403	9:1737	3	BALASORE			0	86.93333333333334	21.516666666666666		19451025	19480229	1	0	63	NMS	104	Baleshwar									[106, 107]							L.Haimberger	0	1.9		0.7	era5.1761.conv.9:1737
403	0-20000-0-72483	0	404	2:23206	3	SACRAMENTO/EXECUTIVE CA.			0	-121.5	38.516666666666666		19420117	19450227	1	0	63	NMS	231	Rancho Cordova									[106, 107]							L.Haimberger	0	18.4		2.1	era5.1761.conv.2:23206
404	0-20000-0-47573	0	405	2:43318	3	NIIGATA AIRPORT			0	139.11166666666665	37.955833333333345		19520501	19541116	1	0	63	NMS	113	Kameda									[106, 107]							L.Haimberger	0	1.0		9.3	era5.1761.conv.2:43318
405	0-20000-0-91601	0	406	2:40701	3	BUTARITARI			0	172.78333333333333	3.033333333333333		19431211	19441031	1	0	63	NMS	117	Bairiki									[106, 107]							L.Haimberger	0	1.9		190.4	era5.1761.conv.2:40701
406	0-20000-0-06621	0	407	1:10935	3	GUETTINGEN			0	9.279444444444444	47.60166666666667		19260809	19360128	1	0	63	NMS	42	Friedrichshafen									[85, 117]							L.Haimberger	0	19.6		3.5	era5.1761.conv.1:10935
407	0-20000-0-16261	0	408	2:34107	3	AMENDOLA			0	15.713888888888887	41.53805555555555		19440514	19440731	1	0	63	NMS	109	San Severo									[106, 107]							L.Haimberger	0	29.7		4.3	era5.1761.conv.2:34107
408	0-20001-0-50953	0	409	1:50953	3	HARBIN (50953-1)			0	126.56666666666666	45.93333333333333		19570301	19591230	1	0	63	NMS	47	Harbin									[106, 107]							L.Haimberger	0	21.0		1.6	era5.1761.conv.1:50953
409	0-20500-0-23299	0	410	2:23151	3	TRACY			0	-121.53	37.77		19180719	19190131	1	0	63	NMS	231	Tracy									[106, 107]							L.Haimberger	0	5.5		15.3	era5.1761.conv.2:23151
410	0-20000-0-60141	0	411	2:13003	3	FES-SAIS			0	-4.9750000000000005	33.932777777777765		19430201	19430801	1	0	63	NMS	136	Fez									[106, 107]							L.Haimberger	0	17.1		8.8	era5.1761.conv.2:13003
411	0-20000-0-94346	0	412	2:82404	3	LONGREACH AERO			0	144.27694444444447	-23.437222222222218		19420731	19430722	1	0	63	NMS	13	Townsville									[106, 107]							L.Haimberger	0	15.1		539.9	era5.1761.conv.2:82404
412	0-20000-0-72255	0	413	2:12914	3	VICTORIA/VICTORIA REGIONAL, TX.			0	-96.91666666666669	28.85		19440803	19450620	1	0	63	NMS	231	Victoria									[106, 107]							L.Haimberger	0	9.6		12.7	era5.1761.conv.2:12914
413	0-20500-0-12828	0	414	2:12828	3	BUSHNELL AAF			0	-82.08	28.68		19440518	19450831	1	0	63	NMS	231	Leesburg									[106, 107]							L.Haimberger	0	0.0		24.5	era5.1761.conv.2:12828
414	0-20000-0-72256	0	415	2:13928	3	WACO, MADISON-COOPER, TX.			0	-97.21666666666668	31.61666666666667		19420826	19520531	1	0	63	NMS	231	Waco									[85, 106, 107, 117]							L.Haimberger	0	0.5		22.4	era5.1761.conv.2:13928
415	0-20500-0-10713	0	416	2:10713	3	SAN JOSE ISLAND			0	-79.13	8.25		19441001	19471231	1	0	63	NMS	172	Veracruz									[106, 107]							L.Haimberger	0	0.0		89.3	era5.1761.conv.2:10713
416	0-20000-0-54135	0	417	1:54135	3	TONGLIAO			0	122.26666666666668	43.6		19570301	19591231	1	0	63	NMS	47	Tongliao									[106, 107]							L.Haimberger	0	7.9		6.5	era5.1761.conv.1:54135
417	0-20000-0-41977	0	418	9:3364	3	CHITTAGONG (AMBAGAN)			0	91.81666666666666	22.35		19441014	19791231	1	0	63	NMS	19	Patiya									[85, 117]							L.Haimberger	0	1.4		16.1	era5.1761.conv.9:3364
418	0-20000-0-47840	0	419	9:1916	3	TSUIKI AB			0	131.04027777777782	33.684999999999995		19471031	19471130	1	0	63	NMS	113	Yukuhashi									[106, 107]							L.Haimberger	0	7.5		0.5	era5.1761.conv.9:1916
419	0-20000-0-47971	0	420	2:42402	3	CHICHIJIMA			0	142.19138888888892	27.09222222222223		19531020	19561231	1	0	63	NMS	113	None									[106, 107]							L.Haimberger	0	1.6		None	era5.1761.conv.2:42402
420	0-20000-0-76243	0	421	2:22002	3	PIEDRAS NEGRAS, COAH.			0	-100.54888888888887	28.683888888888887		19430621	19450429	1	0	63	NMS	156	Eagle Pass									[106, 107]							L.Haimberger	0	20.8		18.0	era5.1761.conv.2:22002
421	0-20000-0-72519	0	422	2:14720	3	SYRACUSE/HANCOCK, NY.			0	-76.11666666666666	43.11666666666667		19430701	19450311	1	0	63	NMS	231	Syracuse									[106, 107]							L.Haimberger	0	1.9		6.2	era5.1761.conv.2:14720
422	0-20000-0-42182	0	423	2:32703	3	NEW DELHI/SAFDARJUNG			0	77.2	28.58333333333333		19450125	19460228	1	0	63	NMS	104	New Delhi									[106, 107]							L.Haimberger	0	0.4		2.2	era5.1761.conv.2:32703
423	0-20000-0-35188	0	424	1:35188	3	ASTANA			0	71.39416666666669	51.17027777777778		19550102	19561230	1	0	63	NMS	124	Astana									[117]							L.Haimberger	0	4.8		7.0	era5.1761.conv.1:35188
424	0-20500-0-94829	0	425	2:94829	3	FORT CUSTER			0	-85.17	42.25		19540516	19541002	1	0	63	NMS	231	Battle Creek									[85, 117]							L.Haimberger	0	0.0		7.9	era5.1761.conv.2:94829
425	0-20000-0-91212	0	426	2:41411	3	WEATHER FORECAST OFFICE, GUAM, MARIANA IS.			0	144.79444444444445	13.476666666666668		19441214	19450731	1	0	63	NMS	91	None									[106, 107]							L.Haimberger	0	18.5		None	era5.1761.conv.2:41411
426	0-20000-0-48053	0	427	2:32953	3	MEIKTILA			0	95.83333333333331	20.83333333333333		19450323	19450425	1	0	63	NMS	145	Meiktila									[106, 107]							L.Haimberger	0	7.1		2.0	era5.1761.conv.2:32953
427	0-20000-0-82099	0	428	2:10506	3	MACAPA (AERO)			0	-51.06666666666667	0.05		19440118	19450912	1	0	63	NMS	30	Macapa									[106, 107]							L.Haimberger	0	5.6		3.4	era5.1761.conv.2:10506
428	0-20000-0-47133	0	429	2:43214	3	DAEJEON			0	127.37222222222222	36.37194444444445		19510319	19510321	1	0	63	NMS	121	Seoul									[106, 107]							L.Haimberger	0	4.7		145.2	era5.1761.conv.2:43214
429	0-20500-0-32943	0	430	2:32943	3	KUTKAI			0	97.92	23.47		19450306	19450424	1	0	63	NMS	145	Lashio									[106, 107]							L.Haimberger	0	0.0		61.9	era5.1761.conv.2:32943
430	0-20000-0-10170	0	431	1:10169	3	ROSTOCK-WARNEMUENDE			0	12.080833333333333	54.180277777777775		19260608	19290617	1	0	63	NMS	56	Rostock									[85, 117]							L.Haimberger	0	0.7		11.5	era5.1761.conv.1:10169
431	0-20000-0-01452	0	432	9:1392	3	KRISTIANSAND/KJEVIK			0	8.076666666666666	58.2		19401210	19420318	1	0	63	NMS	166	Kristiansand									[85, 117]							L.Haimberger	0	0.2		6.0	era5.1761.conv.9:1392
432	0-20300-0-01020	0	433	9:3711	3	KINNVIKA STATION			0	18.3	80.05		19570918	19580815	1	0	63	NMS	200	None									[85, 117]							L.Haimberger	0	0.0		None	era5.1761.conv.9:3711
433	0-20000-0-54337	0	434	1:54337	3	JINZHOU			0	121.11666666666666	41.13333333333333		19570301	19591231	1	0	63	NMS	47	Jinzhou									[106, 107]							L.Haimberger	0	0.5		3.1	era5.1761.conv.1:54337
434	0-20000-0-40690	0	435	9:1864	3	BASRAH INT. AIRPORT			0	47.78333333333333	30.516666666666666		19490202	19561203	1	0	63	NMS	106	Khorramshahr									[106, 107]							L.Haimberger	0	16.7		49.7	era5.1761.conv.9:1864
435	0-20300-0-52889	0	436	9:1415	3	LANZHOU			0	103.883	36.05		19570304	19591228	1	0	63	NMS	47	Lanzhou									[106, 107]							L.Haimberger	0	9.3		1.3	era5.1761.conv.9:1415
436	0-20000-0-98531	0	437	2:41225	3	SAN JOSE (98531-0)			0	121.03333333333332	12.35		19450801	19450914	1	0	63	NMS	176	Calintaan									[106, 107]							L.Haimberger	0	27.9		6.9	era5.1761.conv.2:41225
437	0-20000-0-54527	0	438	1:54527	3	TIANJIN			0	117.16666666666669	39.1		19570303	19591231	1	0	63	NMS	47	Tianjin									[106, 107]							L.Haimberger	0	9.4		5.8	era5.1761.conv.1:54527
438	0-20500-0-23015	0	439	2:23015	3	FORT SUMNER AAF			0	-104.22	34.48		19440215	19450630	1	0	63	NMS	231	Portales									[106, 107]							L.Haimberger	0	0.0		87.8	era5.1761.conv.2:23015
439	0-20000-0-16324	0	440	2:34102	3	GROTTAGLIE			0	17.399722222222227	40.517222222222216		19440407	19450430	1	0	63	NMS	109	Manduria									[106, 107]							L.Haimberger	0	21.8		3.3	era5.1761.conv.2:34102
440	0-20500-0-3128	0	441	2:3128	3	ROUND MOUNTAIN			0	-117.05	38.75		19550208	19550331	1	0	63	NMS	231	Fernley									[106, 107]							L.Haimberger	0	0.0		212.7	era5.1761.conv.2:3128
441	0-705-0-1950	0	442	9:1628	3	MARIBOR - VRBANSKI PLATO			0	15.626111111111115	46.56777777777778		19550102	19570430	1	0	63	NMS	199	Maribor									[106, 107]							L.Haimberger	0	4.6		2.8	era5.1761.conv.9:1628
442	0-20000-0-56586	0	443	2:42018	3	ZHAOTONG			0	103.75	27.33333333333333		19450118	19450226	1	0	63	NMS	47	Zhaotong									[106, 107]							L.Haimberger	0	7.9		4.8	era5.1761.conv.2:42018
443	0-20000-0-10384	0	444	1:10384	3	BERLIN-TEMPELHOF			0	13.402222222222226	52.4675		19260608	19381231	1	0	63	NMS	56	Berlin									[85, 117]							L.Haimberger	0	0.3		5.2	era5.1761.conv.1:10384
444	0-20500-0-14612	0	445	2:14612	3	ROCKLAND			0	-69.17	44.12		19431101	19441227	1	0	63	NMS	231	Augusta									[106, 107]							L.Haimberger	0	0.0		53.1	era5.1761.conv.2:14612
445	0-20000-0-72391	0	446	2:23136	3	POINT MUGU/NAS, CA.			0	-119.11666666666666	34.11666666666667		19440503	19441009	1	0	63	NMS	231	Moorpark									[106, 107]							L.Haimberger	0	21.5		8.1	era5.1761.conv.2:23136
446	0-20000-0-72469	0	447	2:23036	3	DENVER/STAPLETON INT., CO.			0	-104.86944444444444	39.7675		19460101	19460207	1	0	63	NMS	231	Parker									[106, 107]							L.Haimberger	0	19.3		11.3	era5.1761.conv.2:23036
447	0-20300-0-23140	0	448	2:23140	3	COOLIDGE (AAF)			0	-111.4333	32.9333		19441107	19451029	1	0	63	NMS	231	Florence									[106, 107]							L.Haimberger	0	0.5		12.0	era5.1761.conv.2:23140
448	0-20000-0-72530	0	449	2:14810	3	CHICAGO/O'HARE, IL.			0	-87.9	41.98333333333333		19480401	19510227	1	0	63	NMS	231	Schiller Park									[106, 107]							L.Haimberger	0	0.4		3.6	era5.1761.conv.2:14810
449	0-20000-0-71621	0	450	2:4715	3	TRENTON A, ONT			0	-77.53333333333333	44.11666666666667		19550702	19581231	1	0	63	NMS	37	Belleville									[106, 107]							L.Haimberger	0	0.5		12.8	era5.1761.conv.2:4715
450	0-20500-0-43001	0	451	2:43001	3	CHENGTU			0	104.03	30.25		19440209	19440925	1	0	63	NMS	47	Huayang									[106, 107]							L.Haimberger	0	0.0		29.0	era5.1761.conv.2:43001
451	0-20000-0-62176	0	452	1:62176	3	GIGHBUB			0	24.516388888888887	29.754444444444445		19490203	19591023	1	0	63	NMS	135	Tubruq									[106, 107]							L.Haimberger	0	7.4		256.5	era5.1761.conv.1:62176
452	0-20000-0-78321	0	453	2:12856	3	LA FE, ISLA DE LA JUVENTUD			0	-82.76666666666667	21.73333333333333		19430801	19440531	1	0	63	NMS	50	Nueva Gerona									[106, 107]							L.Haimberger	0	0.5		17.3	era5.1761.conv.2:12856
453	0-20000-0-02864	0	454	9:4168	3	KEMI-TORNIO AIRPORT			0	24.582777777777782	65.78944444444444		19450111	19450526	1	0	63	NMS	69	Kemi									[85, 117]							L.Haimberger	0	6.6		0.7	era5.1761.conv.9:4168
454	0-20000-0-95767	0	455	1:94772	3	LAKE MACQUARIE AWS			0	151.46361111111108	-33.08861111111111		19440914	19541231	1	0	63	NMS	13	Newcastle									[85, 117]							L.Haimberger	0	13.4		21.9	era5.1761.conv.1:94772
455	0-20300-0-13826	0	456	2:13826	3	COURTLAND (AAF)			0	-87.3333	34.6667		19430413	19450131	1	0	63	NMS	231	Muscle Shoals									[106, 107]							L.Haimberger	0	0.5		32.0	era5.1761.conv.2:13826
456	0-20000-0-07180	0	457	2:34016	3	NANCY-ESSEY			0	6.221388888888888	48.687777777777775		19441117	19441125	1	0	63	NMS	74	Vandoeuvre-Les-Nancy									[106, 107]							L.Haimberger	0	2.5		1.8	era5.1761.conv.2:34016
457	0-20000-0-54497	0	458	1:54497	3	DANDONG			0	124.33333333333331	40.05		19570302	19591231	1	0	63	NMS	47	Dandong									[106, 107]							L.Haimberger	0	5.1		14.7	era5.1761.conv.1:54497
458	0-20000-0-74630	0	459	1:74630	3	STALLION AAF, NM			0	-106.66666666666669	33.81666666666667		19560305	19610127	1	0	63	NMS	231	Los Lunas									[85, 117]							L.Haimberger	0	1.9		111.8	era5.1761.conv.1:74630
459	0-20000-0-17130	0	460	2:33306	3	ANKARA BLGE			0	32.88333333333333	39.95		19450202	19460217	1	0	63	NMS	223	Ankara									[106, 107]							L.Haimberger	0	11.4		8.8	era5.1761.conv.2:33306
460	0-20000-0-78807	0	461	2:10712	3	COROZAL OESTE			0	-79.56666666666666	8.966666666666667		19440801	19451028	1	0	63	NMS	172	Panama									[106, 107]							L.Haimberger	0	1.5		4.3	era5.1761.conv.2:10712
461	0-20001-0-57516	0	462	2:42016	3	CHONGQING (57516-1)			0	106.4	29.6		19441125	19460125	1	0	63	NMS	47	Chongqing									[106, 107]							L.Haimberger	0	11.5		19.0	era5.1761.conv.2:42016
462	0-20000-0-41150	0	463	9:1710	3	BAHRAIN (INT. AIRPORT)			0	50.65	26.266666666666666		19440102	19480826	1	0	63	NMS	23	Manama									[106, 107]							L.Haimberger	0	8.1		0.7	era5.1761.conv.9:1710
463	0-20000-0-47642	0	464	2:43313	3	YOKOTA			0	139.34861111111113	35.74861111111111		19481110	19540513	1	0	63	NMS	113	Fussa									[106, 107]							L.Haimberger	0	0.2		2.8	era5.1761.conv.2:43313
464	0-20000-0-72537	0	465	2:14807	3	DETROIT/METROPOLITAN, MI.			0	-83.33333333333333	42.23333333333333		19440701	19450130	1	0	63	NMS	231	Inkster									[106, 107]							L.Haimberger	0	4.1		3.2	era5.1761.conv.2:14807
465	0-20500-0-32902	0	466	2:32902	3	SOOKERATING			0	95.57	27.57		19440221	19450924	1	0	63	NMS	104	Dum Duma									[106, 107]							L.Haimberger	0	0.0		0.5	era5.1761.conv.2:32902
466	0-20000-0-74756	0	467	2:12816	3	GAINSVILLE, FL GAINSVILLE RGNL ARPT			0	-82.27194444444444	29.69		19431217	19441014	1	0	63	NMS	231	Gainesville									[106, 107]							L.Haimberger	0	1.1		7.6	era5.1761.conv.2:12816
467	0-20000-0-04280	0	468	2:16402	3	NARSAQ HELIPORT			0	-46.058611111111105	60.91666666666666		19450226	19471214	1	0	63	NMS	83	None									[106, 107]							L.Haimberger	0	3.7		None	era5.1761.conv.2:16402
468	0-20000-0-74389	0	469	2:14724	3	GRAY, ME.			0	-70.25722222222223	43.8925		19440104	19440203	1	0	63	NMS	231	South Portland									[106, 107]							L.Haimberger	0	26.9		1.2	era5.1761.conv.2:14724
469	0-20000-0-68816	0	470	1:68816	3	CAPE TOWN INTNL. AIRPORT			0	18.602222222222224	-33.963055555555556		19490701	19581231	1	0	63	NMS	246	Cape Town									[85, 117]							L.Haimberger	0	0.4		16.8	era5.1761.conv.1:68816
470	0-20500-0-23115	0	471	2:23115	3	ONTARIO AAF			0	-117.6	34.05		19430103	19450117	1	0	63	NMS	231	Ontario									[106, 107]							L.Haimberger	0	0.0		4.8	era5.1761.conv.2:23115
471	0-20000-0-72210	0	472	1:74788	3	TAMPA BAY AREA, FL.			0	-82.40055555555556	27.705277777777773		19410402	19510728	1	0	63	NMS	231	Tampa									[106, 107]							L.Haimberger	0	19.9		12.4	era5.1761.conv.1:74788
472	0-20000-0-02556	0	473	9:4186	3	HAGSHULT			0	14.14	57.2925		19300701	19300725	1	0	63	NMS	196	Varnamo									[85, 117]							L.Haimberger	0	15.7		27.6	era5.1761.conv.9:4186
473	0-20000-0-06458	0	474	9:1553	3	BEAUVECHAIN			0	4.763333333333334	50.74555555555556		19520214	19560524	1	0	63	NMS	20	Landen									[106, 107]							L.Haimberger	0	29.5		7.2	era5.1761.conv.9:1553
474	0-20000-0-60656	0	475	9:2099	3	TINDOUF			0	-8.169166666666666	27.704166666666666		19531019	19540406	1	0	63	NMS	61	Tiznit									[106, 107]							L.Haimberger	0	3.9		271.1	era5.1761.conv.9:2099
475	0-20000-0-16261	0	476	2:34104	3	AMENDOLA			0	15.713888888888887	41.53805555555555		19441201	19460320	1	0	63	NMS	109	Foggia									[106, 107]							L.Haimberger	0	19.5		3.8	era5.1761.conv.2:34104
476	0-20500-0-16408	0	477	2:16408	3	COMANCHE BAY			0	-40.23	65.07		19431211	19450909	1	0	63	NMS	83	None									[106, 107]							L.Haimberger	0	0.0		None	era5.1761.conv.2:16408
477	0-20500-0-13852	0	478	2:13852	3	THOMASVILLE AAF			0	-83.88	30.9		19440620	19450131	1	0	63	NMS	231	Thomasville									[106, 107]							L.Haimberger	0	0.0		11.8	era5.1761.conv.2:13852
478	0-20500-0-26312	0	479	2:26312	3	ORCHIE LAKE			0	-131.75	62.18		19440902	19450226	1	0	63	NMS	37	Whitehorse									[106, 107]							L.Haimberger	0	0.0		239.9	era5.1761.conv.2:26312
479	0-20000-0-41891	0	480	2:32916	3	SYLHET			0	91.88333333333334	24.9		19440212	19450131	1	0	63	NMS	19	Chhatak									[106, 107]							L.Haimberger	0	7.2		19.3	era5.1761.conv.2:32916
480	0-20000-0-98550	0	481	2:41220	3	TACLOBAN			0	125.03333333333332	11.233333333333333		19450606	19451031	1	0	63	NMS	176	Tacloban									[106, 107]							L.Haimberger	0	5.4		8.3	era5.1761.conv.2:41220
481	0-20000-0-40650	0	482	1:40650	3	BAGHDAD INT. AIRPORT			0	44.4	33.3		19490213	19581231	1	0	63	NMS	106	Baghdad									[106, 107]							L.Haimberger	0	3.3		1.1	era5.1761.conv.1:40650
482	0-20000-0-47755	0	483	1:47755	3	HAMADA			0	132.07055555555556	34.89666666666667		19381201	19410611	1	0	63	NMS	113	Hamada									[106, 107]							L.Haimberger	0	0.4		2.2	era5.1761.conv.1:47755
483	0-20000-0-16171	0	484	2:34139	3	FIRENZE			0	11.215833333333332	43.78555555555555		19450122	19450831	1	0	63	NMS	109	Florence									[106, 107]							L.Haimberger	0	3.2		0.4	era5.1761.conv.2:34139
484	0-20000-0-48108	0	485	9:1747	3	DAWEI			0	98.21666666666668	14.1		19470214	19481231	1	0	63	NMS	145	Dawei									[106, 107]							L.Haimberger	0	2.9		0.4	era5.1761.conv.9:1747
485	0-20000-0-74793	0	486	2:12855	3	VERO BEACH, FL, VERO BEACH MUNI ARPT			0	-80.41805555555554	27.656111111111112		19430902	19460329	1	0	63	NMS	231	Vero Beach									[106, 107]							L.Haimberger	0	0.7		2.6	era5.1761.conv.2:12855
486	0-20000-0-94995	0	487	9:1492	3	LORD HOWE ISLAND AERO			0	159.07861111111112	-31.54222222222223		19490101	19550814	1	0	63	NMS	13	None									[106, 107]							L.Haimberger	0	2.5		None	era5.1761.conv.9:1492
487	0-20000-0-89063	0	488	9:2225	3	VERNADSKY			0	-64.26666666666667	-65.25		19530109	19580626	1	0	63	NMS	10	None									[106, 107]							L.Haimberger	0	0.2		None	era5.1761.conv.9:2225
488	0-20000-0-71935	0	489	2:26103	3	HAY RIVER A, NWT			0	-115.78277777777778	60.83972222222222		19431207	19441121	1	0	63	NMS	37	Yellowknife									[106, 107]							L.Haimberger	0	1.3		193.5	era5.1761.conv.2:26103
489	0-20000-0-47426	0	490	1:47426	3	URAKAWA			0	142.77694444444447	42.1625		19451101	19480930	1	0	63	NMS	113	Shizunai									[106, 107]							L.Haimberger	0	0.9		38.6	era5.1761.conv.1:47426
490	0-20000-0-91285	0	491	2:21503	3	HILO HI, HAWAII			0	-155.05833333333334	19.718333333333327		19440404	19451226	1	0	63	NMS	231	Hilo									[106, 107]							L.Haimberger	0	0.9		4.3	era5.1761.conv.2:21503
491	0-20500-0-93876	0	492	2:13855	3	MONTEAGLE			0	-85.83	35.25		19430817	19450106	1	0	63	NMS	231	Tullahoma									[106, 107]							L.Haimberger	0	15.4		40.0	era5.1761.conv.2:13855
492	0-20500-0-51401	0	493	2:51401	3	CAMP ECLIPSE			0	-43.67	-17.2		19470413	19470520	1	0	63	NMS	30	Bocaiuva									[85, 117]							L.Haimberger	0	0.0		18.1	era5.1761.conv.2:51401
493	0-20500-0-40102	0	494	2:40102	3	SANGA SANGA ISLAND			0	119.73	5.03		19450523	19450809	1	0	63	NMS	176	Sitangkai									[106, 107]							L.Haimberger	0	0.0		55.2	era5.1761.conv.2:40102
494	0-20000-0-47891	0	495	1:47891	3	TAKAMATSU			0	134.05416666666667	34.31833333333333		19420123	19460227	1	0	63	NMS	113	Shido									[106, 107]							L.Haimberger	0	0.4		11.4	era5.1761.conv.1:47891
495	0-20000-0-48033	0	496	2:32938	3	SHWEBO			0	95.71666666666668	22.58333333333333		19450203	19450831	1	0	63	NMS	145	Shwebo									[106, 107]							L.Haimberger	0	1.4		3.4	era5.1761.conv.2:32938
496	0-20500-0-12820	0	497	2:12820	3	DUNNELLON AP			0	-82.37	29.07		19431220	19440312	1	0	63	NMS	231	Ocala									[106, 107]							L.Haimberger	0	0.0		25.8	era5.1761.conv.2:12820
497	0-20000-0-47750	0	498	1:47749	3	MAIZURU			0	135.31805555555556	35.45027777777778		19350801	19410610	1	0	63	NMS	113	Ayabe									[106, 107]							L.Haimberger	0	13.9		9.0	era5.1761.conv.1:47749
498	0-20001-0-16546	0	499	2:33014	3	DECIMOMANNU RDS			0	8.9675	39.346111111111114		19431106	19440907	1	0	63	NMS	109	Sinnai									[106, 107]							L.Haimberger	0	18.2		2.9	era5.1761.conv.2:33014
499	0-20500-0-93909	0	500	2:93909	3	OLATHE NAS			0	-94.88	38.83		19421124	19460531	1	0	63	NMS	231	Gardner									[106, 107]							L.Haimberger	0	0.0		4.6	era5.1761.conv.2:93909
500	0-620-3001-08508	0	501	2:13204	3	LAJES (ACORES) (8508-0)			0	-27.08722222222222	38.76777777777777		19441101	19450731	1	0	63	NMS	183	Angra									[106, 107]							L.Haimberger	0	5.8		22.3	era5.1761.conv.2:13204
501	0-20000-0-56786	0	502	2:42008	3	ZHANYI			0	103.83333333333331	25.58333333333333		19440222	19451030	1	0	63	NMS	47	Qujing									[106, 107]							L.Haimberger	0	7.4		16.3	era5.1761.conv.2:42008
502	0-20500-0-26315	0	503	2:26315	3	KITTIGAZUIT			0	-134.0	69.25		19480401	19480914	1	0	63	NMS	37	None									[106, 107]							L.Haimberger	0	0.0		None	era5.1761.conv.2:26315
503	0-20000-0-71842	0	504	2:15909	3	SIOUX LOOKOUT A, ONT			0	-91.9	50.11666666666667		19550702	19581231	1	0	63	NMS	37	Kenora									[106, 107]							L.Haimberger	0	0.4		188.4	era5.1761.conv.2:15909
