	primary_id	primary_id_scheme	record_number	secondary_id	secondary_id_scheme	station_name	station_abbreviation	alternative_name	station_crs	longitude	latitude	local_gravity	start_date	end_date	station_type	platform_type	platform_sub_type	operating_institute	operating_territory	city	contact	role	observing_frequency	reporting_time	telecommunication_method	station_automation	measuring_system_model	measuring_system_id	observed_variables	comment	optional_data	bbox_min_longitude	bbox_max_longitude	bbox_min_latitude	bbox_max_latitude	metadata_contact	metadata_contact_role	distance_km	distance_km_minusLat	city_dist_km	file
0	0-20000-0-88963	0	1	['9:2224']	3	BASE ESPERANZA			0	-57.0	-63.4		19530114	19580617	1	0	63	NMS		None									[106, 107]							L.Haimberger	0	1.0		None	era5.1761.conv.9:2224
1	0-20000-0-89564	0	2	['9:3282']	3	MAWSON			0	62.88	-67.6		19560301	19571231	1	0	63	NMS	37	None									[106, 107]							L.Haimberger	0	0.0		None	era5.1761.conv.9:3282
2	0-20500-0-26204	0	3	['2:26204']	3	TROUT LAKE			0	-120.2	60.27		19440401	19450301	1	0	63	NMS		Fort Saint John									[106, 107]							L.Haimberger	0	88.5	13369.0	451.3	era5.1761.conv.2:26204
3	0-20000-0-52436	0	4	['1:52436']	3	YUMENZHEN			0	97.03	40.27		19570301	19591231	1	0	63	NMS		Yumen									[106, 107]							L.Haimberger	0	12.8		67.7	era5.1761.conv.1:52436
4	0-20000-0-54342	0	5	['2:44201']	3	SHENYANG			0	123.52	41.73		19460526	19470424	1	0	63	NMS		Shenyang									[106, 107]							L.Haimberger	0	14.0		4.5	era5.1761.conv.2:44201
5	0-20000-0-47931	0	6	['2:42202']	3	KADENA			0	127.77	26.36		19521008	19530714	1	0	63	NMS		Yomitan									[106, 107]							L.Haimberger	0	3.0		2.2	era5.1761.conv.2:42202
6	0-20500-0-42028	0	7	['2:42028']	3	CHUNGKING			0	106.58	28.6		19450718	19450830	1	0	63	NMS		Tongzi									[106, 107]							L.Haimberger	0	0.0	6329.9	56.4	era5.1761.conv.2:42028
7	0-20000-0-01271	0	8	['9:4175']	3	TRONDHEIM/VERNES			0	10.94	63.46		19401203	19420228	1	0	63	NMS		Trondheim									[85, 117]							L.Haimberger	0	1.2		26.3	era5.1761.conv.9:4175
8	0-20000-0-01271	0	9	['9:1396']	3	TRONDHEIM/VERNES			0	10.94	63.46		19420117	19420117	1	0	63	NMS		Trondheim									[85, 117]							L.Haimberger	0	1.2		26.3	era5.1761.conv.9:1396
9	0-20000-0-91232	0	10	['2:41410']	3	SAIPAN (CG), MARIANA IS.			0	145.73	15.12		19450710	19450729	1	0	63	NMS		None									[106, 107]							L.Haimberger	0	19.2		None	era5.1761.conv.2:41410
10	0-20500-0-42015	0	11	['2:42015']	3	LULIANG			0	103.58	25.0		19440720	19451111	1	0	63	NMS		Zhongshu									[106, 107]							L.Haimberger	0	0.0	5532.1	56.8	era5.1761.conv.2:42015
11	0-20500-0-12903	0	12	['2:12903']	3	HONDO AFB			0	-98.83	29.35		19450315	19450621	1	0	63	NMS		Uvalde									[106, 107]							L.Haimberger	0	33.0	6496.2	61.8	era5.1761.conv.2:12903
12	0-20000-0-56651	0	13	['2:42009']	3	LIJING			0	100.22	26.83		19440402	19450728	1	0	63	NMS		Dali									[106, 107]							L.Haimberger	0	5.6		130.8	era5.1761.conv.2:42009
13	0-20000-0-22003	0	14	['2:22003']	3	VAJDA-GUBA			0	31.98	69.94		19290624	19301126	1	0	63	NMS	177	Del Rio									[106, 107]							L.Haimberger	0	8362.3		45.8	era5.1761.conv.2:22003
14	0-20500-0-11708	0	15	['2:11708']	3	NAVASSA ISLAND			0	-74.98	18.48		19440326	19440430	1	0	63	NMS	9	Jeremie									[106, 107]							L.Haimberger	0	4.2	4088.2	100.0	era5.1761.conv.2:11708
15	0-20000-0-42314	0	16	['2:32908']	3	DIBRUGARH /MOHANBARI			0	95.02	27.48		19440623	19450921	1	0	63	NMS		Tinsukia									[106, 107]							L.Haimberger	0	25.1		9.8	era5.1761.conv.2:32908
16	0-20000-0-84390	0	17	['1:84390']	3	TALARA			0	-81.25	-4.57		19490106	19540812	1	0	63	NMS	9	Talara									[106, 107]							L.Haimberger	0	0.0		2.6	era5.1761.conv.1:84390
17	0-20000-0-72797	0	18	['2:24252']	3	QUILLAYUTE, WA.			0	-124.56	47.93		19440511	19450831	1	0	63	NMS		Port Angeles									[106, 107]							L.Haimberger	0	3.2		84.2	era5.1761.conv.2:24252
18	0-20500-0-10808	0	19	['2:10808']	3	COCLE DEL NORTE			0	-79.43	9.08		19450408	19450425	1	0	63	NMS	9	Puerto Escondido									[106, 107]							L.Haimberger	0	125.3	2012.2	54.4	era5.1761.conv.2:10808
19	0-20000-0-43230	0	20	['2:43230']	3	DAVANGERE			0	75.92	14.5		19510219	19510228	1	0	63	NMS		Seoul									[106, 107]							L.Haimberger	0	5699.6		124.5	era5.1761.conv.2:43230
20	0-20000-0-50745	0	21	['1:50745']	3	QIQIHAR			0	123.92	47.38		19570301	19591231	1	0	63	NMS		Qiqihar									[106, 107]							L.Haimberger	0	5.6		3.1	era5.1761.conv.1:50745
21	0-20000-0-68263	0	22	['1:68262']	3	PRETORIA (IRENE)			0	28.21	-25.91		19570701	19581221	1	0	63	NMS		Pretoria									[85, 117]							L.Haimberger	0	20.2		5.6	era5.1761.conv.1:68262
22	0-20000-0-94610	0	23	['1:94612']	3	PERTH AIRPORT			0	115.98	-31.93		19491123	19520627	1	0	63	NMS		Perth									[85, 117]							L.Haimberger	0	29.1		34.7	era5.1761.conv.1:94612
23	0-20000-0-98426	0	24	['2:41206']	3	SUBIC BAY WEATHER STATION			0	120.28	14.81		19450305	19450630	1	0	63	NMS		Castillejos									[106, 107]							L.Haimberger	0	19.7		4.4	era5.1761.conv.2:41206
24	0-20000-0-17351	0	25	['2:33307']	3	ADANA/BOLGE			0	35.34	37.0		19450411	19460117	1	0	63	NMS	210	Adana									[106, 107]							L.Haimberger	0	4.2		3.5	era5.1761.conv.2:33307
25	0-20000-0-81225	0	26	['2:10509']	3	ZANDERIJ			0	-55.2	5.45		19430622	19440801	1	0	63	NMS		Lelydorp									[106, 107]							L.Haimberger	0	2.2		25.7	era5.1761.conv.2:10509
26	0-20000-0-48062	0	27	['9:1745']	3	SITTWE			0	92.88	20.13		19460502	19481224	1	0	63	NMS		Akyab									[106, 107]							L.Haimberger	0	4.2		3.0	era5.1761.conv.9:1745
27	0-20000-0-68906	0	28	['1:68906']	3	GOUGH ISLAND			0	-9.88	-40.35		19570701	19581231	1	0	63	NMS	30	None									[85, 117]							L.Haimberger	0	0.0		None	era5.1761.conv.1:68906
28	0-20000-0-43317	0	29	['2:43317']	3	UDHAGAMANDALAM			0	76.73	11.4		19510111	19530407	1	0	63	NMS		Yukuhashi									[106, 107]							L.Haimberger	0	6025.4		8.3	era5.1761.conv.2:43317
29	0-20000-0-72231	0	30	['2:93906']	3	NEW ORLEANS/MOISANT INT., LA.			0	-90.25	29.98		19421102	19450731	1	0	63	NMS		New Orleans									[106, 107]							L.Haimberger	0	18.2		8.4	era5.1761.conv.2:93906
30	0-20500-0-26632	0	31	['2:26632']	3	NORTHEAST CAPE			0	-167.07	63.32		19540812	19560823	1	0	63	NMS		None									[106, 107]							L.Haimberger	0	93.2	14049.0	None	era5.1761.conv.2:26632
31	0-20000-0-47937	0	32	['2:42210']	3	NAHA/ITOKAZU			0	127.76	26.15		19451102	19470929	1	0	63	NMS		Nishihara									[106, 107]							L.Haimberger	0	5.6		1.8	era5.1761.conv.2:42210
32	0-20000-0-82193	0	33	['1:82191']	3	BELEM (AERO)			0	-48.48	-1.38		19431009	19450331	1	0	63	NMS		Belem									[85, 117]							L.Haimberger	0	3.1		5.8	era5.1761.conv.1:82191
33	0-404-300-472781389CO63741	0	34	['1:63740']	3	DAGORETTI CORNER			0	36.76	-1.3		19570401	19570930	1	0	63	NMS		Nairobi									[85, 117]							L.Haimberger	0	8.1		1.5	era5.1761.conv.1:63740
34	0-20000-2-29842	0	35	['9:3864']	3	Novokuznetsk			0	87.1	53.9		19550102	19561230	1	0	63	NMS		Novokuznetsk									[117]							L.Haimberger	0	16.8		8.1	era5.1761.conv.9:3864
35	0-20000-0-56571	0	36	['2:42011']	3	XICHANG			0	102.27	27.9		19440806	19441228	1	0	63	NMS		Xichang									[106, 107]							L.Haimberger	0	3.7		4.4	era5.1761.conv.2:42011
36	0-20500-0-50405	0	37	['2:50405']	3	IGARAPE			0	-46.38	-0.93		19440502	19450331	1	0	63	NMS		Igarape-Acu									[106, 107]							L.Haimberger	0	138.9	260.7	5.2	era5.1761.conv.2:50405
37	0-20500-0-41215	0	38	['2:41215']	3	NACOCO AAF			0	121.83	13.37		19450726	19451111	1	0	63	NMS		Victoria									[106, 107]							L.Haimberger	0	0.0	2957.3	63.5	era5.1761.conv.2:41215
38	0-20001-0-72662	0	39	['2:24006']	3	RAPID CITY WFO, SD.			0	-103.21	44.07		19510220	19510228	1	0	63	NMS		Rapid City									[106, 107]							L.Haimberger	0	12.5		13.0	era5.1761.conv.2:24006
39	0-20500-0-24204	0	40	['2:24204']	3	MADRAS AAF			0	-120.83	44.67		19440514	19440514	1	0	63	NMS		Redmond									[106, 107]							L.Haimberger	0	27.0	9896.6	44.1	era5.1761.conv.2:24204
40	0-20000-0-78397	0	41	['2:11707']	3	KINGSTON/NORMAN MANLEY			0	-76.78	17.93		19430712	19431231	1	0	63	NMS	9	Half Way Tree									[106, 107]							L.Haimberger	0	16.1		23.3	era5.1761.conv.2:11707
41	0-20500-0-26440	0	42	['2:26440']	3	TANACROSS			0	-142.68	63.4		19410602	19420329	1	0	63	NMS		None									[106, 107]							L.Haimberger	0	2.3	14063.7	None	era5.1761.conv.2:26440
42	0-20001-0-72202	0	43	['2:12826']	3	MIAMI, FL (72202-1)			0	-80.38	25.75		19450601	19450914	1	0	63	NMS	9	Leisure City									[106, 107]							L.Haimberger	0	29.9		5.2	era5.1761.conv.2:12826
43	0-20000-0-41977	0	44	['9:1742']	3	CHITTAGONG (AMBAGAN)			0	91.82	22.35		19440111	19481229	1	0	63	NMS		Patiya									[106, 107]							L.Haimberger	0	1.0		16.1	era5.1761.conv.9:1742
44	0-20500-0-20701	0	45	['2:20701']	3	BAKER ISLAND AAF			0	-175.53	0.22		19431021	19450930	1	0	63	NMS		None									[106, 107]							L.Haimberger	0	104.6	115.4	None	era5.1761.conv.2:20701
45	0-20000-0-01192	0	46	['9:4178']	3	STRAUMSNES			0	17.66	68.43		19400929	19410628	1	0	63	NMS		Narvik									[85, 117]							L.Haimberger	0	7.9		4.6	era5.1761.conv.9:4178
46	0-20000-0-04211	0	47	['2:17501']	3	MITTARFIK UPERNAVIK (UPERNAVIK LUFTHAVN)			0	-56.13	72.78		19431201	19431201	1	0	63	NMS		None									[106, 107]							L.Haimberger	0	5.5		None	era5.1761.conv.2:17501
47	0-20000-0-91231	0	48	['2:41413']	3	TINIAN, MARIANA ISLANDS			0	145.63	15.0		19441202	19451130	1	0	63	NMS		None									[106, 107]							L.Haimberger	0	0.0		None	era5.1761.conv.2:41413
48	0-20001-0-53845	0	49	['2:43002']	3	YAN AN (53845-1)			0	109.45	36.57		19441123	19460323	1	0	63	NMS		Yanan									[106, 107]							L.Haimberger	0	5.5		9.5	era5.1761.conv.2:43002
49	0-20000-0-54511	0	50	['2:43104']	3	BEIJING			0	116.28	39.93		19451101	19460403	1	0	63	NMS		Peking									[106, 107]							L.Haimberger	0	12.0		2.9	era5.1761.conv.2:43104
50	0-20500-0-12823	0	51	['2:12823']	3	MONTBROOK AAF			0	-81.53	29.35		19440123	19440310	1	0	63	NMS	9	Gainesville									[106, 107]							L.Haimberger	0	91.3	6496.9	36.2	era5.1761.conv.2:12823
51	0-20000-0-94997	0	52	['1:94997']	3	HEARD ISLAND (THE SPIT)			0	73.72	-53.11		19480914	19480914	1	0	63	NMS	83	None									[85, 117]							L.Haimberger	0	24.9		None	era5.1761.conv.1:94997
52	0-20000-0-54534	0	53	['1:54534']	3	TANGSHAN			0	118.1	39.65		19570303	19591231	1	0	63	NMS		Fengrun									[106, 107]							L.Haimberger	0	2.8		18.1	era5.1761.conv.1:54534
53	0-20000-0-43011	0	54	['2:43011']	3	BIR			0	75.72	19.0		19451101	19451216	1	0	63	NMS		Pingliang									[106, 107]							L.Haimberger	0	3499.7		51.0	era5.1761.conv.2:43011
54	0-20000-0-70026	0	55	['2:27504']	3	BARROW/W. POST W. ROGERS			0	-156.78	71.29		19530901	19530930	1	0	63	NMS		None									[106, 107]							L.Haimberger	0	6.4		None	era5.1761.conv.2:27504
55	0-20500-0-93121	0	56	['2:93121']	3	TWENTYNINE PALM NAAS			0	-115.95	34.22		19441003	19451026	1	0	63	NMS		Twentynine Palms									[106, 107]							L.Haimberger	0	9.2	7576.1	9.4	era5.1761.conv.2:93121
56	0-20001-0-57816	0	57	['2:42029']	3	GUIYANG (57816-1)			0	106.65	26.48		19450819	19450831	1	0	63	NMS		Guiyang									[106, 107]							L.Haimberger	0	5.9		7.5	era5.1761.conv.2:42029
57	0-20500-0-24247	0	58	['2:24247']	3	ARLINGTON NAAS			0	-121.82	48.2		19441001	19441231	1	0	63	NMS		North Marysville									[106, 107]							L.Haimberger	0	26.8	10681.4	11.4	era5.1761.conv.2:24247
58	0-20300-0-93204	0	59	['2:23241']	3	HOLLISTER			0	-121.4	36.8333		19441018	19451011	1	0	63	NMS		Hollister									[106, 107]							L.Haimberger	0	5.2		3.1	era5.1761.conv.2:23241
59	0-20500-0-14791	0	60	['2:14791']	3	SANFORD			0	-69.25	43.4		19431002	19451015	1	0	63	NMS	9	Sanford									[106, 107]							L.Haimberger	0	121.5	9615.5	4.8	era5.1761.conv.2:14791
60	0-20000-0-41533	0	61	['9:4192']	3	RISALPUR			0	71.98	34.07		19390628	19391217	1	0	63	NMS		Risalpur									[38, 85, 117]							L.Haimberger	0	0.0		1.4	era5.1761.conv.9:4192
61	0-20000-0-47660	0	62	['2:43307']	3	TACHIKAWA AB			0	139.4	35.71		19520803	19540526	1	0	63	NMS		Tachikawa									[106, 107]							L.Haimberger	0	1.1		1.8	era5.1761.conv.2:43307
62	0-20000-0-66285	0	63	['1:66285']	3	LUENA (LUSO)			0	19.92	-11.78		19560102	19591223	1	0	63	NMS	150	Luena									[85, 117]							L.Haimberger	0	1.1		0.8	era5.1761.conv.1:66285
63	0-20000-0-70162	0	64	['2:26506']	3	UMIAT			0	-152.13	69.37		19450505	19460723	1	0	63	NMS		College									[106, 107]							L.Haimberger	0	0.0		536.9	era5.1761.conv.2:26506
64	0-705-0-1884	0	65	['9:1884']	3	GORNJI GRAD			0	14.81	46.3		19540721	19560105	1	0	63	NMS	243	Male									[106, 107]							L.Haimberger	0	7308.7		0.4	era5.1761.conv.9:1884
65	0-20000-0-40305	0	66	['2:40305']	3	JAFER			0	36.15	30.28		19450317	19470531	1	0	63	NMS		Koror									[106, 107]							L.Haimberger	0	10397.0		45.0	era5.1761.conv.2:40305
66	0-20000-0-43003	0	67	['2:31702']	3	BOMBAY / SANTACRUZ			0	72.85	19.12		19441221	19451124	1	0	63	NMS		Bombay									[106, 107]							L.Haimberger	0	5.4		12.9	era5.1761.conv.2:31702
67	0-20000-0-47777	0	68	['1:47777']	3	WAKAYAMA			0	135.16	34.23		19371111	19410227	1	0	63	NMS		Kainan									[106, 107]							L.Haimberger	0	0.9		9.3	era5.1761.conv.1:47777
68	0-20000-0-47616	0	69	['1:47616']	3	FUKUI			0	136.22	36.06		19380601	19410625	1	0	63	NMS		Maruoka									[106, 107]							L.Haimberger	0	1.4		11.6	era5.1761.conv.1:47616
69	0-20000-0-41217	0	70	['2:41217']	3	ABU DHABI INTERNATIONAL AIRPORT			0	54.65	24.43		19450804	19450916	1	0	63	NMS	132	Claveria									[106, 107]							L.Haimberger	0	6901.3		51.5	era5.1761.conv.2:41217
70	0-20000-0-60360	0	71	['2:33034']	3	ANNABA			0	7.82	36.83		19450701	19450701	1	0	63	NMS	68	Tabarqah									[106, 107]							L.Haimberger	0	1.8		86.5	era5.1761.conv.2:33034
71	0-20000-0-72288	0	72	['2:23150']	3	BURBANK, CA			0	-118.36	34.2		19440628	19440706	1	0	63	NMS		Burbank									[106, 107]							L.Haimberger	0	4.3		1.1	era5.1761.conv.2:23150
72	0-20000-0-91170	0	73	['2:22513']	3	WAHIAWA (WHEELER/SCHOFIELD), OAHU,  HAWAII			0	-158.03	21.48		19290130	19350623	1	0	63	NMS		Hilo									[106, 107]							L.Haimberger	0	2.4		99.9	era5.1761.conv.2:22513
73	0-20000-0-82400	0	74	['2:50310']	3	FERNANDO DE NORONHA			0	-32.42	-3.85		19440601	19440731	1	0	63	NMS		Sao Miguel									[106, 107]							L.Haimberger	0	0.0		372.6	era5.1761.conv.2:50310
74	0-20000-0-58813	0	75	['2:42109']	3	GUANGCHANG			0	116.3	26.83		19450901	19451014	1	0	63	NMS		Shaowu									[106, 107]							L.Haimberger	0	8.3		129.0	era5.1761.conv.2:42109
75	0-20400-0-5492	0	76	['9:3354']	3	Abisko			0	18.8	68.26		19300917	19410222	1	0	63	NMS		Narvik									[85, 117]							L.Haimberger	0	0.0		59.5	era5.1761.conv.9:3354
76	0-20000-0-47041	0	77	['2:43235']	3	HAMHEUNG			0	127.55	39.93		19501113	19501205	1	0	63	NMS		Linjiang									[106, 107]							L.Haimberger	0	16.7		231.1	era5.1761.conv.2:43235
77	0-20000-0-57957	0	78	['2:42102']	3	GUILIN			0	110.3	25.33		19440327	19440811	1	0	63	NMS		Guilin									[106, 107]							L.Haimberger	0	13.1		12.9	era5.1761.conv.2:42102
78	0-20300-0-12863	0	79	['2:12807']	3	BURRWOOD			0	-89.3667	28.9833		19420803	19440201	1	0	63	NMS	9	Estelle									[106, 107]							L.Haimberger	0	3.7		122.3	era5.1761.conv.2:12807
79	0-20000-0-72314	0	80	['2:13831']	3	CHARLOTTE/DOUGLAS, NC.			0	-80.93	35.22		19420301	19441030	1	0	63	NMS	9	Charlotte									[106, 107]							L.Haimberger	0	2.9		10.2	era5.1761.conv.2:13831
80	0-20000-0-74500	0	81	['2:23224']	3	SHERIDAN, CA			0	-121.33	39.0		19480101	19480430	1	0	63	NMS		North Auburn									[85, 117]							L.Haimberger	0	23.2		2.3	era5.1761.conv.2:23224
81	0-20300-0-14704	0	82	['2:14785']	3	FALMOUTH OTIS AFB			0	-70.5167	41.65		19431201	19440930	1	0	63	NMS	9	Falmouth									[106, 107]							L.Haimberger	0	29.1		16.8	era5.1761.conv.2:14785
82	0-20000-0-32540	0	83	['2:45501']	3	PETROPAVLOVSK-KAMCHATSKIJ (32540-0)			0	158.58	53.08		19451021	19451214	1	0	63	NMS		Petropavlovsk-Kamchatskiy									[106, 107]							L.Haimberger	0	0.7		6.5	era5.1761.conv.2:45501
83	0-20000-0-42206	0	84	['2:42206']	3	HALDIA			0	88.07	22.07		19520915	19530212	1	0	63	NMS		Tomigusuku									[106, 107]							L.Haimberger	0	4033.8		3.0	era5.1761.conv.2:42206
84	0-20500-0-33201	0	85	['2:33201']	3	GAMBUT			0	24.6	31.87		19440121	19440222	1	0	63	NMS	64	Tubruq									[106, 107]							L.Haimberger	0	0.0	7054.9	63.5	era5.1761.conv.2:33201
85	0-20000-0-74631	0	86	['1:74631']	3	White Sands Rhodes Canyon			0	-106.49	33.16		19551122	19610124	1	0	63	NMS		Alamogordo									[85, 117]							L.Haimberger	0	2.4		57.7	era5.1761.conv.1:74631
86	0-20001-0-72202	0	87	['2:12848']	3	MIAMI, FL (72202-1)			0	-80.38	25.75		19440505	19450228	1	0	63	NMS	9	Coral Gables									[106, 107]							L.Haimberger	0	15.2		4.0	era5.1761.conv.2:12848
87	0-20300-0-14725	0	88	['2:14779']	3	FT. MONMOUTH			0	-74.05	40.3		19471204	19481031	1	0	63	NMS	9	Eatontown									[85, 106, 107, 117]							L.Haimberger	0	0.0		0.4	era5.1761.conv.2:14779
88	0-20000-0-71707	0	89	['2:14646']	3	SYDNEY A, NS			0	-60.05	46.17		19550701	19581230	1	0	63	NMS		Glace Bay									[106, 107]							L.Haimberger	0	0.0		7.2	era5.1761.conv.2:14646
89	0-20000-0-57245	0	90	['2:43013']	3	ANKANG			0	109.03	32.72		19450502	19450814	1	0	63	NMS		Ankang									[106, 107]							L.Haimberger	0	25.8		24.5	era5.1761.conv.2:43013
90	0-20000-0-98646	0	91	['2:41222']	3	MACTAN			0	123.98	10.32		19460101	19460331	1	0	63	NMS		Lapu-Lapu									[106, 107]							L.Haimberger	0	3.3		1.1	era5.1761.conv.2:41222
91	0-20000-0-42809	0	92	['9:4197']	3	KOLKATA/DUM DUM			0	88.45	22.65		19410430	19410516	1	0	63	NMS		Calcutta									[38, 85, 117]							L.Haimberger	0	12.1		0.0	era5.1761.conv.9:4197
92	0-20300-0-94775	0	93	['2:14782']	3	POINT JUDITH			0	-71.4833	41.3667		19430804	19470429	1	0	63	NMS	9	Westerly									[106, 107]							L.Haimberger	0	16.1		14.2	era5.1761.conv.2:14782
93	0-20500-0-31301	0	94	['2:31301']	3	GURA			0	39.05	15.03		19430424	19431231	1	0	63	NMS		Addi Ugri									[106, 107]							L.Haimberger	0	0.0	3324.6	29.8	era5.1761.conv.2:31301
94	0-20000-0-72242	0	95	['2:12929']	3	GALVESTON, TX.			0	-94.8	29.3		19430706	19431031	1	0	63	NMS		Santa Fe									[106, 107]							L.Haimberger	0	26.8		4.6	era5.1761.conv.2:12929
95	0-20000-0-42415	0	96	['1:42415']	3	TEZPUR			0	92.78	26.62		19560606	19600808	1	0	63	NMS		Tezpur									[106, 107]							L.Haimberger	0	0.0		2.5	era5.1761.conv.1:42415
96	0-20000-0-07761	0	97	['2:34003']	3	AJACCIO			0	8.79	41.92		19440701	19441019	1	0	63	NMS	68	Ajaccio									[106, 107]							L.Haimberger	0	0.8		5.5	era5.1761.conv.2:34003
97	0-20000-0-47933	0	98	['2:42205']	3	FUTENMA			0	127.76	26.27		19450331	19450531	1	0	63	NMS		Urasoe									[106, 107]							L.Haimberger	0	10.6		9.0	era5.1761.conv.2:42205
98	0-20000-0-41923	0	99	['2:32946']	3	DHAKA			0	90.38	23.77		19450303	19451223	1	0	63	NMS		Dhaka									[106, 107]							L.Haimberger	0	1.1		6.9	era5.1761.conv.2:32946
99	0-20000-0-70308	0	100	['2:25705']	3	ST. PAUL ISLANDS, AK			0	-170.22	57.15		19440404	19451014	1	0	63	NMS		None									[106, 107]							L.Haimberger	0	3.8		None	era5.1761.conv.2:25705
100	0-20000-0-07684	0	101	['2:34007']	3	CANNES			0	6.95	43.56		19440819	19440821	1	0	63	NMS	68	Frejus									[106, 107]							L.Haimberger	0	23.1		11.0	era5.1761.conv.2:34007
101	0-20000-0-17064	0	102	['2:34201']	3	ISTANBUL BOLGE (KARTAL)			0	29.16	40.91		19450601	19460228	1	0	63	NMS	192	Istanbul									[106, 107]							L.Haimberger	0	25.3		9.6	era5.1761.conv.2:34201
102	0-20300-0-20357	0	103	['9:3778']	3	RUSSKAJA GAVAN			0	62.5667	76.1833		19530219	19541231	1	0	63	NMS	190	None									[117]							L.Haimberger	0	26.5		None	era5.1761.conv.9:3778
103	0-20000-0-41640	0	104	['9:4195']	3	LAHORE CITY			0	74.33	31.55		19390508	19400627	1	0	63	NMS		Lahore									[38, 85, 117]							L.Haimberger	0	7.4		6.3	era5.1761.conv.9:4195
104	0-20000-0-54012	0	105	['1:54012']	3	XI UJIMQIN QI			0	117.6	44.58		19570316	19591231	1	0	63	NMS		Chifeng									[106, 107]							L.Haimberger	0	33.3		278.0	era5.1761.conv.1:54012
105	0-20000-0-40672	0	106	['1:40672']	3	DIWANIYA			0	44.95	31.95		19490213	19560531	1	0	63	NMS		Baghdad									[106, 107]							L.Haimberger	0	4.4		160.4	era5.1761.conv.1:40672
106	0-20000-0-58238	0	107	['2:43102']	3	NANJING			0	118.9	31.93		19450908	19451220	1	0	63	NMS		Nanjing									[106, 107]							L.Haimberger	0	21.9		3.3	era5.1761.conv.2:43102
107	0-20500-0-14801	0	108	['2:14801']	3	BATTLE CK KLG FD ANG			0	-84.75	42.3		19430617	19450124	1	0	63	NMS	9	Battle Creek									[106, 107]							L.Haimberger	0	41.2	9370.1	6.3	era5.1761.conv.2:14801
108	0-20000-0-71822	0	109	['2:4732']	3	CHIBOUGAMAU-CHAPAIS A, QUE			0	-74.53	49.77		19550701	19581230	1	0	63	NMS	9	Dolbeau									[106, 107]							L.Haimberger	0	10.4		191.6	era5.1761.conv.2:4732
109	0-20000-0-02464	0	110	['9:4187']	3	STOCKHOLM/BROMMA			0	17.9	59.37		19361119	19371217	1	0	63	NMS		Solna									[85, 117]							L.Haimberger	0	3.6		4.2	era5.1761.conv.9:4187
110	0-20000-0-74629	0	111	['2:23037']	3	White Sands Desert Site			0	-106.37	32.4		19460528	19461025	1	0	63	NMS		Alamogordo									[106, 107]							L.Haimberger	0	20.7		58.2	era5.1761.conv.2:23037
111	0-20000-0-43009	0	112	['2:43009']	3	AHMADNAGAR			0	74.8	19.08		19451201	19460322	1	0	63	NMS		Lanzhou									[106, 107]							L.Haimberger	0	3398.0		7.3	era5.1761.conv.2:43009
112	0-20500-0-50404	0	113	['2:50404']	3	IGARAPE			0	-46.38	-0.93		19450516	19450919	1	0	63	NMS		Igarape-Acu									[106, 107]							L.Haimberger	0	138.9	260.7	5.2	era5.1761.conv.2:50404
113	0-20500-0-4116	0	114	['9:4116']	3	SALT LAKE CITY MUNICIPAL 2 AIR			0	-110.01	40.62		19570701	19571119	1	0	63	NMS		None									[85, 117]							L.Haimberger	0	16236.6	7346.1	None	era5.1761.conv.9:4116
114	0-20000-0-16261	0	115	['2:34133']	3	AMENDOLA			0	15.71	41.54		19450401	19450531	1	0	63	NMS		Cerignola									[106, 107]							L.Haimberger	0	28.5		6.9	era5.1761.conv.2:34133
115	0-20000-0-61986	0	116	['1:61986']	3	ST. BRANDON (RAPHAEL ISLAND)			0	59.62	-16.45		19530417	19561231	1	0	63	NMS		Goodlands									[106, 107]							L.Haimberger	0	7.5		445.1	era5.1761.conv.1:61986
116	0-20000-0-78439	0	117	['2:11701']	3	PORT-AU-PRINCE/AEROPORT INT.			0	-72.3	18.57		19450301	19451231	1	0	63	NMS	9	Port-Au-Prince									[106, 107]							L.Haimberger	0	5.7		2.0	era5.1761.conv.2:11701
117	0-20000-0-10658	0	118	['2:35107']	3	BAD KISSINGEN			0	10.08	50.22		19471001	19471028	1	0	63	NMS	205	Schweinfurt									[106, 107]							L.Haimberger	0	20.0		4.5	era5.1761.conv.2:35107
118	0-20000-0-91801	0	119	['9:2230']	3	PENRHYN			0	-158.05	-9.03		19530720	19580228	1	0	63	NMS		None									[106, 107]							L.Haimberger	0	2.5		None	era5.1761.conv.9:2230
119	0-20000-0-42708	0	120	['2:32802']	3	SHANTI NIKETAN			0	87.7	23.65		19441023	19441030	1	0	63	NMS		Guskhara									[106, 107]							L.Haimberger	0	21.5		4.5	era5.1761.conv.2:32802
120	0-20001-0-72429	0	121	['2:13813']	3	DAYTON/WRIGHT-PATTERSON AFB, OH.			0	-84.05	39.83		19440619	19441018	1	0	63	NMS	9	Riverside									[106, 107]							L.Haimberger	0	5.4		3.1	era5.1761.conv.2:13813
121	0-20300-0-13715	0	122	['2:13715']	3	UNIONTOWN BURGESS FIELD			0	-79.75	39.8333		19270130	19320922	1	0	63	NMS	9	Cumberland									[106, 107]							L.Haimberger	0	121.6		42.0	era5.1761.conv.2:13715
122	0-20300-0-50873	0	123	['9:1404']	3	CHIAMUSSU			0	130.333	46.817		19570301	19591105	1	0	63	NMS		Jiamusi									[106, 107]							L.Haimberger	0	0.4		2.1	era5.1761.conv.9:1404
123	0-20001-0-52866	0	124	['1:52866']	3	XINING (52866-1)			0	101.72	36.65		19570302	19591231	1	0	63	NMS		Xining									[106, 107]							L.Haimberger	0	19.5		14.3	era5.1761.conv.1:52866
124	0-20000-0-47675	0	125	['1:47675']	3	OSHIMA			0	139.36	34.75		19420801	19441016	1	0	63	NMS		Ito									[106, 107]							L.Haimberger	0	2.9		34.8	era5.1761.conv.1:47675
125	0-20000-0-72521	0	126	['2:14896']	3	AKRON/AKRON-CANTON REG. OH.			0	-81.43	40.92		19480609	19510829	1	0	63	NMS	9	Akron									[106, 107]							L.Haimberger	0	12.9		6.6	era5.1761.conv.2:14896
126	0-20000-0-16168	0	127	['2:34127']	3	MONTE ARGENTARIO			0	11.17	42.39		19440624	19440718	1	0	63	NMS	57	Orbetello									[106, 107]							L.Haimberger	0	9.4		4.9	era5.1761.conv.2:34127
127	0-20000-0-74389	0	128	['2:14784']	3	GRAY, ME.			0	-70.26	43.89		19430903	19450814	1	0	63	NMS	9	Auburn									[106, 107]							L.Haimberger	0	17.8		5.5	era5.1761.conv.2:14784
128	0-20000-0-26063	0	129	['9:3836']	3	ST.PETERSBURG (VOEJKOVO) (26063-0)			0	30.3	59.97		19540103	19561231	1	0	63	NMS	107	Saint Petersburg									[85, 117]							L.Haimberger	0	4.5		4.7	era5.1761.conv.9:3836
129	0-20300-0-03995	0	130	['9:1403']	3	ULANHOT			0	122.05	46.22		19570301	19591230	1	0	63	NMS		Wulanhaote									[106, 107]							L.Haimberger	0	0.0		15.4	era5.1761.conv.9:1403
130	0-20000-0-72712	0	131	['2:14623']	3	CARIBOU/MUN., ME.			0	-68.01	46.87		19510220	19520326	1	0	63	NMS	9	Edmundston									[106, 107]							L.Haimberger	0	13.3		57.7	era5.1761.conv.2:14623
131	0-20500-0-13709	0	132	['2:13709']	3	MILLVILLE AAF			0	-74.93	39.37		19440111	19450926	1	0	63	NMS	9	Millville									[106, 107]							L.Haimberger	0	12.1	8719.2	4.4	era5.1761.conv.2:13709
132	0-20000-0-59431	0	133	['2:42007']	3	NANNING			0	108.55	22.78		19440629	19450908	1	0	63	NMS		Nanning									[106, 107]							L.Haimberger	0	25.8		2.5	era5.1761.conv.2:42007
133	0-20000-0-74619	0	134	['2:3126']	3	SUPERIOR VALLEY GUNNERY RANGE, CA			0	-117.1	36.33		19550208	19550331	1	0	63	NMS		Pahrump									[106, 107]							L.Haimberger	0	25.1		85.6	era5.1761.conv.2:3126
134	0-20000-0-78092	0	135	['2:12704']	3	GEORGE TOWN, EXUMA			0	-75.77	23.5		19450623	19450715	1	0	63	NMS	9	Nassau									[106, 107]							L.Haimberger	0	2.0		239.0	era5.1761.conv.2:12704
135	0-20000-0-92035	0	136	['9:4129']	3	PORT MORESBY W.O.			0	147.22	-9.38		19440305	19771001	1	0	63	NMS		Port Moresby									[85, 117]							L.Haimberger	0	5.6		4.3	era5.1761.conv.9:4129
136	0-20000-0-43005	0	137	['2:43005']	3	T.B.I.A			0	72.0	19.15		19450301	19451020	1	0	63	NMS		Wanxian									[106, 107]							L.Haimberger	0	3816.4		59.1	era5.1761.conv.2:43005
137	0-20500-0-13950	0	138	['2:13950']	3	BROWNWOOD AAF			0	-97.05	31.78		19440901	19520409	1	0	63	NMS		Brownwood									[106, 107]							L.Haimberger	0	180.0	7037.8	8.8	era5.1761.conv.2:13950
138	0-20000-0-74492	0	139	['2:14790']	3	BLUE HILL OBS. MA.			0	-71.12	42.22		19420601	19451128	1	0	63	NMS	9	Rockland									[106, 107]							L.Haimberger	0	17.5		2.4	era5.1761.conv.2:14790
139	0-20300-0-24203	0	140	['2:24203']	3	EVERETT (PAINE FIELD)			0	-122.2833	47.9		19430718	19450620	1	0	63	NMS		Mukilteo									[106, 107]							L.Haimberger	0	0.2		5.3	era5.1761.conv.2:24203
140	0-20500-0-24253	0	141	['2:24253']	3	SHELTON NAAS			0	-122.87	47.25		19440301	19450912	1	0	63	NMS		Olympia									[106, 107]							L.Haimberger	0	19.7	10470.1	29.3	era5.1761.conv.2:24253
141	0-20000-0-72309	0	142	['2:13768']	3	CHERRY POINT/MCAS, NC.			0	-76.88	34.85		19411103	19411209	1	0	63	NMS	9	New Bern									[106, 107]							L.Haimberger	0	29.9		3.2	era5.1761.conv.2:13768
142	0-20000-0-56492	0	143	['2:42012']	3	YIBIN			0	104.6	28.77		19440404	19450829	1	0	63	NMS		Yibin									[106, 107]							L.Haimberger	0	8.8		13.5	era5.1761.conv.2:42012
143	0-20000-0-04360	0	144	['2:16301']	3	TASIILAQ (AMMASSALIK)			0	-37.64	65.61		19420822	19430528	1	0	63	NMS		None									[106, 107]							L.Haimberger	0	4.3		None	era5.1761.conv.2:16301
144	0-20500-0-32926	0	145	['2:32926']	3	WARAZUP			0	96.65	25.8		19450218	19450614	1	0	63	NMS		Myitkyina									[106, 107]							L.Haimberger	0	0.0	5709.4	88.4	era5.1761.conv.2:32926
145	0-20000-0-87938	0	146	['1:87938']	3	USHUAIA AERO			0	-68.3	-54.84		19570901	19580509	1	0	63	NMS		Ushuaia									[85, 117]							L.Haimberger	0	4.5		0.6	era5.1761.conv.1:87938
146	0-20000-0-98637	0	147	['2:41214']	3	ILOILO			0	122.58	10.77		19450605	19450820	1	0	63	NMS		Iloilo									[106, 107]							L.Haimberger	0	5.6		2.6	era5.1761.conv.2:41214
147	0-20000-0-80426	0	148	['2:80426']	3	VALERA			0	-70.62	9.35		19440107	19440921	1	0	63	NMS	9	Kimbe									[106, 107]							L.Haimberger	0	15651.6		140.6	era5.1761.conv.2:80426
148	0-20300-0-13937	0	149	['2:13937']	3	DE RIDDER (AFB)			0	-93.3667	30.8333		19421213	19450322	1	0	63	NMS		Sulphur									[106, 107]							L.Haimberger	0	0.5		65.8	era5.1761.conv.2:13937
149	0-20500-0-32939	0	150	['2:32939']	3	BAHE			0	96.57	23.38		19450212	19450331	1	0	63	NMS		Mogok									[106, 107]							L.Haimberger	0	0.0	5173.2	51.8	era5.1761.conv.2:32939
150	0-20000-0-78970	0	151	['2:11605']	3	PIARCO INT. AIRPORT,  TRINIDAD			0	-61.35	10.62		19430323	19431020	1	0	63	NMS		Chaguanas									[106, 107]							L.Haimberger	0	14.4		2.6	era5.1761.conv.2:11605
151	0-20000-0-60135	0	152	['2:13009']	3	RABAT-SALE			0	-6.76	34.05		19430114	19430314	1	0	63	NMS	227	Rabat									[106, 107]							L.Haimberger	0	7.3		7.5	era5.1761.conv.2:13009
152	0-20000-0-72315	0	153	['2:13842']	3	ASHEVILLE/MUN., NC.			0	-82.55	35.43		19440310	19450131	1	0	63	NMS	9	Hendersonville									[106, 107]							L.Haimberger	0	7.3		12.4	era5.1761.conv.2:13842
153	0-20500-0-42004	0	154	['2:42004']	3	YANGKAI			0	103.08	25.5		19440329	19451031	1	0	63	NMS		Kunming									[106, 107]							L.Haimberger	0	0.0	5642.9	62.7	era5.1761.conv.2:42004
154	0-20000-0-50353	0	155	['1:50353']	3	HUMA			0	126.63	51.73		19570301	19591231	1	0	63	NMS		Shimanovsk									[106, 107]							L.Haimberger	0	7.5		85.5	era5.1761.conv.1:50353
155	0-20500-0-43010	0	156	['2:43010']	3	LANCHOW			0	103.5	36.6		19450801	19451231	1	0	63	NMS		Baiyin									[106, 107]							L.Haimberger	0	0.0	8104.2	63.5	era5.1761.conv.2:43010
156	0-20500-0-15606	0	157	['2:15606']	3	INDIAN HOUSE LAKE			0	-63.27	56.23		19440928	19581228	1	0	63	NMS		None									[106, 107]							L.Haimberger	0	90.6	12469.0	None	era5.1761.conv.2:15606
157	0-20500-0-25708	0	158	['2:25708']	3	ATKA ISLAND			0	-173.8	52.22		19440706	19451007	1	0	63	NMS		None									[106, 107]							L.Haimberger	0	27.3	11575.7	None	era5.1761.conv.2:25708
158	0-20500-0-22512	0	159	['2:22512']	3	LUKE FIELD AAF			0	-156.03	21.37		19310831	19331220	1	0	63	NMS		Kahului									[106, 107]							L.Haimberger	0	0.0	4728.1	69.7	era5.1761.conv.2:22512
159	0-20500-0-16601	0	160	['2:16601']	3	LAKE HARBOUR			0	-68.1	62.83		19440126	19450330	1	0	63	NMS	9	None									[106, 107]							L.Haimberger	0	91.7	13939.7	None	era5.1761.conv.2:16601
160	0-20000-0-72289	0	161	['9:154']	3	MOUNT WILSON, CA.			0	-118.07	34.23		19181104	19211001	1	0	63	NMS		Arcadia									[106, 107]							L.Haimberger	0	11.7		1.2	era5.1761.conv.9:154
161	0-20500-0-26304	0	162	['2:26304']	3	SWIFT RIVER			0	-130.82	60.0		19441015	19450228	1	0	63	NMS		Whitehorse									[106, 107]							L.Haimberger	0	20.1	13308.2	228.0	era5.1761.conv.2:26304
162	0-620-2001-08515	0	163	['2:13203']	3	SANTA MARIA (ACORES)			0	-25.17	36.97		19441109	19460909	1	0	63	NMS		Ponta Delgada									[106, 107]							L.Haimberger	0	0.0		95.5	era5.1761.conv.2:13203
163	0-20000-0-02851	0	164	['9:4169']	3	OULU OULUNSALO PELLONPAA			0	25.37	64.94		19440914	19441124	1	0	63	NMS	177	Oulu									[85, 117]							L.Haimberger	0	5.0		5.3	era5.1761.conv.9:4169
164	0-20000-0-47938	0	165	['2:42203']	3	IEJIMA (US BASE)			0	127.78	26.72		19450516	19590827	1	0	63	NMS		Nago									[106, 107]							L.Haimberger	0	4.5		28.8	era5.1761.conv.2:42203
165	0-20000-0-43295	0	166	['9:3366']	3	BANGALORE			0	77.58	12.97		19440414	19460302	1	0	63	NMS		Bangalore									[85, 117]							L.Haimberger	0	0.0		1.5	era5.1761.conv.9:3366
166	0-20000-0-42101	0	167	['2:42101']	3	PATIALA			0	76.47	30.33		19440404	19440619	1	0	63	NMS		Hengyang									[106, 107]							L.Haimberger	0	3535.3		6.4	era5.1761.conv.2:42101
167	0-20000-0-59287	0	168	['9:3020']	3	GUANGZHOU			0	113.48	23.22		19451103	19460312	1	0	63	NMS		Guangzhou									[106, 107]							L.Haimberger	0	18.3		8.3	era5.1761.conv.9:3020
168	0-20000-0-70296	0	169	['2:26402']	3	CORDOVA/MILE 13			0	-145.5	60.5		19420723	19421215	1	0	63	NMS		Anchorage									[106, 107]							L.Haimberger	0	18.9		259.3	era5.1761.conv.2:26402
169	0-20000-0-70218	0	170	['2:26605']	3	NUNIVAK			0	-166.0	60.0		19431012	19450831	1	0	63	NMS		None									[106, 107]							L.Haimberger	0	23.0		None	era5.1761.conv.2:26605
170	0-20500-0-26106	0	171	['2:26106']	3	SAWMILL BAY			0	-117.08	65.73		19480201	19480409	1	0	63	NMS		Yellowknife									[106, 107]							L.Haimberger	0	84.4	14586.2	428.0	era5.1761.conv.2:26106
171	0-20000-0-06484	0	172	['9:1555']	3	BUZENOL			0	5.59	49.62		19490124	19500728	1	0	63	NMS		Virton									[106, 107]							L.Haimberger	0	7.9		3.2	era5.1761.conv.9:1555
172	0-20000-0-94996	0	173	['9:1493']	3	NORFOLK ISLAND AERO			0	167.94	-29.04		19490102	19551222	1	0	63	NMS		None									[106, 107]							L.Haimberger	0	1.5		None	era5.1761.conv.9:1493
173	0-20500-0-34138	0	174	['2:34138']	3	ROSIGNANO MU 1			0	10.48	43.35		19440917	19440926	1	0	63	NMS		Cecina									[106, 107]							L.Haimberger	0	0.0	9603.2	4.7	era5.1761.conv.2:34138
174	0-20000-0-34013	0	175	['2:34013']	3	LIVNY			0	37.6	52.43		19441217	19450406	1	0	63	NMS		Porto-Vecchio									[106, 107]							L.Haimberger	0	2408.5		46.7	era5.1761.conv.2:34013
175	0-20000-0-12846	0	176	['2:12846']	3	AGARD			0	18.62	47.18		19431101	19460410	1	0	63	NMS	192	Daytona Beach									[106, 107]							L.Haimberger	0	8364.4		5.7	era5.1761.conv.2:12846
176	0-20001-0-56187	0	177	['9:1441']	3	WENJIANG (56187-1)			0	103.87	30.75		19570301	19591229	1	0	63	NMS		Chengdu									[106, 107]							L.Haimberger	0	21.1		0.5	era5.1761.conv.9:1441
177	0-20000-0-72310	0	178	['9:200']	3	COLUMBIA, SC.			0	-81.12	33.95		19181101	19181231	1	0	63	NMS	9	Forest Acres									[106, 107]							L.Haimberger	0	14.9		2.8	era5.1761.conv.9:200
178	0-20000-0-35001	0	179	['2:35001']	3	BOL'SAJA GLUSCICA			0	50.47	52.38		19451108	19480220	1	0	63	NMS	124	Bremen									[106, 107]							L.Haimberger	0	2777.0		3.7	era5.1761.conv.2:35001
179	0-20300-0-70485	0	180	['2:25610']	3	UMNAK ISLAND			0	-167.9	53.38		19430701	19450916	1	0	63	NMS		None									[106, 107]							L.Haimberger	0	18.5		None	era5.1761.conv.2:25610
180	0-20500-0-13906	0	181	['2:13906']	3	COFFEYVILLE AAF			0	-94.42	37.1		19440701	19450615	1	0	63	NMS		Coffeyville									[106, 107]							L.Haimberger	0	103.1	8216.1	7.7	era5.1761.conv.2:13906
181	0-20300-0-24110	0	182	['2:24110']	3	MOSES LAKE (LARSON AFB)			0	-119.3167	47.1833		19440505	19441107	1	0	63	NMS		Moses Lake									[106, 107]							L.Haimberger	0	48.3		45.9	era5.1761.conv.2:24110
182	0-20000-0-07648	0	183	['2:34023']	3	SALON DE PROVENCE			0	5.1	43.6		19440829	19440905	1	0	63	NMS	68	Salon-De-Provence									[106, 107]							L.Haimberger	0	3.3		1.2	era5.1761.conv.2:34023
183	0-20000-0-02173	0	184	['9:3355']	3	ALVSBYN			0	21.07	65.67		19320815	19331213	1	0	63	NMS		Pitea									[85, 117]							L.Haimberger	0	25.8		17.9	era5.1761.conv.9:3355
184	0-20000-0-41768	0	185	['9:1723']	3	CHHOR			0	69.78	25.52		19460222	19481231	1	0	63	NMS	166	Chor									[106, 107]							L.Haimberger	0	5.0		6.4	era5.1761.conv.9:1723
185	0-20000-0-91831	0	186	['9:2231']	3	AITUTAKI AWS			0	-159.77	-18.83		19530101	19580228	1	0	63	NMS		Avarua									[106, 107]							L.Haimberger	0	2.2		261.0	era5.1761.conv.9:2231
186	0-20300-0-72257	0	187	['2:13955']	3	FT HOOD AAF/KILLEEN			0	-97.71700000000001	31.1		19460714	19520408	1	0	63	NMS		Killeen									[106, 107]							L.Haimberger	0	3.3		1.6	era5.1761.conv.2:13955
187	0-20000-0-42809	0	188	['9:3369']	3	KOLKATA/DUM DUM			0	88.45	22.65		19440624	19460724	1	0	63	NMS		Barakpur									[85, 117]							L.Haimberger	0	15.6		1.0	era5.1761.conv.9:3369
188	0-20500-0-24010	0	189	['2:24010']	3	LEWISTOWN 2 SW			0	-108.55	47.05		19440505	19441129	1	0	63	NMS		Great Falls									[106, 107]							L.Haimberger	0	68.4	10426.0	148.7	era5.1761.conv.2:24010
189	0-20000-0-98326	0	190	['2:41210']	3	BASA AB			0	120.48	14.98		19450710	19470227	1	0	63	NMS		Pio									[106, 107]							L.Haimberger	0	0.0		8.4	era5.1761.conv.2:41210
190	0-20500-0-11616	0	191	['2:11616']	3	CULEBRA NF			0	-64.72	18.32		19360120	19400221	1	0	63	NMS		Fajardo									[106, 107]							L.Haimberger	0	59.2	4053.3	39.4	era5.1761.conv.2:11616
191	0-20000-0-47807	0	192	['9:1181']	3	FUKUOKA			0	130.38	33.58		19400601	19440924	1	0	63	NMS		Shingu									[106, 107]							L.Haimberger	0	11.2		5.1	era5.1761.conv.9:1181
192	0-20000-0-71912	0	193	['2:15903']	3	GILLAM A, MAN			0	-94.7	56.36		19430912	19450714	1	0	63	NMS		Thompson									[106, 107]							L.Haimberger	0	1.1		208.3	era5.1761.conv.2:15903
193	0-20000-0-41856	0	194	['9:3368']	3	RAJARHAT, KURIGRAM			0	89.55	25.8		19440419	19460414	1	0	63	NMS		Lalmanir Hat									[85, 117]							L.Haimberger	0	14.9		3.0	era5.1761.conv.9:3368
194	0-20000-0-54423	0	195	['1:54423']	3	CHENGDE			0	117.92	40.97		19570304	19591231	1	0	63	NMS		Chengde									[106, 107]							L.Haimberger	0	7.6		36.2	era5.1761.conv.1:54423
195	0-20000-0-10015	0	196	['9:1393']	3	HELGOLAND			0	7.89	54.17		19400126	19420327	1	0	63	NMS		Cuxhaven									[85, 117]							L.Haimberger	0	1.3		62.0	era5.1761.conv.9:1393
196	0-20000-0-02171	0	197	['9:4182']	3	BODEN			0	21.63	65.81		19320815	19331213	1	0	63	NMS		Boden									[85, 117]							L.Haimberger	0	3.2		1.0	era5.1761.conv.9:4182
197	0-20001-0-04270	0	198	['2:16413']	3	MITTARFIK NARSARSUAQ (4270-1)			0	-45.42	61.17		19420701	19420830	1	0	63	NMS		None									[106, 107]							L.Haimberger	0	13.5		None	era5.1761.conv.2:16413
198	0-20000-0-42803	0	199	['2:32807']	3	MIDNAPORE			0	87.32	22.42		19450909	19451209	1	0	63	NMS		Jhargram									[106, 107]							L.Haimberger	0	22.9		19.4	era5.1761.conv.2:32807
199	0-504-1-60291	0	200	['2:12102']	3	Tarfaya			0	-12.93	27.94		19450829	19451010	1	0	63	NMS	247	Puerto Del Rosario									[106, 107]							L.Haimberger	0	7.0		105.7	era5.1761.conv.2:12102
200	0-20000-0-72221	0	201	['2:3843']	3	VALPARAISO/EGLIN AFB, FL.			0	-86.52	30.48		19490920	19491102	1	0	63	NMS	9	Niceville									[106, 107]							L.Haimberger	0	9.7		5.0	era5.1761.conv.2:3843
201	0-20000-0-12822	0	202	['2:12822']	3	GYOR			0	17.68	47.72		19431223	19440227	1	0	63	NMS	192	Gainesville									[106, 107]							L.Haimberger	0	8374.7		77.0	era5.1761.conv.2:12822
202	0-20000-0-72504	0	203	['2:14718']	3	BRIDGEPORT/IGOR I. SIKORSKY MEM., CT.			0	-73.13	41.17		19440506	19440614	1	0	63	NMS	9	Narragansett									[106, 107]							L.Haimberger	0	0.0		69.1	era5.1761.conv.2:14718
203	0-20000-0-72220	0	204	['2:12827']	3	APALACHICOLA/MUN.,  FL.			0	-85.03	29.73		19450106	19450820	1	0	63	NMS	9	Callaway									[106, 107]							L.Haimberger	0	0.0		70.1	era5.1761.conv.2:12827
204	0-20300-0-11611	0	205	['2:11611']	3	MAYAGUEZ			0	-67.1333	18.25		19421206	19430415	1	0	63	NMS		San Sebastian									[106, 107]							L.Haimberger	0	0.3		16.1	era5.1761.conv.2:11611
205	0-20000-0-84200	0	206	['9:1311']	3	SALINAS AEROPUERTO			0	-80.99	-2.21		19420726	19460130	1	0	63	NMS	9	Salinas									[106, 107]							L.Haimberger	0	3.5		6.2	era5.1761.conv.9:1311
206	0-20000-0-68588	0	207	['1:68588']	3	DURBAN INTNL. AIRPORT			0	30.93	-30.01		19570918	19581220	1	0	63	NMS		Durban									[85, 117]							L.Haimberger	0	5.9		13.7	era5.1761.conv.1:68588
207	0-20300-0-14723	0	208	['2:14794']	3	FISHERS ISLAND FORT H G WRIGHT			0	-72.0167	41.2667		19431001	19440930	1	0	63	NMS	9	Westerly									[106, 107]							L.Haimberger	0	20.4		3.8	era5.1761.conv.2:14794
208	0-20000-0-42314	0	209	['9:1744']	3	DIBRUGARH /MOHANBARI			0	95.02	27.48		19480604	19481231	1	0	63	NMS		Dibrugarh									[106, 107]							L.Haimberger	0	9.9		2.1	era5.1761.conv.9:1744
209	0-20000-0-54511	0	210	['2:44101']	3	BEIJING			0	116.28	39.93		19470101	19470328	1	0	63	NMS		Peking									[106, 107]							L.Haimberger	0	20.3		12.4	era5.1761.conv.2:44101
210	0-20000-0-72251	0	211	['2:12946']	3	CORPUS CHRISTI/INT., TX.			0	-97.51	27.78		19521029	19521128	1	0	63	NMS		Corpus Christi									[106, 107]							L.Haimberger	0	12.6		14.3	era5.1761.conv.2:12946
211	0-20300-0-13838	0	212	['2:13838']	3	MOBILE (BROOKLEY AFB)			0	-88.0667	30.6333		19430106	19450131	1	0	63	NMS	9	Daphne									[106, 107]							L.Haimberger	0	13.2		3.1	era5.1761.conv.2:13838
212	0-20000-0-83746	0	213	['1:83743']	3	GALEAO			0	-43.25	-22.82		19390601	19460830	1	0	63	NMS		Niteroi									[106, 107]							L.Haimberger	0	12.1		4.1	era5.1761.conv.1:83743
213	0-20000-0-31736	0	214	['2:44301']	3	HABAROVSK (31736-0)			0	135.23	48.53		19450914	19451031	1	0	63	NMS		Khabarovsk									[106, 107]							L.Haimberger	0	19.3		28.6	era5.1761.conv.2:44301
214	0-20500-0-10710	0	215	['2:10710']	3	MANDINGA			0	-78.92	9.45		19430729	19440413	1	0	63	NMS	9	Chepo									[106, 107]							L.Haimberger	0	17.6	2090.1	31.4	era5.1761.conv.2:10710
215	0-20000-0-57265	0	216	['2:43101']	3	LAOHEKOU			0	111.73	32.43		19450203	19450221	1	0	63	NMS		Danjiangkou									[106, 107]							L.Haimberger	0	21.7		13.6	era5.1761.conv.2:43101
216	0-20000-0-84200	0	217	['9:4103']	3	SALINAS AEROPUERTO			0	-80.99	-2.21		19431113	19440713	1	0	63	NMS	9	Salinas									[85, 117]							L.Haimberger	0	1.6		4.1	era5.1761.conv.9:4103
217	0-20000-0-38001	0	218	['1:38001']	3	FORT SHEVCHENKO			0	50.24	44.55		19530219	19531230	1	0	63	NMS	190	Aktau									[85, 117]							L.Haimberger	0	0.8		125.6	era5.1761.conv.1:38001
218	0-20500-0-93834	0	219	['9:435']	3	COLUMBUS NAS			0	-81.08	39.98		19220512	19231229	1	0	63	NMS	9	Wheeling									[106, 107]							L.Haimberger	0	29.8		16.1	era5.1761.conv.9:435
219	0-20000-0-62318	0	220	['2:33203']	3	NOUZHA			0	29.95	31.18		19440904	19450329	1	0	63	NMS	64	Alexandria									[106, 107]							L.Haimberger	0	7.0		3.7	era5.1761.conv.2:33203
220	0-20000-0-98558	0	221	['2:41205']	3	GUIUAN			0	125.76	11.05		19450116	19450809	1	0	63	NMS		Guiuan									[106, 107]							L.Haimberger	0	4.9		0.6	era5.1761.conv.2:41205
221	0-20000-0-91487	0	222	['2:20502']	3	FANNING ISLAND (91487-0)			0	-159.37	3.85		19430425	19450612	1	0	63	NMS		None									[106, 107]							L.Haimberger	0	6.5		None	era5.1761.conv.2:20502
222	0-20000-0-82030	0	223	['2:10507']	3	AMAPA			0	-50.85	2.07		19431201	19440821	1	0	63	NMS		Macapa									[106, 107]							L.Haimberger	0	2.5		227.2	era5.1761.conv.2:10507
223	0-20000-0-62306	0	224	['2:33205']	3	MERSA MATRUH			0	27.22	31.33		19441229	19450219	1	0	63	NMS	64	Marsa Matruh									[106, 107]							L.Haimberger	0	13.4		11.5	era5.1761.conv.2:33205
224	0-20500-0-34115	0	225	['2:34115']	3	SPINAZZOLA MU 10			0	16.1	40.95		19440404	19450430	1	0	63	NMS		Venosa									[106, 107]							L.Haimberger	0	0.0	9070.0	23.9	era5.1761.conv.2:34115
225	0-20000-0-42416	0	226	['2:32909']	3	TEZPUR/BINDUKURI			0	92.8	26.72		19441027	19450228	1	0	63	NMS		Rangapara									[106, 107]							L.Haimberger	0	20.0		3.5	era5.1761.conv.2:32909
226	0-20000-0-72507	0	227	['2:14713']	3	PROVIDENCE/GREEN STATE, RI.			0	-71.43	41.73		19440603	19440621	1	0	63	NMS	9	West Warwick									[106, 107]							L.Haimberger	0	3.3		5.2	era5.1761.conv.2:14713
227	0-20000-0-70162	0	228	['2:26537']	3	UMIAT			0	-152.13	69.37		19540501	19540804	1	0	63	NMS		College									[106, 107]							L.Haimberger	0	0.0		536.9	era5.1761.conv.2:26537
228	0-20000-0-07790	0	229	['2:34017']	3	BASTIA			0	9.49	42.54		19450601	19451111	1	0	63	NMS	68	Bastia									[106, 107]							L.Haimberger	0	1.4		17.1	era5.1761.conv.2:34017
229	0-20000-0-42314	0	230	['9:3365']	3	DIBRUGARH /MOHANBARI			0	95.02	27.48		19440401	19461020	1	0	63	NMS		Dibrugarh									[85, 117]							L.Haimberger	0	9.9		2.1	era5.1761.conv.9:3365
230	0-20000-0-10169	0	231	['1:10169']	3	ROSTOCK (RADAR)			0	12.06	54.18		19260608	19290617	1	0	63	NMS		Rostock									[85, 117]							L.Haimberger	0	0.7		11.5	era5.1761.conv.1:10169
231	0-20000-0-47407	0	232	['1:47407']	3	ASAHIKAWA			0	142.37	43.76		19220712	19410721	1	0	63	NMS		Asahikawa									[106, 107]							L.Haimberger	0	1.1		0.2	era5.1761.conv.1:47407
232	0-20000-0-72228	0	233	['2:13818']	3	BIRMINGHAM/MUN., AL.			0	-86.75	33.57		19420901	19440410	1	0	63	NMS	9	Birmingham									[106, 107]							L.Haimberger	0	1.1		8.2	era5.1761.conv.2:13818
233	0-20000-0-57494	0	234	['2:43103']	3	WUHAN			0	114.05	30.6		19451001	19460531	1	0	63	NMS		Wuhan									[85, 106, 107, 117]							L.Haimberger	0	19.3		2.2	era5.1761.conv.2:43103
234	0-20000-0-42104	0	235	['2:42104']	3	NAHAN			0	76.77	30.4		19440405	19440621	1	0	63	NMS		Ganzhou									[106, 107]							L.Haimberger	0	3706.4		76.6	era5.1761.conv.2:42104
235	0-20000-0-41780	0	236	['2:32601']	3	KARACHI AIRPORT			0	67.13	24.9		19441107	19460409	1	0	63	NMS	69	Karachi									[85, 106, 107, 117]							L.Haimberger	0	5.1		9.9	era5.1761.conv.2:32601
236	0-20000-0-04219	0	237	['2:16505']	3	QEQERTARSUAQ HELIPORT			0	-53.53	69.25		19420121	19421219	1	0	63	NMS		None									[106, 107]							L.Haimberger	0	1.2		None	era5.1761.conv.2:16505
237	0-20500-0-12927	0	238	['2:12927']	3	HOUMA NAS			0	-89.33	29.52		19430601	19450731	1	0	63	NMS	9	Houma									[106, 107]							L.Haimberger	0	129.9	6535.4	9.6	era5.1761.conv.2:12927
238	0-20000-0-47679	0	239	['2:43304']	3	ATSUGI NAS			0	139.45	35.45		19450906	19460828	1	0	63	NMS		Ayase									[106, 107]							L.Haimberger	0	2.2		5.7	era5.1761.conv.2:43304
239	0-20000-0-74598	0	240	['9:295']	3	LANGLEY AFB, VA.			0	-76.35	37.08		19180501	19200430	1	0	63	NMS	9	Hampton									[106, 107]							L.Haimberger	0	9.9		5.2	era5.1761.conv.9:295
240	0-20000-0-02847	0	241	['9:4173']	3	ROVANIEMI RAUTATIEASEMA			0	25.71	66.5		19420403	19440913	1	0	63	NMS	177	Rovaniemi									[85, 117]							L.Haimberger	0	0.4		0.1	era5.1761.conv.9:4173
241	0-20000-0-02611	0	242	['9:4183']	3	HELSINGBORG			0	12.77	56.03		19280112	19280914	1	0	63	NMS		Eslov									[85, 117]							L.Haimberger	0	28.4		27.3	era5.1761.conv.9:4183
242	0-20000-0-94866	0	243	['9:1497']	3	MELBOURNE AIRPORT			0	144.83	-37.67		19490201	19530331	1	0	63	NMS		Melbourne									[106, 107]							L.Haimberger	0	9.1		10.9	era5.1761.conv.9:1497
243	0-20000-0-34109	0	244	['2:34109']	3	OBOJAN'			0	36.32	51.2		19440423	19450331	1	0	63	NMS	107	Modugno									[106, 107]							L.Haimberger	0	1869.2		5.2	era5.1761.conv.2:34109
244	0-20000-0-41564	0	245	['9:4191']	3	KOHAT			0	71.43	33.57		19390125	19400628	1	0	63	NMS		Kohat									[38, 85, 117]							L.Haimberger	0	3.8		2.0	era5.1761.conv.9:4191
245	0-20000-0-42809	0	246	['2:32814']	3	KOLKATA/DUM DUM			0	88.45	22.65		19440401	19440515	1	0	63	NMS		Calcutta									[106, 107]							L.Haimberger	0	19.6		7.5	era5.1761.conv.2:32814
246	0-20500-0-24248	0	247	['2:24248']	3	CORVALLIS NAAS			0	-122.72	44.5		19440525	19441128	1	0	63	NMS		Corvallis									[106, 107]							L.Haimberger	0	44.5	9858.9	7.4	era5.1761.conv.2:24248
247	0-20000-0-41661	0	248	['9:3357']	3	QUETTA (SHEIKH MANDA)			0	66.92	30.27		19460304	19471118	1	0	63	NMS	190	Quetta									[85, 117]							L.Haimberger	0	14.7		3.4	era5.1761.conv.9:3357
248	0-20000-0-47114	0	249	['2:43222']	3	WONJU			0	127.95	37.34		19510622	19520803	1	0	63	NMS		Seoul									[106, 107]							L.Haimberger	0	12.3		89.2	era5.1761.conv.2:43222
249	0-20000-0-96581	0	250	['9:2244']	3	PONTIANAK/SUPADIO			0	109.4	-0.15		19540704	19581228	1	0	63	NMS		Pontianak									[106, 107]							L.Haimberger	0	18.3		3.7	era5.1761.conv.9:2244
250	0-20000-0-10868	0	251	['1:10868']	3	MUENCHEN-OBERSCHLEISSHEIM			0	11.55	48.24		19271026	19381230	1	0	63	NMS		Ismaning									[85, 117]							L.Haimberger	0	1.1		6.5	era5.1761.conv.1:10868
251	0-20000-0-74486	0	252	['2:14795']	3	NEW YORK/JOHN F. KENNEDY INT., NY.			0	-73.78	40.65		19200713	19210729	1	0	63	NMS	9	Woodmere									[106, 107]							L.Haimberger	0	9.2		7.6	era5.1761.conv.2:14795
252	0-20000-0-48112	0	253	['9:1748']	3	Kawthaung			0	98.58	9.97		19470428	19551026	1	0	63	NMS		Ranong									[106, 107]							L.Haimberger	0	1.1		6.2	era5.1761.conv.9:1748
253	0-20000-0-40676	0	254	['1:40676']	3	NASIRIYA			0	46.23	31.02		19490208	19581231	1	0	63	NMS		Susangerd									[106, 107]							L.Haimberger	0	0.0		195.4	era5.1761.conv.1:40676
254	0-20000-0-42618	0	255	['2:32935']	3	KAILASHAHAR			0	92.0	24.32		19450514	19451010	1	0	63	NMS		Kailasahar									[106, 107]							L.Haimberger	0	10.5		11.1	era5.1761.conv.2:32935
255	0-20000-0-72365	0	256	['2:23004']	3	ALBUQUERQUE/INT., NM.			0	-106.62	35.04		19420101	19450407	1	0	63	NMS		Albuquerque									[106, 107]							L.Haimberger	0	1.1		4.7	era5.1761.conv.2:23004
256	0-20001-0-37055	0	257	['1:37050']	3	MINERAL'NYE VODY (37055-1)			0	43.1	44.22		19470503	19511120	1	0	63	NMS	190	Pyatigorsk									[85, 117]							L.Haimberger	0	19.7		2.4	era5.1761.conv.1:37050
257	0-20000-0-78807	0	258	['2:10716']	3	COROZAL OESTE			0	-79.57	8.97		19541130	19561018	1	0	63	NMS	9	Panama									[106, 107]							L.Haimberger	0	4.4		5.7	era5.1761.conv.2:10716
258	0-20500-0-34011	0	259	['2:34011']	3	HAUT BIOL			0	5.5	45.6		19440906	19440906	1	0	63	NMS	205	Voiron									[106, 107]							L.Haimberger	0	0.0	10103.3	27.2	era5.1761.conv.2:34011
259	0-20000-0-91165	0	260	['2:22526']	3	LIHUE, KAUAI, HAWAII			0	-159.35	21.99		19491108	19500105	1	0	63	NMS		Kapaa									[106, 107]							L.Haimberger	0	27.7		34.8	era5.1761.conv.2:22526
260	0-20000-0-83971	0	261	['1:83967']	3	PORTO ALEGRE (AERO)			0	-51.18	-30.0		19500605	19541222	1	0	63	NMS		Cachoeirinha									[85, 117]							L.Haimberger	0	13.5		5.8	era5.1761.conv.1:83967
261	0-20000-0-72530	0	262	['2:14855']	3	CHICAGO/O'HARE, IL.			0	-87.9	41.98		19430501	19460430	1	0	63	NMS	9	Glenview									[106, 107]							L.Haimberger	0	12.5		3.7	era5.1761.conv.2:14855
262	0-20000-0-85799	0	263	['2:54701']	3	PUERTO MONTT			0	-73.1	-41.43		19500714	19580827	1	0	63	NMS		Puerto Montt									[106, 107]							L.Haimberger	0	23.8		10.4	era5.1761.conv.2:54701
263	0-20000-0-72258	0	264	['2:13908']	3	DALLAS, TX, DALLAS LOVE FIELD ARPT			0	-96.85	32.85		19290106	19300727	1	0	63	NMS		University Park									[106, 107]							L.Haimberger	0	0.0		4.7	era5.1761.conv.2:13908
264	0-20000-0-56033	0	265	['1:56033']	3	MADOI			0	98.22	34.92		19570701	19591126	1	0	63	NMS		Xining									[106, 107]							L.Haimberger	0	8.9		377.2	era5.1761.conv.1:56033
265	0-20000-0-74756	0	266	['2:12817']	3	GAINSVILLE, FL GAINSVILLE RGNL ARPT			0	-82.27	29.69		19440106	19440219	1	0	63	NMS	9	Gainesville									[106, 107]							L.Haimberger	0	24.8		31.6	era5.1761.conv.2:12817
266	0-20500-0-3138	0	267	['2:3138']	3	SHOSHONE TEAM 5			0	-115.73	35.97		19570716	19571210	1	0	63	NMS		Pahrump									[106, 107]							L.Haimberger	0	0.0	7964.4	34.9	era5.1761.conv.2:3138
267	0-20000-0-12825	0	268	['2:12825']	3	PAPA			0	17.5	47.2		19440511	19451023	1	0	63	NMS	192	Sebring									[106, 107]							L.Haimberger	0	8547.9		47.8	era5.1761.conv.2:12825
268	0-20000-0-95767	0	269	['9:1496']	3	LAKE MACQUARIE AWS			0	151.46	-33.09		19490205	19530329	1	0	63	NMS		Newcastle									[106, 107]							L.Haimberger	0	13.8		21.9	era5.1761.conv.9:1496
269	0-20000-0-47108	0	270	['2:43215']	3	SEOUL			0	126.97	37.57		19501209	19530127	1	0	63	NMS		Seoul									[106, 107]							L.Haimberger	0	4.8		8.0	era5.1761.conv.2:43215
270	0-20000-0-54401	0	271	['1:54401']	3	ZHANGJIAKOU			0	114.88	40.78		19570301	19591231	1	0	63	NMS		Zhangjiakou									[106, 107]							L.Haimberger	0	25.9		25.5	era5.1761.conv.1:54401
271	0-20500-0-40303	0	272	['2:40303']	3	PEGUN ISLAND			0	134.28	0.82		19441208	19450729	1	0	63	NMS		Manokwari									[106, 107]							L.Haimberger	0	0.0	181.3	187.8	era5.1761.conv.2:40303
272	0-20000-0-22768	0	273	['1:22768']	3	SHENKURSK			0	42.9	62.1		19530216	19541231	1	0	63	NMS	233	Mirnyy									[117]							L.Haimberger	0	0.0		121.6	era5.1761.conv.1:22768
273	0-20000-0-72424	0	274	['1:72424']	3	FT.KNOX, KY. (ARMY)			0	-85.97	37.9		19540516	19541002	1	0	63	NMS	9	Radcliff									[85, 117]							L.Haimberger	0	0.0		6.9	era5.1761.conv.1:72424
274	0-20000-0-12910	0	275	['2:12910']	3	SZENTGOTTHARD/FARKASFA			0	16.32	46.92		19440725	19450814	1	0	63	NMS	243	San Marcos									[106, 107]							L.Haimberger	0	9147.0		6.9	era5.1761.conv.2:12910
275	0-20000-0-04202	0	276	['2:17611']	3	PITUFFIK (THULE AIR BASE)			0	-68.75	76.53		19570626	19580912	1	0	63	NMS		None									[85, 117]							L.Haimberger	0	16.6		None	era5.1761.conv.2:17611
276	0-20300-0-13916	0	277	['2:13913']	3	MUSKOGEE (HATBOX FIELD/AAF)			0	-95.3667	35.75		19440801	19450622	1	0	63	NMS		Muskogee									[106, 107]							L.Haimberger	0	8.9		8.6	era5.1761.conv.2:13913
277	0-20300-0-12811	0	278	['2:12811']	3	FORT MYERS (PAIGE FIELD)			0	-81.8667	26.5833		19430814	19441008	1	0	63	NMS	9	Villas									[106, 107]							L.Haimberger	0	0.5		3.3	era5.1761.conv.2:12811
278	0-20500-0-33703	0	279	['9:4194']	3	PESHAWAR			0	71.58	34.02		19390304	19400507	1	0	63	NMS		Peshawar									[38, 85, 117]							L.Haimberger	0	6.0		5.5	era5.1761.conv.9:4194
279	0-20000-0-91610	0	280	['2:40707']	3	TARAWA			0	172.92	1.35		19431212	19440530	1	0	63	NMS		Bairiki									[106, 107]							L.Haimberger	0	2.5		7.2	era5.1761.conv.2:40707
280	0-20000-0-71001	0	281	['2:26310']	3	BURWASH A, YT			0	-139.04	61.37		19440523	19441230	1	0	63	NMS		Whitehorse									[106, 107]							L.Haimberger	0	2.5		225.8	era5.1761.conv.2:26310
281	0-20300-0-14723	0	282	['2:14723']	3	FISHERS ISLAND FORT H G WRIGHT			0	-72.0167	41.2667		19440906	19450711	1	0	63	NMS	9	Groton									[106, 107]							L.Haimberger	0	0.5		10.2	era5.1761.conv.2:14723
282	0-20000-0-12200	0	283	['9:1397']	3	SWINOUJSCIE			0	14.24	53.92		19391201	19400304	1	0	63	NMS		Swinoujscie									[85, 117]							L.Haimberger	0	0.7		1.4	era5.1761.conv.9:1397
283	0-20000-0-74641	0	284	['9:3394']	3	GAGE, OK, GAGE ARPT			0	-99.78	36.3		19520716	19520926	1	0	63	NMS		Woodward									[85, 117]							L.Haimberger	0	0.9		37.2	era5.1761.conv.9:3394
284	0-20000-0-16261	0	285	['2:34105']	3	AMENDOLA			0	15.71	41.54		19440804	19460122	1	0	63	NMS		Foggia									[106, 107]							L.Haimberger	0	16.7		1.4	era5.1761.conv.2:34105
285	0-20000-0-83498	0	286	['2:51303']	3	CARAVELAS (83498-0)			0	-39.25	-17.73		19440115	19441231	1	0	63	NMS		Caravelas									[106, 107]							L.Haimberger	0	7.0		9.1	era5.1761.conv.2:51303
286	0-20000-0-78486	0	287	['2:11629']	3	SANTO DOMINGO (78486-0)			0	-69.88	18.43		19200801	19230131	1	0	63	NMS		Santo Domingo									[106, 107]							L.Haimberger	0	4.4		2.1	era5.1761.conv.2:11629
287	0-20500-0-13847	0	288	['2:13847']	3	TOWNSEND HARRIS NECK			0	-80.73	31.63		19440501	19441216	1	0	63	NMS	9	Fort Stewart									[106, 107]							L.Haimberger	0	51.2	7001.9	34.9	era5.1761.conv.2:13847
288	0-20000-0-42420	0	289	['2:32920']	3	GOLAGHAT			0	93.98	26.52		19440228	19440329	1	0	63	NMS		Dergaon									[106, 107]							L.Haimberger	0	22.4		2.8	era5.1761.conv.2:32920
289	0-20300-0-03371	0	290	['9:3371']	3	SEWASTOPOL			0	33.53	44.62		19461204	19491129	1	0	63	NMS	106	Bakhchysaray									[85, 117]							L.Haimberger	0	0.0		30.0	era5.1761.conv.9:3371
290	0-20000-0-71421	0	291	['2:15603']	3	LAC EON, QUE			0	-63.28	51.87		19431129	19480824	1	0	63	NMS		Sept-Iles									[106, 107]							L.Haimberger	0	27.9		305.4	era5.1761.conv.2:15603
291	0-20500-0-12809	0	292	['2:12809']	3	BARTOW MUNICIPAL ARP			0	-80.22	27.95		19440415	19450301	1	0	63	NMS	9	Bartow									[106, 107]							L.Haimberger	0	153.5	6188.0	8.6	era5.1761.conv.2:12809
292	0-20300-0-23126	0	293	['2:23126']	3	TAFT (GARDNER FIELD)			0	-119.3	35.1167		19420201	19450120	1	0	63	NMS		Arvin									[106, 107]							L.Haimberger	0	54.7		15.3	era5.1761.conv.2:23126
293	0-20000-0-47430	0	294	['1:47430']	3	HAKODATE			0	140.75	41.82		19380607	19440930	1	0	63	NMS		Hakodate									[106, 107]							L.Haimberger	0	0.0		5.0	era5.1761.conv.1:47430
294	0-20500-0-10101	0	295	['2:10101']	3	FISHERMANS LAKE			0	-10.75	6.75		19430803	19450504	1	0	63	NMS		Robertsport									[106, 107]							L.Haimberger	0	55.3	1493.9	13.1	era5.1761.conv.2:10101
295	0-20000-0-41780	0	296	['9:4190']	3	KARACHI AIRPORT			0	67.13	24.9		19390517	19411124	1	0	63	NMS	69	Karachi									[38, 85, 117]							L.Haimberger	0	10.1		5.3	era5.1761.conv.9:4190
296	0-705-0-1918	0	297	['9:1918']	3	ROGAKA SLATINA			0	15.64	46.24		19520901	19530716	1	0	63	NMS	243	Shimoda									[106, 107]							L.Haimberger	0	9854.5		481.3	era5.1761.conv.9:1918
297	0-20000-0-57447	0	298	['2:43008']	3	ENSHI			0	109.47	30.28		19450601	19450827	1	0	63	NMS		Enshi									[106, 107]							L.Haimberger	0	1.0		2.2	era5.1761.conv.2:43008
298	0-20000-0-72253	0	299	['2:12902']	3	SAN ANTONIO/INT., TX.			0	-98.47	29.53		19331110	19350930	1	0	63	NMS		Seguin									[106, 107]							L.Haimberger	0	8.9		44.1	era5.1761.conv.2:12902
299	0-20300-0-23151	0	300	['2:23151']	3	SAN FRANCISCO CRISSY FIELD			0	-122.4333	37.8		19180719	19190131	1	0	63	NMS		Tracy									[106, 107]							L.Haimberger	0	75.2		15.3	era5.1761.conv.2:23151
300	0-20500-0-10713	0	301	['2:10713']	3	SAN JOSE ISLAND			0	-78.87	8.25		19441001	19471231	1	0	63	NMS	9	Veracruz									[106, 107]							L.Haimberger	0	28.6	1824.8	89.3	era5.1761.conv.2:10713
301	0-20000-0-34163	0	302	['2:34163']	3	OKTYABRSKY GORODOK			0	45.45	51.63		19470603	19470715	1	0	63	NMS		Kitzingen									[106, 107]							L.Haimberger	0	2475.3		3.0	era5.1761.conv.2:34163
302	0-20000-0-78970	0	303	['2:11617']	3	PIARCO INT. AIRPORT,  TRINIDAD			0	-61.35	10.62		19430401	19431031	1	0	63	NMS		Chaguanas									[106, 107]							L.Haimberger	0	14.4		2.6	era5.1761.conv.2:11617
303	0-20300-0-13819	0	304	['2:13819']	3	BAINBRIDGE AAF			0	-84.6333	30.9833		19421027	19450110	1	0	63	NMS	9	Bainbridge									[106, 107]							L.Haimberger	0	0.5		9.9	era5.1761.conv.2:13819
304	0-20000-0-74389	0	305	['2:14724']	3	GRAY, ME.			0	-70.26	43.89		19440104	19440203	1	0	63	NMS	9	South Portland									[106, 107]							L.Haimberger	0	26.7		1.2	era5.1761.conv.2:14724
305	0-20000-0-89564	0	306	['9:4151']	3	MAWSON			0	62.88	-67.6		19551030	19570131	1	0	63	NMS	37	None									[85, 117]							L.Haimberger	0	0.0		None	era5.1761.conv.9:4151
306	0-20000-0-53529	0	307	['1:53529']	3	OTOG QI			0	107.98	39.1		19570306	19591231	1	0	63	NMS		Wuda									[106, 107]							L.Haimberger	0	0.0		118.1	era5.1761.conv.1:53529
307	0-20300-0-45703	0	308	['2:45703']	3	KISKA ISLAND			0	177.5667	51.9833		19421112	19451008	1	0	63	NMS		None									[106, 107]							L.Haimberger	0	0.4		None	era5.1761.conv.2:45703
308	0-20000-0-91212	0	309	['2:41411']	3	WEATHER FORECAST OFFICE, GUAM, MARIANA IS.			0	144.79	13.48		19441214	19450731	1	0	63	NMS		None									[106, 107]							L.Haimberger	0	18.2		None	era5.1761.conv.2:41411
309	0-20000-0-72270	0	310	['9:269']	3	EL PASO/INT., TX.			0	-106.4	31.8		19200814	19210824	1	0	63	NMS		El Paso									[106, 107]							L.Haimberger	0	5.9		14.3	era5.1761.conv.9:269
310	0-20000-0-27995	0	311	['1:27995']	3	SAMARA (BEZENCHUK)			0	49.43	52.98		19510501	19540528	1	0	63	NMS	124	Bezenchuk									[85, 117]							L.Haimberger	0	0.0		0.3	era5.1761.conv.1:27995
311	0-20000-0-43105	0	312	['2:43105']	3	KALINGAPATAM			0	84.13	18.33		19450701	19450731	1	0	63	NMS		Jieshou									[106, 107]							L.Haimberger	0	3545.6		31.1	era5.1761.conv.2:43105
312	0-20000-0-60656	0	313	['9:2099']	3	TINDOUF			0	-8.17	27.7		19531019	19540406	1	0	63	NMS	39	Tiznit									[106, 107]							L.Haimberger	0	3.5		271.1	era5.1761.conv.9:2099
313	0-20000-0-43367	0	314	['1:43367']	3	CAR NICOBAR			0	92.83	9.17		19550102	19621031	1	0	63	NMS		Port Blair									[106, 107]							L.Haimberger	0	0.0		276.3	era5.1761.conv.1:43367
314	0-20500-0-32943	0	315	['2:32943']	3	KUTKAI			0	97.92	23.47		19450306	19450424	1	0	63	NMS		Lashio									[106, 107]							L.Haimberger	0	0.0	5193.2	61.9	era5.1761.conv.2:32943
315	0-20500-0-12956	0	316	['2:12956']	3	MATAGORDA IS AF			0	-95.55	28.33		19560210	19571003	1	0	63	NMS		Port Lavaca									[106, 107]							L.Haimberger	0	88.3	6270.8	35.9	era5.1761.conv.2:12956
316	0-20000-0-68032	0	317	['1:68032']	3	MAUN			0	23.42	-19.98		19570918	19581221	1	0	63	NMS		Maun									[85, 117]							L.Haimberger	0	1.0		0.8	era5.1761.conv.1:68032
317	0-20500-0-10002	0	318	['2:10002']	3	CAPE PALMAS			0	-6.32	4.37		19430603	19460108	1	0	63	NMS		Harper									[106, 107]							L.Haimberger	0	151.0	978.2	4.1	era5.1761.conv.2:10002
318	0-20000-0-72221	0	319	['2:3845']	3	VALPARAISO/EGLIN AFB, FL.			0	-86.52	30.48		19490913	19491026	1	0	63	NMS	9	Wright									[106, 107]							L.Haimberger	0	25.4		20.2	era5.1761.conv.2:3845
319	0-20000-0-07765	0	320	['2:34001']	3	SOLENZARA			0	9.4	41.92		19440319	19441130	1	0	63	NMS	68	Porto-Vecchio									[106, 107]							L.Haimberger	0	12.5		49.5	era5.1761.conv.2:34001
320	0-20500-0-11639	0	321	['2:11639']	3	VIEQUES ISLAND NS			0	-64.62	18.12		19531001	19531120	1	0	63	NMS		Fajardo									[106, 107]							L.Haimberger	0	80.4	4009.4	36.9	era5.1761.conv.2:11639
321	0-20500-0-3139	0	322	['9:3139']	3	ALAMO			0	-114.83	37.37		19450126	19450920	1	0	63	NMS		Sorong									[106, 107]							L.Haimberger	0	12071.2	12000.7	101.6	era5.1761.conv.9:3139
322	0-20000-0-06458	0	323	['9:1553']	3	BEAUVECHAIN			0	4.76	50.75		19520214	19560524	1	0	63	NMS		Landen									[106, 107]							L.Haimberger	0	29.7		7.2	era5.1761.conv.9:1553
323	0-20000-0-74370	0	324	['2:14715']	3	FORT DRUM/WHEELER-SACK AAF, NY			0	-75.73	44.05		19440501	19530312	1	0	63	NMS	9	Watertown									[106, 107]							L.Haimberger	0	0.8		17.5	era5.1761.conv.2:14715
324	0-20000-0-60390	0	325	['2:33045']	3	DAR-EL-BEIDA			0	3.22	36.69		19430702	19440331	1	0	63	NMS	114	Algiers									[106, 107]							L.Haimberger	0	15.3		2.7	era5.1761.conv.2:33045
325	0-20500-0-14793	0	326	['2:14793']	3	WILLOW GROVE NAS			0	-74.87	40.2		19430802	19500731	1	0	63	NMS	9	Horsham									[106, 107]							L.Haimberger	0	23.8	8903.5	3.0	era5.1761.conv.2:14793
326	0-20000-0-43318	0	327	['2:43318']	3	CONOOR			0	76.8	11.35		19520501	19541116	1	0	63	NMS		Kameda									[106, 107]							L.Haimberger	0	6821.3		9.3	era5.1761.conv.2:43318
327	0-20500-0-26312	0	328	['2:26312']	3	ORCHIE LAKE			0	-130.25	62.18		19440902	19450226	1	0	63	NMS		Whitehorse									[106, 107]							L.Haimberger	0	78.1	13794.6	239.9	era5.1761.conv.2:26312
328	0-20500-0-14857	0	329	['2:14857']	3	TRAVERSE CITY			0	-84.45	44.72		19421102	19451020	1	0	63	NMS	9	Traverse City									[106, 107]							L.Haimberger	0	87.2	9908.3	7.4	era5.1761.conv.2:14857
329	0-20000-0-16289	0	330	['2:34120']	3	NAPOLI/CAPODICHINO			0	14.29	40.88		19440113	19440120	1	0	63	NMS	66	Ottaviano									[106, 107]							L.Haimberger	0	15.2		2.2	era5.1761.conv.2:34120
330	0-20000-0-33506	0	331	['1:33506']	3	Poltava			0	34.54	49.61		19461105	19490903	1	0	63	NMS	107	Poltava									[85, 117]							L.Haimberger	0	1.3		1.0	era5.1761.conv.1:33506
331	0-20000-0-72366	0	332	['2:23007']	3	CHILDRESS, TX CHILDRESS MUNI ARPT			0	-100.29	34.43		19450204	19450625	1	0	63	NMS		Altus									[106, 107]							L.Haimberger	0	0.9		89.9	era5.1761.conv.2:23007
332	0-20000-0-72207	0	333	['2:13853']	3	SAVANNAH/MUNICIPAL,  GA.			0	-81.2	32.13		19440701	19491130	1	0	63	NMS	9	Garden City									[106, 107]							L.Haimberger	0	0.0		4.7	era5.1761.conv.2:13853
333	0-20000-0-48001	0	334	['2:32903']	3	PUTAO			0	97.42	27.33		19440409	19440716	1	0	63	NMS		Tezu									[106, 107]							L.Haimberger	0	8.0		134.5	era5.1761.conv.2:32903
334	0-20000-0-41480	0	335	['9:1708']	3	ADEN			0	45.03	12.83		19440130	19480906	1	0	63	NMS		Aden									[106, 107]							L.Haimberger	0	1.1		4.5	era5.1761.conv.9:1708
335	0-20000-0-78321	0	336	['2:12856']	3	LA FE, ISLA DE LA JUVENTUD			0	-82.77	21.73		19430801	19440531	1	0	63	NMS	9	Nueva Gerona									[106, 107]							L.Haimberger	0	0.0		17.3	era5.1761.conv.2:12856
336	0-20000-0-48062	0	337	['2:32945']	3	SITTWE			0	92.88	20.13		19450302	19791231	1	0	63	NMS		Akyab									[85, 106, 107, 117]							L.Haimberger	0	0.0		3.0	era5.1761.conv.2:32945
337	0-20000-0-58362	0	338	['9:1464']	3	SHANGHAI (BAOSHAN)			0	121.45	31.42		19570313	19591027	1	0	63	NMS		Shanghai									[106, 107]							L.Haimberger	0	24.5		17.4	era5.1761.conv.9:1464
338	0-20000-0-60445	0	339	['1:60445']	3	SETIF/AIN ARNAT			0	5.32	36.17		19520330	19570312	1	0	63	NMS	68	Tazmalt									[106, 107]							L.Haimberger	0	1.4		86.5	era5.1761.conv.1:60445
339	0-20000-0-40102	0	340	['2:40102']	3	RAYACK			0	36.0	33.87		19450523	19450809	1	0	63	NMS		Sitangkai									[106, 107]							L.Haimberger	0	9125.1		55.2	era5.1761.conv.2:40102
340	0-20500-0-40201	0	341	['9:2261']	3	MOROTAI AAF			0	128.3	2.03		19540705	19580315	1	0	63	NMS		Ternate									[106, 107]							L.Haimberger	0	3.1		172.0	era5.1761.conv.9:2261
341	0-20001-0-04030	0	342	['2:16203']	3	REYKJAVIK (4030-1)			0	-21.93	64.13		19420401	19431015	1	0	63	NMS		Reykjavik									[106, 107]							L.Haimberger	0	0.0		2.4	era5.1761.conv.2:16203
342	0-20000-0-70200	0	343	['2:26604']	3	NOME, AK			0	-165.43	64.51		19460102	19460226	1	0	63	NMS		None									[85, 117]							L.Haimberger	0	1.1		None	era5.1761.conv.2:26604
343	0-20000-0-11010	0	344	['2:34182']	3	LINZ/HOERSCHING-FLUGHAFEN			0	14.19	48.24		19480105	19490125	1	0	63	NMS	243	Traun									[106, 107]							L.Haimberger	0	1.3		4.2	era5.1761.conv.2:34182
344	0-20000-0-42379	0	345	['9:1729']	3	GORAKHPUR			0	83.37	26.75		19440103	19481226	1	0	63	NMS		Gorakhpur									[106, 107]							L.Haimberger	0	0.0		0.7	era5.1761.conv.9:1729
345	0-20000-0-87576	0	346	['1:87585']	3	EZEIZA AERO			0	-58.54	-34.82		19490201	19570831	1	0	63	NMS		San Vicente									[85, 106, 107, 117]							L.Haimberger	0	27.2		45.7	era5.1761.conv.1:87585
346	0-20500-0-34155	0	347	['2:34155']	3	FANO MU 5+11			0	13.03	43.83		19450420	19450731	1	0	63	NMS	243	Fano									[106, 107]							L.Haimberger	0	0.0	9709.9	1.1	era5.1761.conv.2:34155
347	0-20000-0-12847	0	348	['2:12847']	3	TAT			0	18.6	47.75		19430415	19450530	1	0	63	NMS	192	De Land									[106, 107]							L.Haimberger	0	8365.7		12.7	era5.1761.conv.2:12847
348	0-20500-0-32924	0	349	['2:32924']	3	TINGKAWK SAKAN			0	96.72	26.07		19440617	19450204	1	0	63	NMS		Myitkyina									[106, 107]							L.Haimberger	0	0.0	5769.2	102.2	era5.1761.conv.2:32924
349	0-20300-0-26635	0	350	['2:26635']	3	MOUNTAIN VILLAGE			0	-163.75	62.1167		19440108	19450613	1	0	63	NMS		None									[106, 107]							L.Haimberger	0	0.4		None	era5.1761.conv.2:26635
350	0-20001-0-16546	0	351	['2:33014']	3	DECIMOMANNU RDS			0	8.97	39.35		19431106	19440907	1	0	63	NMS	68	Sinnai									[106, 107]							L.Haimberger	0	18.1		2.9	era5.1761.conv.2:33014
351	0-20500-0-93199	0	352	['2:93199']	3	ENSENADA			0	-115.37	31.87		19480316	19570123	1	0	63	NMS		Ensenada									[106, 107]							L.Haimberger	0	119.2	7056.1	1.3	era5.1761.conv.2:93199
352	0-20300-0-13719	0	353	['2:13719']	3	CUMBERLAND			0	-78.6667	39.6667		19290109	19310910	1	0	63	NMS	9	Cumberland									[106, 107]							L.Haimberger	0	0.5		8.2	era5.1761.conv.2:13719
353	0-20000-0-01317	0	354	['9:4176']	3	BERGEN/FLORIDA			0	5.33	60.38		19401203	19420331	1	0	63	NMS		Bergen									[85, 117]							L.Haimberger	0	0.0		1.3	era5.1761.conv.9:4176
354	0-20000-0-02226	0	355	['9:4185']	3	OSTERSUND FROSON			0	14.5	63.2		19330608	19350307	1	0	63	NMS		Ostersund									[85, 117]							L.Haimberger	0	6.9		1.1	era5.1761.conv.9:4185
355	0-20500-0-26105	0	356	['2:26105']	3	MILLS LAKE			0	-117.37	61.25		19440510	19440815	1	0	63	NMS		Yellowknife									[106, 107]							L.Haimberger	0	67.6	13587.1	262.0	era5.1761.conv.2:26105
356	0-20300-0-13851	0	357	['2:13851']	3	MARIANNA (AAF)			0	-85.2	30.8333		19421214	19450128	1	0	63	NMS	9	Bainbridge									[106, 107]							L.Haimberger	0	38.3		23.0	era5.1761.conv.2:13851
357	0-20000-0-74730	0	358	['2:23030']	3	SANDERSON, TX.			0	-102.42	30.17		19290102	19350929	1	0	63	NMS		Del Rio									[106, 107]							L.Haimberger	0	23.4		149.0	era5.1761.conv.2:23030
358	0-20500-0-12828	0	359	['2:12828']	3	BUSHNELL AAF			0	-81.92	28.68		19440518	19450831	1	0	63	NMS	9	Leesburg									[106, 107]							L.Haimberger	0	15.6	6347.6	24.5	era5.1761.conv.2:12828
359	0-20000-0-91285	0	360	['2:21501']	3	HILO HI, HAWAII			0	-155.06	19.72		19430416	19431230	1	0	63	NMS		Hilo									[106, 107]							L.Haimberger	0	13.6		16.8	era5.1761.conv.2:21501
360	0-20000-0-72391	0	361	['2:23136']	3	POINT MUGU/NAS, CA.			0	-119.12	34.12		19440503	19441009	1	0	63	NMS		Moorpark									[106, 107]							L.Haimberger	0	21.5		8.1	era5.1761.conv.2:23136
361	0-20000-0-85799	0	362	['9:1484']	3	PUERTO MONTT			0	-73.1	-41.43		19500714	19560524	1	0	63	NMS		Puerto Montt									[106, 107]							L.Haimberger	0	14.9		1.2	era5.1761.conv.9:1484
362	0-504-1-60291	0	363	['9:2092']	3	Tarfaya			0	-12.93	27.94		19520119	19540830	1	0	63	NMS	247	Puerto Del Rosario									[106, 107]							L.Haimberger	0	1.5		112.1	era5.1761.conv.9:2092
363	0-20000-0-72221	0	364	['2:3844']	3	VALPARAISO/EGLIN AFB, FL.			0	-86.52	30.48		19490908	19491026	1	0	63	NMS	9	Crestview									[106, 107]							L.Haimberger	0	18.9		13.0	era5.1761.conv.2:3844
364	0-20000-0-74486	0	365	['2:14726']	3	NEW YORK/JOHN F. KENNEDY INT., NY.			0	-73.78	40.65		19290102	19311211	1	0	63	NMS	9	Woodmere									[106, 107]							L.Haimberger	0	13.5		17.3	era5.1761.conv.2:14726
365	0-20000-0-57127	0	366	['2:43006']	3	HANZHONG			0	107.03	33.07		19450307	19450929	1	0	63	NMS		Hanzhong									[106, 107]							L.Haimberger	0	19.4		19.5	era5.1761.conv.2:43006
366	0-20000-0-74465	0	367	['9:1687']	3	DUNNE CRIB IL.			0	-87.53	41.78		19430927	19440615	1	0	63	NMS	9	Chicago									[106, 107]							L.Haimberger	0	5.8		8.8	era5.1761.conv.9:1687
367	0-20500-0-51401	0	368	['2:51401']	3	CAMP ECLIPSE			0	-42.33	-16.8		19470413	19470520	1	0	63	NMS		Bocaiuva									[85, 117]							L.Haimberger	0	149.4	3763.5	18.1	era5.1761.conv.2:51401
368	0-20000-0-54337	0	369	['1:54337']	3	JINZHOU			0	121.12	41.13		19570301	19591231	1	0	63	NMS		Jinzhou									[106, 107]							L.Haimberger	0	0.0		3.1	era5.1761.conv.1:54337
369	0-20000-0-54374	0	370	['1:54374']	3	LINJIANG			0	126.88	41.8		19570302	19591231	1	0	63	NMS		Linjiang									[106, 107]							L.Haimberger	0	9.2		10.8	era5.1761.conv.1:54374
370	0-20000-0-72256	0	371	['2:13928']	3	WACO, MADISON-COOPER, TX.			0	-97.22	31.62		19420826	19520531	1	0	63	NMS		Waco									[85, 106, 107, 117]							L.Haimberger	0	0.0		22.4	era5.1761.conv.2:13928
371	0-20000-0-71401	0	372	['9:463']	3	WARFIELD RCS			0	-117.74	49.11		19440609	19460124	1	0	63	NMS		Spokane									[106, 107]							L.Haimberger	0	22.4		141.6	era5.1761.conv.9:463
372	0-20000-0-56985	0	373	['2:42020']	3	MENGZI			0	103.33	23.44		19450501	19450930	1	0	63	NMS		Gejiu									[106, 107]							L.Haimberger	0	13.9		30.4	era5.1761.conv.2:42020
373	0-20000-0-48035	0	374	['2:32942']	3	LASHIO			0	97.75	22.93		19450510	19450814	1	0	63	NMS		Lashio									[106, 107]							L.Haimberger	0	5.5		5.2	era5.1761.conv.2:32942
374	0-20500-0-26315	0	375	['2:26315']	3	KITTIGAZUIT			0	-134.0	69.25		19480401	19480914	1	0	63	NMS		None									[106, 107]							L.Haimberger	0	0.0	15370.6	None	era5.1761.conv.2:26315
375	0-20300-0-13855	0	376	['2:13855']	3	TULLAHOMA WILLIAM NORTHERN AAF			0	-86.2333	35.3833		19430817	19450106	1	0	63	NMS	9	Tullahoma									[106, 107]							L.Haimberger	0	42.1		40.0	era5.1761.conv.2:13855
376	0-20000-0-74754	0	377	['1:74754']	3	ENGLAND AFB, LA.			0	-92.55	31.32		19550215	19550430	1	0	63	NMS		Alexandria									[85, 117]							L.Haimberger	0	1.1		10.2	era5.1761.conv.1:74754
377	0-20000-0-10544	0	378	['1:10544']	3	WASSERKUPPE			0	9.94	50.5		19260803	19310914	1	0	63	NMS	205	Kunzell									[85, 117]							L.Haimberger	0	0.7		17.5	era5.1761.conv.1:10544
378	0-20000-0-76243	0	379	['2:22002']	3	PIEDRAS NEGRAS, COAH.			0	-100.55	28.68		19430621	19450429	1	0	63	NMS		Eagle Pass									[106, 107]							L.Haimberger	0	21.3		18.0	era5.1761.conv.2:22002
379	0-20000-0-41756	0	380	['9:3356']	3	JIWANI			0	61.8	25.07		19441006	19790923	1	0	63	NMS	69	Jiwani									[85, 117]							L.Haimberger	0	11.3		13.7	era5.1761.conv.9:3356
380	0-20000-0-41216	0	381	['2:41216']	3	ABU DHABI BATEEN AIRPORT			0	54.47	24.43		19450720	19450818	1	0	63	NMS	132	San Jose									[106, 107]							L.Haimberger	0	7101.6		6.5	era5.1761.conv.2:41216
381	0-20000-0-71868	0	382	['2:25002']	3	HUDSON BAY (AUT), SASK			0	-102.32	52.82		19440103	19450711	1	0	63	NMS		Yorkton									[106, 107]							L.Haimberger	0	7.7		184.0	era5.1761.conv.2:25002
382	0-20500-0-12808	0	383	['2:12808']	3	LAKELAND			0	-81.98	28.0		19430617	19450331	1	0	63	NMS	9	Lakeland									[106, 107]							L.Haimberger	0	3.9	6196.9	8.1	era5.1761.conv.2:12808
383	0-20000-0-78348	0	384	['2:12705']	3	CAIBARIEN, VILLA CLARA			0	-79.45	22.52		19440801	19440831	1	0	63	NMS	9	Caibarien									[106, 107]							L.Haimberger	0	25.7		27.2	era5.1761.conv.2:12705
384	0-20000-0-72509	0	385	['2:14789']	3	BOSTON/LOGAN INT., MA.			0	-71.03	42.37		19420601	19451030	1	0	63	NMS	9	Quincy									[106, 107]							L.Haimberger	0	7.8		5.7	era5.1761.conv.2:14789
385	0-20000-0-43321	0	386	['2:43321']	3	COIMBATORE/PEELAMEDU			0	77.05	11.03		19540624	19540805	1	0	63	NMS		Kisarazu									[106, 107]							L.Haimberger	0	6854.4		0.6	era5.1761.conv.2:43321
386	0-620-3001-08508	0	387	['2:13204']	3	LAJES (ACORES) (8508-0)			0	-27.09	38.77		19441101	19450731	1	0	63	NMS		Angra									[106, 107]							L.Haimberger	0	5.6		22.3	era5.1761.conv.2:13204
387	0-20000-0-94346	0	388	['2:82404']	3	LONGREACH AERO			0	144.28	-23.44		19420731	19430722	1	0	63	NMS		Townsville									[106, 107]							L.Haimberger	0	15.4		539.9	era5.1761.conv.2:82404
388	0-20500-0-23249	0	389	['2:23249']	3	WATSONVILLE MUNI AP			0	-120.22	36.93		19440323	19450930	1	0	63	NMS		Watsonville									[106, 107]							L.Haimberger	0	139.0	8179.1	3.1	era5.1761.conv.2:23249
389	0-20500-0-23143	0	390	['2:23143']	3	GRAND CANYON HDQS			0	-111.87	36.05		19421231	19430621	1	0	63	NMS		Flagstaff									[106, 107]							L.Haimberger	0	23.4	7982.2	104.0	era5.1761.conv.2:23143
390	0-20000-0-47971	0	391	['2:42402']	3	CHICHIJIMA			0	142.19	27.09		19531020	19561231	1	0	63	NMS		None									[106, 107]							L.Haimberger	0	1.5		None	era5.1761.conv.2:42402
391	0-20000-0-62062	0	392	['2:33204']	3	TOBRUK			0	23.96	32.1		19441027	19450922	1	0	63	NMS	64	Tubruq									[106, 107]							L.Haimberger	0	27.9		26.3	era5.1761.conv.2:33204
392	0-20500-0-40705	0	393	['2:40705']	3	APAMAMA NF			0	173.83	0.47		19431223	19440913	1	0	63	NMS		Bairiki									[106, 107]							L.Haimberger	0	0.0	103.9	134.2	era5.1761.conv.2:40705
393	0-20000-0-98550	0	394	['2:41220']	3	TACLOBAN			0	125.03	11.23		19450606	19451031	1	0	63	NMS		Tacloban									[106, 107]							L.Haimberger	0	5.9		8.3	era5.1761.conv.2:41220
394	0-20000-0-54527	0	395	['1:54527']	3	TIANJIN			0	117.17	39.1		19570303	19591231	1	0	63	NMS		Tianjin									[106, 107]							L.Haimberger	0	9.5		5.8	era5.1761.conv.1:54527
395	0-20000-0-16158	0	396	['2:34144']	3	PISA S. GIUSTO			0	10.4	43.68		19441002	19450323	1	0	63	NMS		Leghorn									[106, 107]							L.Haimberger	0	20.6		5.8	era5.1761.conv.2:34144
396	0-20000-0-94995	0	397	['9:1492']	3	LORD HOWE ISLAND AERO			0	159.08	-31.54		19490101	19550814	1	0	63	NMS		None									[106, 107]							L.Haimberger	0	2.2		None	era5.1761.conv.9:1492
397	0-20000-0-02919	0	398	['9:4170']	3	LAPPEENRANTA HIEKKAPAKKA			0	28.47	61.2		19440710	19440919	1	0	63	NMS	107	Imatra									[85, 117]							L.Haimberger	0	17.0		0.8	era5.1761.conv.9:4170
398	0-20000-0-72507	0	399	['2:14787']	3	PROVIDENCE/GREEN STATE, RI.			0	-71.43	41.73		19400109	19400930	1	0	63	NMS	9	Middletown									[106, 107]							L.Haimberger	0	23.2		5.1	era5.1761.conv.2:14787
399	0-20500-0-13844	0	400	['2:13844']	3	PERRY FOLEY AP			0	-82.42	30.07		19440601	19450128	1	0	63	NMS	9	Tallahassee									[106, 107]							L.Haimberger	0	111.8	6656.9	78.8	era5.1761.conv.2:13844
400	0-20500-0-24175	0	401	['2:24175']	3	SALT LAKE CITY			0	-110.1	40.77		19240401	19280430	1	0	63	NMS		Evanston									[106, 107]							L.Haimberger	0	1.7	9030.1	89.9	era5.1761.conv.2:24175
401	0-20000-0-72210	0	402	['1:74788']	3	TAMPA BAY AREA, FL.			0	-82.4	27.71		19410402	19510728	1	0	63	NMS	9	Tampa									[106, 107]							L.Haimberger	0	19.5		12.4	era5.1761.conv.1:74788
402	0-20000-0-72537	0	403	['2:14856']	3	DETROIT/METROPOLITAN, MI.			0	-83.33	42.23		19430301	19460731	1	0	63	NMS	9	Grosse Ile									[106, 107]							L.Haimberger	0	19.6		3.9	era5.1761.conv.2:14856
403	0-20000-0-16324	0	404	['2:34102']	3	GROTTAGLIE			0	17.4	40.52		19440407	19450430	1	0	63	NMS		Manduria									[106, 107]							L.Haimberger	0	21.9		3.3	era5.1761.conv.2:34102
404	0-20500-0-16408	0	405	['2:16408']	3	COMANCHE BAY			0	-39.77	65.07		19431211	19450909	1	0	63	NMS		None									[106, 107]							L.Haimberger	0	21.6	14438.3	None	era5.1761.conv.2:16408
405	0-20000-0-72250	0	406	['2:12915']	3	BROWNSVILLE/INT., TX			0	-97.42	25.92		19290128	19291106	1	0	63	NMS		Matamoros									[106, 107]							L.Haimberger	0	13.8		5.0	era5.1761.conv.2:12915
406	0-20500-0-12707	0	407	['2:12707']	3	WALKER CAY			0	-77.62	27.27		19431108	19440731	1	0	63	NMS	9	Freeport									[106, 107]							L.Haimberger	0	75.3	6035.6	87.6	era5.1761.conv.2:12707
407	0-20000-0-40690	0	408	['9:1864']	3	BASRAH INT. AIRPORT			0	47.78	30.52		19490202	19561203	1	0	63	NMS	228	Khorramshahr									[106, 107]							L.Haimberger	0	16.7		49.7	era5.1761.conv.9:1864
408	0-504-1-60098	0	409	['2:13011']	3	Amizmiz			0	-8.23	31.22		19450501	19450614	1	0	63	NMS	227	Marrakesh									[106, 107]							L.Haimberger	0	26.2		71.0	era5.1761.conv.2:13011
409	0-20500-0-14792	0	410	['2:14792']	3	TRENTON MERCER CO AP			0	-73.18	40.28		19431115	19450831	1	0	63	NMS	9	Ewing									[106, 107]							L.Haimberger	0	139.5	8921.7	1.7	era5.1761.conv.2:14792
410	0-20000-0-04339	0	411	['2:17201']	3	ITTOQQORTOORMIIT (SCORESBYSUND)			0	-21.95	70.48		19420820	19440831	1	0	63	NMS		Akureyri									[106, 107]							L.Haimberger	0	0.7		560.3	era5.1761.conv.2:17201
411	0-20000-0-60141	0	412	['2:13003']	3	FES-SAIS			0	-4.98	33.93		19430201	19430801	1	0	63	NMS	227	Fez									[106, 107]							L.Haimberger	0	17.5		8.8	era5.1761.conv.2:13003
412	0-20500-0-26501	0	413	['9:520']	3	GALENA AP			0	-155.1	64.72		19410407	19420831	1	0	63	NMS		None									[106, 107]							L.Haimberger	0	15.8		None	era5.1761.conv.9:520
413	0-20500-0-13823	0	414	['2:13823']	3	GRENADA AAF			0	-88.2	33.78		19431005	19440518	1	0	63	NMS	9	Grenada									[106, 107]							L.Haimberger	0	148.2	7480.4	1.5	era5.1761.conv.2:13823
414	0-20000-0-16289	0	415	['2:34103']	3	NAPOLI/CAPODICHINO			0	14.29	40.88		19440301	19440701	1	0	63	NMS	66	Brusciano									[106, 107]							L.Haimberger	0	12.6		1.2	era5.1761.conv.2:34103
415	0-20000-0-91285	0	416	['2:21503']	3	HILO HI, HAWAII			0	-155.06	19.72		19440404	19451226	1	0	63	NMS		Hilo									[106, 107]							L.Haimberger	0	1.0		4.3	era5.1761.conv.2:21503
416	0-20000-0-41977	0	417	['9:3364']	3	CHITTAGONG (AMBAGAN)			0	91.82	22.35		19441014	19791231	1	0	63	NMS		Patiya									[85, 117]							L.Haimberger	0	1.0		16.1	era5.1761.conv.9:3364
417	0-20300-0-23122	0	418	['2:23130']	3	SAN BERNARDINO (NORTON AFB)			0	-117.2333	34.1		19440330	19450222	1	0	63	NMS		San Fernando									[106, 107]							L.Haimberger	0	28.7		8.9	era5.1761.conv.2:23130
418	0-20500-0-13808	0	419	['2:13808']	3	TALLAHASSEE MABRY			0	-83.67	30.43		19420511	19441101	1	0	63	NMS	9	Thomasville									[106, 107]							L.Haimberger	0	0.0	6735.6	53.9	era5.1761.conv.2:13808
419	0-152-0-320051	0	420	['9:1485']	3	Los Libertadores			0	-70.12	-32.85		19360407	19390420	1	0	63	NMS		Los Andes									[106, 107]							L.Haimberger	0	4.4		50.2	era5.1761.conv.9:1485
420	0-20000-0-72519	0	421	['2:14720']	3	SYRACUSE/HANCOCK, NY.			0	-76.12	43.12		19430701	19450311	1	0	63	NMS	9	Syracuse									[106, 107]							L.Haimberger	0	2.2		6.2	era5.1761.conv.2:14720
421	0-20000-0-54497	0	422	['1:54497']	3	DANDONG			0	124.33	40.05		19570302	19591231	1	0	63	NMS		Dandong									[106, 107]							L.Haimberger	0	4.8		14.7	era5.1761.conv.1:54497
422	0-20000-0-10113	0	423	['1:10113']	3	NORDERNEY			0	7.15	53.71		19351102	19381231	1	0	63	NMS		Norden									[85, 117]							L.Haimberger	0	1.1		13.8	era5.1761.conv.1:10113
423	0-20000-0-10954	0	424	['2:34161']	3	ALTENSTADT			0	10.87	47.83		19490214	19490412	1	0	63	NMS		Kaufbeuren									[106, 107]							L.Haimberger	0	19.2		1.5	era5.1761.conv.2:34161
424	0-20000-0-87765	0	425	['9:1486']	3	BARILOCHE AERO			0	-71.16	-41.15		19390128	19410707	1	0	63	NMS		San Carlos De Bariloche									[106, 107]							L.Haimberger	0	11.8		1.1	era5.1761.conv.9:1486
425	0-20000-0-17130	0	426	['2:33306']	3	ANKARA BLGE			0	32.88	39.95		19450202	19460217	1	0	63	NMS	106	Ankara									[106, 107]							L.Haimberger	0	11.1		8.8	era5.1761.conv.2:33306
426	0-20300-0-03123	0	427	['2:3123']	3	CAMP PENDLETON			0	-117.5	33.4		19540721	19541015	1	0	63	NMS		San Clemente									[85, 117]							L.Haimberger	0	0.0		10.8	era5.1761.conv.2:3123
427	0-20000-0-47741	0	428	['1:47742']	3	MATSUE			0	133.07	35.46		19340701	19370813	1	0	63	NMS		Sakaiminato									[106, 107]							L.Haimberger	0	17.6		0.3	era5.1761.conv.1:47742
428	0-20000-0-47813	0	429	['1:47813']	3	SAGA			0	130.31	33.27		19390112	19410218	1	0	63	NMS		Saga									[106, 107]							L.Haimberger	0	2.4		0.1	era5.1761.conv.1:47813
429	0-20500-0-33703	0	430	['9:3358']	3	PESHAWAR			0	71.58	34.02		19440921	19470708	1	0	63	NMS		Peshawar									[85, 117]							L.Haimberger	0	0.0		1.3	era5.1761.conv.9:3358
430	0-20000-0-72530	0	431	['2:14810']	3	CHICAGO/O'HARE, IL.			0	-87.9	41.98		19480401	19510227	1	0	63	NMS	9	Schiller Park									[106, 107]							L.Haimberger	0	0.0		3.6	era5.1761.conv.2:14810
431	0-20000-0-54135	0	432	['1:54135']	3	TONGLIAO			0	122.27	43.6		19570301	19591231	1	0	63	NMS		Tongliao									[106, 107]							L.Haimberger	0	7.9		6.5	era5.1761.conv.1:54135
432	0-20000-0-02562	0	433	['9:4184']	3	LINKOPING/MALMSLATT			0	15.53	58.4		19280204	19350911	1	0	63	NMS		Linkoping									[38, 85, 117]							L.Haimberger	0	2.3		5.7	era5.1761.conv.9:4184
433	0-20000-0-89250	0	434	['9:2222']	3	KING GEORGE ISLAND			0	-58.4	-62.08		19530208	19580616	1	0	63	NMS		None									[106, 107]							L.Haimberger	0	3.3		None	era5.1761.conv.9:2222
434	0-20500-0-26201	0	435	['2:26201']	3	FORT WRIGLEY			0	-122.67	63.2		19440314	19440914	1	0	63	NMS		None									[106, 107]							L.Haimberger	0	33.2	14021.5	None	era5.1761.conv.2:26201
435	0-20000-0-72240	0	436	['9:373']	3	LAKE CHARLES/MUN., LA.			0	-93.22	30.13		19181005	19190114	1	0	63	NMS		Lake Charles									[106, 107]							L.Haimberger	0	11.8		17.1	era5.1761.conv.9:373
436	0-20500-0-23015	0	437	['2:23015']	3	FORT SUMNER AAF			0	-103.78	34.48		19440215	19450630	1	0	63	NMS		Portales									[106, 107]							L.Haimberger	0	40.4	7634.0	87.8	era5.1761.conv.2:23015
437	0-20000-0-71921	0	438	['2:15619']	3	SCHEFFERVILLE A, QC			0	-66.81	54.81		19550701	19581231	1	0	63	NMS	9	Sept-Iles									[106, 107]							L.Haimberger	0	1.3		512.7	era5.1761.conv.2:15619
438	0-20000-0-68104	0	439	['9:4092']	3	WALVIS BAY (PELICAN POINT)			0	14.43	-22.88		19570812	19581221	1	0	63	NMS		Swakopmund									[85, 117]							L.Haimberger	0	24.0		1.4	era5.1761.conv.9:4092
439	0-20000-0-40648	0	440	['2:33405']	3	HABANYAH			0	43.57	33.38		19450609	19450919	1	0	63	NMS		Hit									[106, 107]							L.Haimberger	0	1.1		75.5	era5.1761.conv.2:33405
440	0-20300-0-27331	0	441	['1:27331']	3	JAROSLAVL			0	39.58	57.58		19500611	19530215	1	0	63	NMS	220	Yaroslavl									[85, 117]							L.Haimberger	0	0.0		17.0	era5.1761.conv.1:27331
441	0-20000-0-07790	0	442	['2:34005']	3	BASTIA			0	9.49	42.54		19440726	19450531	1	0	63	NMS	68	Bastia									[106, 107]							L.Haimberger	0	4.7		14.7	era5.1761.conv.2:34005
442	0-20000-0-82099	0	443	['2:10506']	3	MACAPA (AERO)			0	-51.07	0.05		19440118	19450912	1	0	63	NMS		Macapa									[106, 107]							L.Haimberger	0	6.0		3.4	era5.1761.conv.2:10506
443	0-20500-0-3117	0	444	['2:3117']	3	PONY SPRINGS			0	-113.38	38.52		19511012	19511129	1	0	63	NMS		Cedar City									[106, 107]							L.Haimberger	0	108.1	8531.4	165.7	era5.1761.conv.2:3117
444	0-20000-0-72293	0	445	['2:23198']	3	SAN DIEGO/MIRAMAR,  NAS, CA.			0	-117.12	32.83		19430719	19450626	1	0	63	NMS		Solana Beach									[106, 107]							L.Haimberger	0	19.7		3.0	era5.1761.conv.2:23198
445	0-20000-0-40179	0	446	['9:1086']	3	BET DAGAN			0	34.82	32.0		19440422	19450517	1	0	63	NMS		Qiryat Ono									[106, 107]							L.Haimberger	0	7.6		4.0	era5.1761.conv.9:1086
446	0-20300-0-01020	0	447	['9:3711']	3	KINNVIKA STATION			0	18.3	80.05		19570918	19580815	1	0	63	NMS	104	None									[85, 117]							L.Haimberger	0	0.0		None	era5.1761.conv.9:3711
447	0-20500-0-32902	0	448	['2:32902']	3	SOOKERATING			0	95.57	27.57		19440221	19450924	1	0	63	NMS		Dum Duma									[106, 107]							L.Haimberger	0	0.0	6101.6	0.5	era5.1761.conv.2:32902
448	0-20000-0-62176	0	449	['1:62176']	3	GIGHBUB			0	24.52	29.75		19490203	19591023	1	0	63	NMS	64	Tubruq									[106, 107]							L.Haimberger	0	7.8		256.5	era5.1761.conv.1:62176
449	0-20000-0-42182	0	450	['2:32703']	3	NEW DELHI/SAFDARJUNG			0	77.2	28.58		19450125	19460228	1	0	63	NMS		New Delhi									[106, 107]							L.Haimberger	0	0.0		2.2	era5.1761.conv.2:32703
450	0-20000-0-41416	0	451	['9:1857']	3	KAMARAN			0	42.58	15.37		19490306	19541112	1	0	63	NMS		Bajil									[106, 107]							L.Haimberger	0	6.2		77.0	era5.1761.conv.9:1857
451	0-20000-0-47749	0	452	['1:47749']	3	MAIZURU AB			0	135.38	35.49		19350801	19410610	1	0	63	NMS		Ayabe									[106, 107]							L.Haimberger	0	21.1		9.0	era5.1761.conv.1:47749
452	0-20000-0-06621	0	453	['1:10935']	3	GUETTINGEN			0	9.28	47.6		19260809	19360128	1	0	63	NMS		Friedrichshafen									[85, 117]							L.Haimberger	0	19.6		3.5	era5.1761.conv.1:10935
453	0-20000-0-42591	0	454	['2:32805']	3	GAYA (42591-0)			0	84.95	24.75		19440812	19450331	1	0	63	NMS		Gaya									[106, 107]							L.Haimberger	0	0.0		6.3	era5.1761.conv.2:32805
454	0-20000-0-54857	0	455	['2:43205']	3	QINGDAO			0	120.33	36.07		19460109	19480930	1	0	63	NMS		Qingdao									[106, 107]							L.Haimberger	0	13.0		9.1	era5.1761.conv.2:43205
455	0-20300-0-52889	0	456	['9:1415']	3	LANZHOU			0	103.883	36.05		19570304	19591228	1	0	63	NMS		Lanzhou									[106, 107]							L.Haimberger	0	9.3		1.3	era5.1761.conv.9:1415
456	0-20500-0-23223	0	457	['2:23223']	3	CAMP MORRO BAY AAF			0	-119.92	35.37		19461001	19461231	1	0	63	NMS		San Luis Obispo									[106, 107]							L.Haimberger	0	14.5	7831.3	53.5	era5.1761.conv.2:23223
457	0-20300-0-13826	0	458	['2:13826']	3	COURTLAND (AAF)			0	-87.3333	34.6667		19430413	19450131	1	0	63	NMS	9	Muscle Shoals									[106, 107]							L.Haimberger	0	0.5		32.0	era5.1761.conv.2:13826
458	0-20000-0-47891	0	459	['1:47891']	3	TAKAMATSU			0	134.05	34.32		19420123	19460227	1	0	63	NMS		Shido									[106, 107]							L.Haimberger	0	0.0		11.4	era5.1761.conv.1:47891
459	0-20500-0-24044	0	460	['9:479']	3	ALLIANCE MUNI AP			0	0.0	0.0		19181216	19190111	1	0	63	NMS		Takoradi									[106, 107]							L.Haimberger	0	0.0		574.0	era5.1761.conv.9:479
460	0-20001-0-16080	0	461	['2:34019']	3	MILANO LINATE RDS			0	9.28	45.46		19450919	19460201	1	0	63	NMS		Segrate									[106, 107]							L.Haimberger	0	1.9		2.0	era5.1761.conv.2:34019
461	0-20000-0-72521	0	462	['2:14813']	3	AKRON/AKRON-CANTON REG. OH.			0	-81.43	40.92		19480102	19480630	1	0	63	NMS	9	Tallmadge									[106, 107]							L.Haimberger	0	12.3		8.0	era5.1761.conv.2:14813
462	0-20000-0-78807	0	463	['2:10712']	3	COROZAL OESTE			0	-79.57	8.97		19440801	19451028	1	0	63	NMS	9	Panama									[106, 107]							L.Haimberger	0	1.1		4.3	era5.1761.conv.2:10712
463	0-20000-0-82397	0	464	['2:50306']	3	FORTALEZA (82397-0)			0	-38.6	-3.77		19440109	19450430	1	0	63	NMS		Caucaia									[106, 107]							L.Haimberger	0	5.5		9.5	era5.1761.conv.2:50306
464	0-20000-0-16289	0	465	['2:34113']	3	NAPOLI/CAPODICHINO			0	14.29	40.88		19450904	19470226	1	0	63	NMS	66	Casoria									[106, 107]							L.Haimberger	0	2.4		1.4	era5.1761.conv.2:34113
465	0-20000-0-55578	0	466	['1:55578']	3	XIGAZE			0	88.88	29.25		19570301	19591231	1	0	63	NMS		Punakha									[106, 107]							L.Haimberger	0	5.1		200.4	era5.1761.conv.1:55578
466	0-20500-0-23115	0	467	['2:23115']	3	ONTARIO AAF			0	-116.37	34.07		19430103	19450117	1	0	63	NMS		Ontario									[106, 107]							L.Haimberger	0	113.6	7541.7	4.8	era5.1761.conv.2:23115
467	0-20000-0-48071	0	468	['2:31902']	3	KYAUKPYU			0	93.55	19.42		19450501	19450609	1	0	63	NMS		Akyab									[106, 107]							L.Haimberger	0	2.4		106.2	era5.1761.conv.2:31902
468	0-20000-0-72290	0	469	['2:23196']	3	SAN DIEGO/LINDBERGH,  CA.			0	-117.17	32.73		19450204	19460328	1	0	63	NMS		Tijuana									[106, 107]							L.Haimberger	0	24.4		6.2	era5.1761.conv.2:23196
469	0-20000-0-72509	0	470	['2:14716']	3	BOSTON/LOGAN INT., MA.			0	-71.03	42.37		19440205	19440622	1	0	63	NMS	9	Cambridge									[106, 107]							L.Haimberger	0	5.8		0.7	era5.1761.conv.2:14716
470	0-20000-0-41150	0	471	['9:1710']	3	BAHRAIN (INT. AIRPORT)			0	50.65	26.27		19440102	19480826	1	0	63	NMS	228	Manama									[106, 107]							L.Haimberger	0	8.3		0.7	era5.1761.conv.9:1710
471	0-20300-0-13828	0	472	['2:13828']	3	DYERSBURG AAF			0	-89.4	35.9		19430523	19440630	1	0	63	NMS	9	Dyersburg									[106, 107]							L.Haimberger	0	0.0		15.0	era5.1761.conv.2:13828
472	0-20000-0-72231	0	473	['2:13943']	3	NEW ORLEANS/MOISANT INT., LA.			0	-90.25	29.98		19420901	19440204	1	0	63	NMS		Chalmette									[106, 107]							L.Haimberger	0	27.6		9.7	era5.1761.conv.2:13943
473	0-20000-0-68816	0	474	['1:68816']	3	CAPE TOWN INTNL. AIRPORT			0	18.6	-33.96		19490701	19581231	1	0	63	NMS		Cape Town									[85, 117]							L.Haimberger	0	0.0		16.8	era5.1761.conv.1:68816
474	0-20500-0-16501	0	475	['2:16501']	3	CRUNCHER ISLAND			0	-52.43	66.03		19430528	19480410	1	0	63	NMS		Nuuk									[106, 107]							L.Haimberger	0	51.7	14652.7	222.9	era5.1761.conv.2:16501
475	0-20000-0-48053	0	476	['2:32953']	3	MEIKTILA			0	95.83	20.83		19450323	19450425	1	0	63	NMS		Meiktila									[106, 107]							L.Haimberger	0	7.6		2.0	era5.1761.conv.2:32953
476	0-20000-0-91246	0	477	['2:41602']	3	WAKE ISLAND WQ, WAKE ISLAND AIRFIELD ARPT			0	166.64	19.28		19460701	19480518	1	0	63	NMS		None									[106, 107]							L.Haimberger	0	3.1		None	era5.1761.conv.2:41602
477	0-20000-0-71621	0	478	['2:4715']	3	TRENTON A, ONT			0	-77.53	44.12		19550702	19581231	1	0	63	NMS	9	Belleville									[106, 107]							L.Haimberger	0	0.0		12.8	era5.1761.conv.2:4715
478	0-20500-0-13834	0	479	['2:13834']	3	LAUREL MUNICIPAL AP			0	-88.85	31.67		19431104	19440318	1	0	63	NMS	9	Laurel									[106, 107]							L.Haimberger	0	1.9	7010.5	3.2	era5.1761.conv.2:13834
479	0-20000-0-60735	0	480	['1:60735']	3	KAIROUAN			0	10.1	35.67		19550125	19580722	1	0	63	NMS	68	Masakin									[106, 107]							L.Haimberger	0	0.0		44.0	era5.1761.conv.1:60735
480	0-20000-0-01271	0	481	['9:1391']	3	TRONDHEIM/VERNES			0	10.94	63.46		19401203	19420321	1	0	63	NMS		Trondheim									[85, 117]							L.Haimberger	0	1.2		26.3	era5.1761.conv.9:1391
481	0-20000-0-47755	0	482	['1:47755']	3	HAMADA			0	132.07	34.9		19381201	19410611	1	0	63	NMS		Hamada									[106, 107]							L.Haimberger	0	0.0		2.2	era5.1761.conv.1:47755
482	0-20300-0-12920	0	483	['2:12907']	3	LAREDO			0	-99.4833	27.5333		19440601	19450304	1	0	63	NMS		Alice									[106, 107]							L.Haimberger	0	1.4		51.7	era5.1761.conv.2:12907
483	0-20000-0-41301	0	484	['2:41301']	3	HAIMA			0	56.38	20.06		19450816	19451110	1	0	63	NMS		None									[106, 107]							L.Haimberger	0	8954.8		None	era5.1761.conv.2:41301
484	0-20000-0-10637	0	485	['1:10637']	3	FRANKFURT/MAIN			0	8.52	50.03		19350909	19381231	1	0	63	NMS	205	Kelsterbach									[85, 117]							L.Haimberger	0	6.1		5.1	era5.1761.conv.1:10637
485	0-20000-0-41891	0	486	['2:32916']	3	SYLHET			0	91.88	24.9		19440212	19450131	1	0	63	NMS		Chhatak									[106, 107]							L.Haimberger	0	6.9		19.3	era5.1761.conv.2:32916
486	0-20500-0-34118	0	487	['2:34118']	3	PRESENZANO			0	14.07	41.37		19440303	19440327	1	0	63	NMS	66	Venafro									[106, 107]							L.Haimberger	0	0.0	9163.3	13.0	era5.1761.conv.2:34118
487	0-20001-0-72429	0	488	['2:3835']	3	DAYTON/. COX, OH.			0	-84.12	39.87		19210701	19211125	1	0	63	NMS	9	Vandalia									[106, 107]							L.Haimberger	0	7.6		1.1	era5.1761.conv.2:3835
488	0-20300-0-45703	0	489	['2:45710']	3	KISKA ISLAND			0	177.5667	51.9833		19431203	19440718	1	0	63	NMS		None									[106, 107]							L.Haimberger	0	2.5		None	era5.1761.conv.2:45710
489	0-20000-0-47426	0	490	['1:47426']	3	URAKAWA			0	142.78	42.16		19451101	19480930	1	0	63	NMS		Shizunai									[106, 107]							L.Haimberger	0	1.1		38.6	era5.1761.conv.1:47426
490	0-20000-0-16101	0	491	['2:16101']	3	VENEZIA LIDO			0	12.38	45.43		19440206	19440731	1	0	63	NMS		Akureyri									[106, 107]							L.Haimberger	0	2903.5		1.0	era5.1761.conv.2:16101
491	0-20000-0-89063	0	492	['9:2225']	3	VERNADSKY			0	-64.27	-65.25		19530109	19580626	1	0	63	NMS		None									[106, 107]							L.Haimberger	0	0.0		None	era5.1761.conv.9:2225
492	0-20000-0-61901	0	493	['2:51004']	3	ST. HELENA IS.			0	-5.67	-15.94		19430518	19450912	1	0	63	NMS		None									[106, 107]							L.Haimberger	0	5.8		None	era5.1761.conv.2:51004
493	0-20300-0-96881	0	494	['9:2252']	3	MADIUN/ISWAHYUD AFB			0	111.51700000000001	-7.617000000000001		19540702	19650805	1	0	63	NMS		Madiun									[106, 107]							L.Haimberger	0	0.5		1.2	era5.1761.conv.9:2252
494	0-20000-0-56786	0	495	['2:42008']	3	ZHANYI			0	103.83	25.58		19440222	19451030	1	0	63	NMS		Qujing									[106, 107]							L.Haimberger	0	7.5		16.3	era5.1761.conv.2:42008
495	0-20000-0-74389	0	496	['1:74392']	3	GRAY, ME.			0	-70.26	43.89		19530305	19550519	1	0	63	NMS	9	Brunswick									[85, 117]							L.Haimberger	0	26.5		4.8	era5.1761.conv.1:74392
496	0-20001-0-51463	0	497	['9:1405']	3	WU LU MU QI (51463-1)			0	87.62	43.78		19570301	19591231	1	0	63	NMS		Urumqi									[106, 107]							L.Haimberger	0	1.1		3.8	era5.1761.conv.9:1405
497	0-20000-0-98531	0	498	['2:41225']	3	SAN JOSE (98531-0)			0	121.03	12.35		19450801	19450914	1	0	63	NMS		Calintaan									[106, 107]							L.Haimberger	0	27.8		6.9	era5.1761.conv.2:41225
498	0-20300-0-53420	0	499	['9:1222']	3	XAMBA			0	107.17	40.97		19570301	19581205	1	0	63	NMS		Haibowan									[106, 107]							L.Haimberger	0	0.0		148.1	era5.1761.conv.9:1222
499	0-20000-0-94829	0	500	['2:94829']	3	HAMILTON AIRPORT			0	142.06	-37.65		19540516	19541002	1	0	63	NMS		Battle Creek									[85, 117]							L.Haimberger	0	16005.5		7.9	era5.1761.conv.2:94829
500	0-20000-0-07180	0	501	['2:34016']	3	NANCY-ESSEY			0	6.22	48.69		19441117	19441125	1	0	63	NMS	205	Vandoeuvre-Les-Nancy									[106, 107]							L.Haimberger	0	2.7		1.8	era5.1761.conv.2:34016
501	0-20000-0-71842	0	502	['2:15909']	3	SIOUX LOOKOUT A, ONT			0	-91.9	50.12		19550702	19581231	1	0	63	NMS		Kenora									[106, 107]							L.Haimberger	0	0.0		188.4	era5.1761.conv.2:15909
502	0-20000-0-94672	0	503	['1:94677']	3	ADELAIDE AIRPORT			0	138.52	-34.95		19450227	19540614	1	0	63	NMS		Adelaide									[85, 117]							L.Haimberger	0	23.4		19.8	era5.1761.conv.1:94677
503	0-20500-0-23018	0	504	['2:23018']	3	HOBBS AAF			0	-102.78	32.75		19441220	19450625	1	0	63	NMS		Hobbs									[106, 107]							L.Haimberger	0	41.2	7250.2	9.5	era5.1761.conv.2:23018
504	0-20000-0-72255	0	505	['2:12914']	3	VICTORIA/VICTORIA REGIONAL, TX.			0	-96.92	28.85		19440803	19450620	1	0	63	NMS		Victoria									[106, 107]							L.Haimberger	0	9.7		12.7	era5.1761.conv.2:12914
505	0-20000-0-74793	0	506	['2:12855']	3	VERO BEACH, FL, VERO BEACH MUNI ARPT			0	-80.42	27.66		19430902	19460329	1	0	63	NMS	9	Vero Beach									[106, 107]							L.Haimberger	0	1.1		2.6	era5.1761.conv.2:12855
506	0-20001-0-50953	0	507	['1:50953']	3	HARBIN (50953-1)			0	126.57	45.93		19570301	19591230	1	0	63	NMS		Harbin									[106, 107]							L.Haimberger	0	20.5		1.6	era5.1761.conv.1:50953
507	0-705-0-1916	0	508	['9:1916']	3	ZGORNJA KAPLA			0	15.35	46.64		19471031	19471130	1	0	63	NMS	243	Yukuhashi									[106, 107]							L.Haimberger	0	9026.0		0.5	era5.1761.conv.9:1916
508	0-20000-0-72786	0	509	['2:24114']	3	SPOKANE, WA.			0	-117.63	47.68		19440716	19520725	1	0	63	NMS		Cheney									[106, 107]							L.Haimberger	0	6.8		15.8	era5.1761.conv.2:24114
509	0-20000-0-60096	0	510	['2:12103']	3	DAKHLA			0	-15.93	23.71		19451108	19460316	1	0	63	NMS	247	Nouadhibou									[106, 107]							L.Haimberger	0	4.4		336.6	era5.1761.conv.2:12103
510	0-20000-0-93909	0	511	['2:93909']	3	SOUTH WEST CAPE AWS			0	167.46	-47.28		19421124	19460531	1	0	63	NMS		Gardner									[106, 107]							L.Haimberger	0	13559.7		4.6	era5.1761.conv.2:93909
511	0-20000-0-71831	0	512	['2:14899']	3	KAPUSKASING A, ONT			0	-82.47	49.41		19550701	19581231	1	0	63	NMS	9	Timmins									[106, 107]							L.Haimberger	0	1.1		134.8	era5.1761.conv.2:14899
512	0-20000-0-72533	0	513	['2:14805']	3	FORT WAYNE/MUN.,  BAER FLD., IN.			0	-85.2	41.0		19420129	19450131	1	0	63	NMS	9	Fort Wayne									[106, 107]							L.Haimberger	0	2.8		14.5	era5.1761.conv.2:14805
513	0-20000-0-43049	0	514	['9:1736']	3	GOPALPUR			0	84.88	19.27		19460220	19481230	1	0	63	NMS		Brahmapur									[106, 107]							L.Haimberger	0	0.0		11.4	era5.1761.conv.9:1736
514	0-20000-0-85442	0	515	['1:85442']	3	ANTOFAGASTA			0	-70.44	-23.45		19430502	19530403	1	0	63	NMS		Antofagasta									[106, 107]							L.Haimberger	0	3.5		19.1	era5.1761.conv.1:85442
515	0-20000-0-02864	0	516	['9:4168']	3	KEMI-TORNIO AIRPORT			0	24.58	65.79		19450111	19450526	1	0	63	NMS		Kemi									[85, 117]							L.Haimberger	0	6.7		0.7	era5.1761.conv.9:4168
516	0-20000-0-72483	0	517	['2:23206']	3	SACRAMENTO/EXECUTIVE CA.			0	-121.5	38.52		19420117	19450227	1	0	63	NMS		Rancho Cordova									[106, 107]							L.Haimberger	0	18.3		2.1	era5.1761.conv.2:23206
517	0-20000-0-71335	0	518	['2:15602']	3	SAGLEK, NFLD			0	-62.59	58.33		19431102	19450331	1	0	63	NMS		None									[106, 107]							L.Haimberger	0	14.7		None	era5.1761.conv.2:15602
518	0-20000-0-07386	0	519	['2:34010']	3	DOLE-TAVAUX			0	5.43	47.04		19440920	19441031	1	0	63	NMS	205	Dole									[106, 107]							L.Haimberger	0	6.8		3.4	era5.1761.conv.2:34010
519	0-20000-0-35188	0	520	['1:35188']	3	ASTANA			0	71.39	51.17		19550102	19561230	1	0	63	NMS		Astana									[117]							L.Haimberger	0	4.7		7.0	era5.1761.conv.1:35188
520	0-20500-0-3116	0	521	['2:3116']	3	GROOM MINE			0	-114.3	37.33		19511119	19511130	1	0	63	NMS		Pahrump									[106, 107]							L.Haimberger	0	124.1	8267.5	127.0	era5.1761.conv.2:3116
521	0-20000-0-40701	0	522	['2:40701']	3	MAKKO			0	44.39	39.38		19431211	19441031	1	0	63	NMS	190	Bairiki									[106, 107]							L.Haimberger	0	12964.5		190.4	era5.1761.conv.2:40701
522	0-20000-0-48008	0	523	['2:32927']	3	MYITKYINA			0	97.4	25.37		19440726	19451030	1	0	63	NMS		Myitkyina									[106, 107]							L.Haimberger	0	5.2		5.0	era5.1761.conv.2:32927
523	0-20000-0-72469	0	524	['2:23036']	3	DENVER/STAPLETON INT., CO.			0	-104.87	39.77		19460101	19460207	1	0	63	NMS		Parker									[106, 107]							L.Haimberger	0	19.6		11.3	era5.1761.conv.2:23036
524	0-20000-0-42705	0	525	['2:32816']	3	PURULIA			0	86.42	23.33		19440511	19440629	1	0	63	NMS		Adra									[106, 107]							L.Haimberger	0	14.0		18.7	era5.1761.conv.2:32816
525	0-20000-0-40642	0	526	['1:40642']	3	RUTBAH			0	40.28	33.03		19490407	19630426	1	0	63	NMS	223	Abu Kamal									[106, 107]							L.Haimberger	0	0.0		168.3	era5.1761.conv.1:40642
526	0-20000-0-47575	0	527	['1:47575']	3	AOMORI			0	140.77	40.82		19460401	19480830	1	0	63	NMS		Namioka									[106, 107]							L.Haimberger	0	0.8		20.4	era5.1761.conv.1:47575
527	0-20000-0-47605	0	528	['1:47605']	3	KANAZAWA			0	136.63	36.59		19390310	19410614	1	0	63	NMS		Nonoichi									[106, 107]							L.Haimberger	0	4.8		3.5	era5.1761.conv.1:47605
528	0-20000-0-97580	0	529	['2:80302']	3	SARMI/MARARENA			0	138.75	-1.87		19440526	19450921	1	0	63	NMS		Vanimo									[106, 107]							L.Haimberger	0	28.6		265.0	era5.1761.conv.2:80302
529	0-20500-0-13716	0	530	['2:13716']	3	HOLLYRIDGE AAF			0	-76.45	34.48		19440308	19450513	1	0	63	NMS	9	Jacksonville									[106, 107]							L.Haimberger	0	102.9	7636.9	30.9	era5.1761.conv.2:13716
530	0-20000-0-48033	0	531	['2:32938']	3	SHWEBO			0	95.72	22.58		19450203	19450831	1	0	63	NMS		Shwebo									[106, 107]							L.Haimberger	0	1.0		3.4	era5.1761.conv.2:32938
531	0-20000-0-42895	0	532	['9:1737']	3	BALASORE			0	86.93	21.52		19451025	19480229	1	0	63	NMS		Baleshwar									[106, 107]							L.Haimberger	0	2.2		0.7	era5.1761.conv.9:1737
532	0-20000-0-34123	0	533	['2:34123']	3	VORONEZ (34123-0)			0	39.22	51.7		19440201	19440824	1	0	63	NMS		San Giovanni Rotondo									[106, 107]							L.Haimberger	0	2109.8		16.7	era5.1761.conv.2:34123
533	0-20300-0-03671	0	534	['2:94005']	3	AKRON			0	-103.17	40.12		19520716	19520926	1	0	63	NMS		Fort Morgan									[85, 117]							L.Haimberger	0	0.0		55.5	era5.1761.conv.2:94005
534	0-20000-0-04063	0	535	['2:16104']	3	AKUREYRI			0	-18.08	65.68		19430514	19431001	1	0	63	NMS		Akureyri									[106, 107]							L.Haimberger	0	16.7		15.3	era5.1761.conv.2:16104
