	primary_id	primary_id_scheme	record_number	secondary_id	secondary_id_scheme	station_name	station_abbreviation	alternative_name	station_crs	longitude	latitude	local_gravity	start_date	end_date	station_type	platform_type	platform_sub_type	operating_institute	operating_territory	city	contact	role	observing_frequency	reporting_time	telecommunication_method	station_automation	measuring_system_model	measuring_system_id	observed_variables	comment	optional_data	bbox_min_longitude	bbox_max_longitude	bbox_min_latitude	bbox_max_latitude	metadata_contact	metadata_contact_role
0	0-20000-0-84018	0	1	84013	1	ESMERALDAS (TACHINA) AEROPUERTO			0	-79.63	0.98				1	0	63			Esmeraldas																L.Haimberger	0
1	0-20000-0-68826	0	2	68826	1	OUDTSHOORN			0	22.19	-33.6				1	0	63			Oudtshoorn																L.Haimberger	0
2	0-20000-0-80412	0	3	80412	1	PTO. CABELLO			0	-68.0	10.5				1	0	63			Puerto Cabello																L.Haimberger	0
3	0-20000-0-10618	0	4	10626	1	IDAR-OBERSTEIN			0	7.33	49.69				1	0	63			Bad Kreuznach																L.Haimberger	0
4	0-20000-0-14441	0	5	13330	1	KOMIZA			0	16.09	43.05				1	0	63			Trogir																L.Haimberger	0
5	0-20000-0-47100	0	6	47100	1	BUKGANGNEUNG			0	128.86	37.8				1	0	63			Seoul																L.Haimberger	0
6	0-20000-0-07630	0	7	7630	1	TOULOUSE RW			0	1.37	43.58				1	0	63			Blagnac																L.Haimberger	0
7	0-20000-0-10827	0	8	10828	1	MESSSTETTEN			0	8.94	48.17				1	0	63			Sigmaringen																L.Haimberger	0
8	0-20000-0-07180	0	9	7180	1	NANCY-ESSEY			0	6.22	48.69				1	0	63			Nancy																L.Haimberger	0
9	0-20000-0-07481	0	10	7481	1	LYON-ST EXUPERY			0	5.08	45.73				1	0	63			Genas																L.Haimberger	0
10	0-20000-0-72202	0	11	72202	1	MIAMI, FL (72202-1)			0	-80.38	25.75				1	0	63			Miami Springs																L.Haimberger	0
11	0-20000-0-74455	0	12	74455	1	QUAD CITY, IA.			0	-90.58	41.61				1	0	63			Davenport																L.Haimberger	0
12	0-20000-0-61470	0	13	61470	1	ALEG			0	-12.92	17.05				1	0	63			Bababe																L.Haimberger	0
13	0-20000-0-67753	0	14	67753	1	CHOMA			0	27.07	-16.83				1	0	63			Choma																L.Haimberger	0
14	0-20000-0-17060	0	15	17060	1	ISTANBUL BOLGE (KARTAL)			0	29.16	40.91				1	0	63			Istanbul																L.Haimberger	0
15	0-20000-0-64460	0	16	64460	1	SOUANKE			0	14.03	2.07				1	0	63			Yokadouma																L.Haimberger	0
16	0-20000-0-01262	0	17	1262	1	NORDOYAN LH			0	10.55	64.8				1	0	63			Steinkjer																L.Haimberger	0
17	0-20000-0-40879	0	18	40879	1	IRANSHAHR			0	60.72	27.23				1	0	63			Iranshahr																L.Haimberger	0
18	0-20000-0-28615	0	19	28615	1	BAKALY			0	53.79	55.18				1	0	63			Chekmagush																L.Haimberger	0
19	0-20000-0-48454	0	20	48454	1	BANGNA AGROMET			0	100.61	13.67				1	0	63			Phra Pradaeng																L.Haimberger	0
20	0-20000-0-94844	0	21	94844	1	KERANG			0	143.92	-35.72				1	0	63			Bendigo																L.Haimberger	0
21	0-20000-0-62012	0	22	62012	1	EL KHOMS			0	14.14	32.4				1	0	63			Masallatah																L.Haimberger	0
22	0-20000-0-30777	0	23	30777	1	SRETENSK			0	117.7	52.23				1	0	63			Chernyshevsk																L.Haimberger	0
23	0-20000-0-16442	0	24	16442	1	GIBILMANNA			0	14.03	37.99				1	0	63			Cefalu																L.Haimberger	0
24	0-20000-0-56182	0	25	56182	1	SONGPAN			0	103.6	32.67				1	0	63			Jiangyou																L.Haimberger	0
25	0-20000-0-76612	0	26	78612	1	GUADALAJARA, JAL.			0	-103.39	20.71				1	0	63			Zapopan																L.Haimberger	0
26	0-20000-0-41640	0	27	41376	1	LAHORE CITY			0	74.33	31.55				1	0	63			Lahore																L.Haimberger	0
27	0-20000-0-42479	0	28	42479	1	VARANASI/BABATPUR			0	82.87	25.45				1	0	63			Baragaon																L.Haimberger	0
28	0-20000-0-72211	0	29	72211	1	TAMPA/INT., FL.			0	-82.53	27.97				1	0	63			Egypt Lake-Leto																L.Haimberger	0
29	0-20000-0-44438	0	30	42282	1	BHAIRAWA AIRPORT			0	83.45	27.52				1	0	63			Nautanwa																L.Haimberger	0
30	0-20000-0-06910	0	31	66053	1	BEROMUENSTER			0	8.18	47.19				1	0	63			Luzern																L.Haimberger	0
31	0-20000-0-72241	0	32	72241	1	PORT ARTHUR/JEFFERSON CO., TX.			0	-94.02	29.95				1	0	63			Nederland																L.Haimberger	0
32	0-20000-0-67771	0	33	67771	1	CHINHOYI			0	30.2	-17.37				1	0	63			Chinhoyi																L.Haimberger	0
33	0-20000-0-10168	0	34	10168	1	GOLDBERG			0	12.1	53.61				1	0	63			Gustrow																L.Haimberger	0
34	0-20000-0-56257	0	35	56257	1	LITANG			0	100.27	30.0				1	0	63			Yaan																L.Haimberger	0
35	0-20000-0-28659	0	36	28659	1	KURTAMYSH			0	64.43	54.92				1	0	63			Kurtamysh																L.Haimberger	0
36	0-20000-0-43113	0	37	43113	1	SATARA			0	74.05	17.52				1	0	63			Rahimatpur																L.Haimberger	0
37	0-20000-0-83714	0	38	83714	1	CAMPOS DO JORDAO (83714-0)			0	-45.58	-22.73				1	0	63			Campos Do Jordao																L.Haimberger	0
38	0-20000-0-41396	0	39	41396	1	SEIYOUN			0	48.95	15.98				1	0	63			Sayyan																L.Haimberger	0
39	0-20000-0-68029	0	40	68051	1	KASANE			0	25.15	-17.82				1	0	63			Victoria Falls																L.Haimberger	0
40	0-20000-0-95679	0	41	95679	1	MOUNT TERRIBLE RADAR			0	138.5	-35.33				1	0	63			Adelaide																L.Haimberger	0
41	0-20000-0-91314	0	42	91314	1	SONSOROL,  CAROLINE IS.			0	132.38	5.33				1	0	63			Koror																L.Haimberger	0
42	0-20000-0-12510	0	43	12510	1	SNIEZKA			0	15.74	50.74				1	0	63			Kowary																L.Haimberger	0
43	0-20000-0-62459	0	44	62459	1	EL TOR			0	33.65	28.21				1	0	63			Hurghada																L.Haimberger	0
44	0-20000-0-78743	0	45	78743	1	VILLAHERMOSA, TAB.			0	-92.92	17.98				1	0	63			Villahermosa																L.Haimberger	0
45	0-20000-0-11730	0	46	11730	1	SERAK			0	17.11	50.19				1	0	63			Jesenik																L.Haimberger	0
46	0-20000-0-40041	0	47	40041	1	AL-RASTAN			0	36.73	34.93				1	0	63			Salamiyah																L.Haimberger	0
47	0-20000-0-65500	0	48	65500	1	MARKOYE			0	-0.07	14.63				1	0	63			Dori																L.Haimberger	0
48	0-20000-0-48672	0	49	48672	1	KLUANG			0	103.32	2.02				1	0	63			Kluang																L.Haimberger	0
49	0-20000-0-43266	0	50	43266	1	M.O. AGATHI AIRPORT			0	72.47	10.85				1	0	63			Kavaratti																L.Haimberger	0
50	0-20000-0-43321	0	51	43321	1	COIMBATORE/PEELAMEDU			0	77.05	11.03				1	0	63			Irugur																L.Haimberger	0
51	0-20000-0-72638	0	52	72638	1	HOUGHTON LAKE/ROSCOMMON COUNTY,  MI.			0	-84.68	44.37				1	0	63			Cadillac																L.Haimberger	0
52	0-20000-0-71118	0	53	71118	1	WAINWRIGHT CFB AIRFIELD 21, ALTA			0	-111.1	52.83				1	0	63			Lloydminster																L.Haimberger	0
53	0-20000-0-40371	0	54	40371	1	TOBAGE			0	38.72	29.67				1	0	63			Sakakah																L.Haimberger	0
54	0-20000-0-42631	0	55	42631	1	NALIYA			0	68.85	23.25				1	0	63			Naliya																L.Haimberger	0
55	0-20000-0-11082	0	56	11181	1	GUMPOLDSKIRCHEN			0	16.28	48.04				1	0	63			Bad Voslau																L.Haimberger	0
56	0-20000-0-94336	0	57	94336	1	THE MONUMENT AIRPORT			0	139.93	-21.81				1	0	63			Mount Isa																L.Haimberger	0
57	0-20000-0-42587	0	58	42587	1	DALTONGANJ			0	84.07	24.05				1	0	63			Daltenganj																L.Haimberger	0
58	0-20000-0-42961	0	59	42961	1	TITLAGARH			0	83.3	20.3				1	0	63			Kesinga																L.Haimberger	0
59	0-20000-0-91689	0	60	91689	1	SUVA			0	178.43	-18.13				1	0	63			None																L.Haimberger	0
60	0-20000-0-47576	0	61	47576	1	MUTSU			0	141.21	41.28				1	0	63			Mutsu																L.Haimberger	0
61	0-20000-0-41508	0	62	41508	1	DIR			0	71.85	35.2				1	0	63			Dir																L.Haimberger	0
62	0-20000-0-26544	0	63	26544	1	DAUGAVPILS			0	26.62	55.87				1	0	63			Daugavpils																L.Haimberger	0
63	0-20000-0-70235	0	64	70235	1	SPARREVOHN AFS			0	-155.57	61.1				1	0	63			None																L.Haimberger	0
64	0-20000-0-01408	0	65	1408	1	HAUGESUND AP			0	5.2	59.35				1	0	63			Leirvik																L.Haimberger	0
65	0-20000-0-68939	0	66	68938	1	CAPE ST FRANCIS			0	24.86	-34.21				1	0	63			Kruisfontein																L.Haimberger	0
66	0-20000-0-29649	0	67	29649	1	KRAPIVINO			0	86.81	55.01				1	0	63			Leninsk-Kuznetskiy																L.Haimberger	0
67	0-20000-0-47479	0	68	47479	1	SAPPORO			0	141.33	43.06				1	0	63			Ishikari																L.Haimberger	0
68	0-20000-0-48564	0	69	48564	1	PHUKET			0	98.4	7.88				1	0	63			Phuket																L.Haimberger	0
69	0-20000-0-01025	0	70	1025	1	TROMSO/LANGNES			0	18.91	69.68				1	0	63			Tromso																L.Haimberger	0
70	0-20000-0-82445	0	71	82445	1	ITAITUBA (82445-0)			0	-55.98	-4.27				1	0	63			Itaituba																L.Haimberger	0
71	0-246-0-100907	0	72	2971	1	JOMALA MARIEHAMN AIRPORT			0	19.9	60.13				1	0	63			Maarianhamina																L.Haimberger	0
72	0-20000-0-87648	0	73	87648	1	DOLORES AERO			0	-57.72	-36.32				1	0	63			Dolores																L.Haimberger	0
73	0-20000-0-41886	0	74	41886	1	MYMENSINGH			0	90.43	24.72				1	0	63			Muktagachha																L.Haimberger	0
74	0-20000-0-48325	0	75	48325	1	MAE SARIANG			0	97.93	18.18				1	0	63			Pa Sang																L.Haimberger	0
75	0-20000-0-40794	0	76	40794	1	SAFI-ABAD DEZFUL			0	48.42	32.27				1	0	63			Dezful																L.Haimberger	0
76	0-20000-0-61781	0	77	61781	1	BAFATA			0	-14.67	12.17				1	0	63			Bafata																L.Haimberger	0
77	0-20000-0-43182	0	78	43182	1	NANDIGAMA			0	80.28	16.78				1	0	63			Nandigama																L.Haimberger	0
78	0-20000-0-32053	0	79	32053	1	NOGLIKI			0	143.13	51.92				1	0	63			Nogliki																L.Haimberger	0
79	0-20000-0-29662	0	80	29662	1	BALAHTA			0	91.62	55.38				1	0	63			Divnogorsk																L.Haimberger	0
80	0-20000-0-41164	0	81	41164	1	ALGUWAYRIYAH			0	51.27	25.83				1	0	63			Khor																L.Haimberger	0
81	0-20000-0-42262	0	82	42262	1	ALIGARH			0	78.07	27.88				1	0	63			Aligarh																L.Haimberger	0
82	0-20000-0-71607	0	83	71607	1	ST. STEPHEN, NB			0	-67.25	45.21				1	0	63			Saint John																L.Haimberger	0
83	0-20000-0-10708	0	84	10709	1	SAARBRUECKEN/ENSHEIM			0	7.11	49.21				1	0	63			Puttlingen																L.Haimberger	0
84	0-20000-0-23518	0	85	23518	1	UST'-SUGOR			0	57.62	64.27				1	0	63			Vuktyl																L.Haimberger	0
85	0-20000-0-64235	0	86	64235	1	KANANGA			0	22.42	-5.88				1	0	63			Kananga																L.Haimberger	0
86	0-20000-0-71976	0	87	71976	1	PARC NATIONAL DES PINGUALUIT, QUE			0	-73.67	61.31				1	0	63			None																L.Haimberger	0
87	0-20000-0-91689	0	88	91711	1	SUVA			0	178.43	-18.13				1	0	63			None																L.Haimberger	0
88	0-20000-0-47837	0	89	47837	1	TANEGASHIMA			0	130.98	30.72				1	0	63			Kushima																L.Haimberger	0
89	0-20000-0-97048	0	90	91493	1	GORONTALO/JALALUDDIN			0	122.85	0.64				1	0	63			Gorontalo																L.Haimberger	0
90	0-20000-0-43372	0	91	43372	1	THIRUVANANTHAPURAM (43371-0)			0	76.95	8.48				1	0	63			Thiruvananthapuram																L.Haimberger	0
91	0-20000-0-67575	0	92	67575	1	MKUSHI			0	29.43	-13.63				1	0	63			Mkushi																L.Haimberger	0
92	0-20000-0-08094	0	93	8094	1	HUESCA/PIRINEOS			0	-0.33	42.08				1	0	63			Huesca																L.Haimberger	0
93	0-20000-0-48358	0	94	48358	1	NAKHON PHANOM AGROMET			0	104.78	17.43				1	0	63			Nakhon Phanom																L.Haimberger	0
94	0-20000-0-71780	0	95	71780	1	SHERINGHAM POINT, BC			0	-123.92	48.38				1	0	63			Victoria																L.Haimberger	0
95	0-20000-0-02417	0	96	2417	1	PALGRUNDEN			0	13.15	58.75				1	0	63			Lidkoping																L.Haimberger	0
96	0-20000-0-41452	0	97	41452	1	IBB			0	44.33	14.0				1	0	63			Abha																L.Haimberger	0
97	0-20000-0-48616	0	98	48616	1	KUALA KRAI			0	102.2	5.53				1	0	63			Kuala Krai																L.Haimberger	0
98	0-20000-0-64115	0	99	64115	1	INONGO			0	18.27	-1.97				1	0	63			Inongo																L.Haimberger	0
99	0-20000-0-40256	0	100	40256	1	WADI RAYAN			0	35.58	32.4				1	0	63			Judayta																L.Haimberger	0
100	0-20000-0-86128	0	101	86128	1	POZO COLORADO			0	-58.78	-23.5				1	0	63			Concepcion																L.Haimberger	0
101	0-20000-0-67067	0	102	67067	1	AMBOHITSILAOZANA			0	48.5	-17.63				1	0	63			Ambatondrazaka																L.Haimberger	0
102	0-20000-0-60403	0	103	60403	1	GUELMA			0	7.47	36.47				1	0	63			Constantine																L.Haimberger	0
103	0-20000-0-38383	0	104	38383	1	SHASENEM			0	58.72	41.58				1	0	63			Akdepe																L.Haimberger	0
104	0-20000-0-78922	0	105	78922	1	TRINITE-CARAVELLE			0	-60.88	14.77				1	0	63			La Trinite																L.Haimberger	0
105	0-20000-0-33907	0	106	33907	1	Behtery			0	32.28	46.24				1	0	63			Kherson																L.Haimberger	0
106	0-20000-0-11903	0	107	11903	1	SLIAC			0	19.15	48.65				1	0	63			Zvolen																L.Haimberger	0
107	0-20000-0-62121	0	108	62121	1	EL HAMADA			0	12.93	29.52				1	0	63			Mizdah																L.Haimberger	0
108	0-20000-0-07003	0	109	7003	1	LE TOUQUET			0	1.62	50.51				1	0	63			Etaples																L.Haimberger	0
109	0-20000-0-42867	0	110	42866	1	NAGPUR SONEGAON			0	79.05	21.1				1	0	63			Nagpur																L.Haimberger	0
110	0-20000-0-64405	0	111	64405	1	SIBITI			0	13.35	-3.68				1	0	63			Sibiti																L.Haimberger	0
111	0-20000-0-16216	0	112	16216	1	VITERBO (16216-0)			0	12.06	42.44				1	0	63			Viterbo																L.Haimberger	0
112	0-20000-0-71376	0	113	71376	1	ST-JOVITE, QUE			0	-74.56	46.08				1	0	63			Hawkesbury																L.Haimberger	0
113	0-20000-0-04007	0	114	4007	1	HOLAR I DYRAFIRDI			0	-23.56	65.87				1	0	63			Reykjavik																L.Haimberger	0
114	0-20000-0-71986	0	115	71986	1	ATLEE AGCM, ALTA			0	-111.01	50.81				1	0	63			Brooks																L.Haimberger	0
115	0-20000-0-17120	0	116	17120	1	BILECIK			0	29.97	40.15				1	0	63			Bilecik																L.Haimberger	0
116	0-20000-0-32076	0	117	32076	1	POGRANICHNOE			0	143.77	50.4				1	0	63			Aleksandrovsk-Sakhalinskiy																L.Haimberger	0
117	0-20000-0-16718	0	118	16718	1	ATHINAI HELLINIKON			0	23.74	37.89				1	0	63			Aspropirgos																L.Haimberger	0
118	0-20000-0-40361	0	119	40361	1	AL-JOUF (40361-0)			0	40.1	29.78				1	0	63			Sakakah																L.Haimberger	0
119	0-20000-0-10648	0	120	10648	1	MICHELSTADT-VIELBRUNN			0	9.1	49.72				1	0	63			Michelstadt																L.Haimberger	0
120	0-20000-0-94134	0	121	94134	1	BLACK POINT			0	132.14	-11.15				1	0	63			Darwin																L.Haimberger	0
121	0-20000-0-60739	0	122	60739	1	KASSERINE			0	8.83	35.17				1	0	63			Talah																L.Haimberger	0
122	0-20000-0-43197	0	123	43197	1	BELGAUM			0	74.53	15.85				1	0	63			Belgaum																L.Haimberger	0
123	0-20000-0-68478	0	124	68478	1	ESTCOURT			0	29.86	-29.01				1	0	63			Mooi River																L.Haimberger	0
124	0-20000-0-40716	0	125	40716	1	MEYANEH			0	47.7	37.45				1	0	63			Sarab																L.Haimberger	0
125	0-20000-0-11958	0	126	11958	1	KOJSOVSKA HOLA			0	20.98	48.78				1	0	63			Kosice																L.Haimberger	0
126	0-20000-0-06458	0	127	64063	1	BEAUVECHAIN			0	4.76	50.75				1	0	63			Tienen																L.Haimberger	0
127	0-20000-0-78948	0	128	78948	1	HEWANORRA INT'L AIRPORT			0	-60.95	13.75				1	0	63			Castries																L.Haimberger	0
128	0-20000-0-06315	0	129	6315	1	HANSWEERT			0	4.0	51.45				1	0	63			Goes																L.Haimberger	0
129	0-20000-0-67974	0	130	67974	1	MAKOHOLI			0	30.78	-19.83				1	0	63			Masvingo																L.Haimberger	0
130	0-454-2-AWSMALINGUNDE	0	131	67588	1	MALINGUNDE			0	33.69	-14.17				1	0	63			Lilongwe																L.Haimberger	0
131	0-20000-0-68647	0	132	68648	1	QUEENSTOWN			0	26.88	-31.92				1	0	63			Queenstown																L.Haimberger	0
132	0-20000-0-78466	0	133	78466	1	ARROYO BARRIL			0	-69.45	19.2				1	0	63			Samana																L.Haimberger	0
133	0-20000-0-78482	0	134	78482	1	BARAHONA			0	-71.1	18.2				1	0	63			Barahona																L.Haimberger	0
134	0-20000-0-91756	0	135	91756	1	APIA WHARF			0	-171.75	-13.82				1	0	63			Apia																L.Haimberger	0
135	0-20000-0-01144	0	136	1138	1	HELLIGVAER II			0	13.9	67.4				1	0	63			Bodo																L.Haimberger	0
136	0-20000-0-41264	0	137	41264	1	ADAM AIRPORT			0	57.37	22.5				1	0	63			Nizwa																L.Haimberger	0
137	0-20000-0-71415	0	138	71415	1	CARIBOU POINT (AUT), NS			0	-62.68	45.76				1	0	63			New Glasgow																L.Haimberger	0
138	0-20000-0-11938	0	139	11938	1	POPRAD-GANOVCE			0	20.32	49.03				1	0	63			Revuca																L.Haimberger	0
139	0-20000-0-40101	0	140	40101	1	HOUCHE-AL-OUMARA			0	35.85	33.82				1	0	63			Riyaq																L.Haimberger	0
140	0-20000-0-78666	0	141	78666	1	EL SALVADOR INTL. AIRPORT/COMALAPA			0	-89.07	13.44				1	0	63			Zacatecoluca																L.Haimberger	0
141	0-20000-0-40674	0	142	40674	1	SAMAWA			0	45.27	31.27				1	0	63			Mehran																L.Haimberger	0
142	0-20000-0-41318	0	143	41313	1	SADAH			0	55.06	17.1				1	0	63			Salalah																L.Haimberger	0
143	0-20000-0-08922	0	144	8922	1	PANTICOSA, REFUGIO CASA PIEDRA			0	-0.23	42.76				1	0	63			Jaca																L.Haimberger	0
144	0-20000-0-94365	0	145	94365	1	PROSERPINE AIRPORT			0	148.56	-20.49				1	0	63			Bowen																L.Haimberger	0
145	0-20000-0-42364	0	146	42358	1	ETAWAH			0	78.98	26.73				1	0	63			Bhind																L.Haimberger	0
146	0-20000-0-42366	0	147	42366	1	KANPUR			0	80.37	26.43				1	0	63			Kanpur																L.Haimberger	0
147	0-20000-0-94628	0	148	94628	1	NEWDEGATE RESEARCH STATION			0	118.84	-33.11				1	0	63			Albany																L.Haimberger	0
148	0-20000-0-71768	0	149	71768	1	SUMMERLAND CS, BC			0	-119.63	49.55				1	0	63			Penticton																L.Haimberger	0
149	0-20000-0-54157	0	150	54157	1	SIPING			0	124.33	43.18				1	0	63			Lishu																L.Haimberger	0
150	0-20000-0-43233	0	151	43233	1	CHITRADURGA			0	76.43	14.23				1	0	63			Chitradurga																L.Haimberger	0
151	0-20000-0-54725	0	152	54725	1	HUIMIN			0	117.53	37.5				1	0	63			Binzhou																L.Haimberger	0
152	0-20000-0-68926	0	153	68926	1	RIVERSDALE			0	21.25	-34.1				1	0	63			Swellendam																L.Haimberger	0
153	0-20000-0-61833	0	154	61833	1	FARANAH/BADALA			0	-10.75	10.03				1	0	63			Dabola																L.Haimberger	0
154	0-20000-0-62450	0	155	62450	1	EL-SUEZ			0	32.47	29.87				1	0	63			Suez																L.Haimberger	0
155	0-20000-0-48401	0	156	48401	1	TAKFA AGROMET			0	100.53	15.35				1	0	63			Takhli																L.Haimberger	0
156	0-20000-0-41640	0	157	41972	1	LAHORE CITY			0	74.33	31.55				1	0	63			Lahore																L.Haimberger	0
157	0-20000-0-03204	0	158	3204	1	RONALDSWAY			0	-4.63	54.09				1	0	63			Whitehaven																L.Haimberger	0
158	0-20000-0-01003	0	159	1003	1	HORNSUND			0	15.5	77.0				1	0	63			None																L.Haimberger	0
159	0-20000-0-65275	0	160	65272	1	OGOJA			0	8.8	6.67				1	0	63			Otukpo																L.Haimberger	0
160	0-20000-0-42571	0	161	42571	1	SATNA			0	80.83	24.57				1	0	63			Satna																L.Haimberger	0
161	0-20000-0-93467	0	162	93471	1	MASTERTON AERO AWS			0	175.64	-40.98				1	0	63			Masterton																L.Haimberger	0
162	0-20000-0-65522	0	163	65522	1	GAOUA			0	-3.18	10.33				1	0	63			Diebougou																L.Haimberger	0
163	0-20000-0-30853	0	164	30853	1	KARYMSKAJA			0	114.32	51.63				1	0	63			Karymskoye																L.Haimberger	0
164	0-20000-0-78458	0	165	78458	1	COLONIA JUAN CARRASCO MAZATLAN, SIN.			0	-106.41	23.22				1	0	63			Puerto Plata																L.Haimberger	0
165	0-20000-0-48075	0	166	48075	1	LOIKAW			0	97.22	19.68				1	0	63			Loikaw																L.Haimberger	0
166	0-20000-0-48461	0	167	48461	1	PHATTHAYA			0	100.87	12.92				1	0	63			Pattaya																L.Haimberger	0
167	0-20000-0-37788	0	168	37788	1	YEREVAN ZVARTNOTS			0	44.4	40.15				1	0	63			Kaspi																L.Haimberger	0
168	0-20000-0-78327	0	169	78327	1	UNION DE REYES,  MATANZAS			0	-81.53	22.77				1	0	63			Union De Reyes																L.Haimberger	0
169	0-20000-0-95146	0	170	94146	1	NGAYAWILI			0	135.57	-12.0				1	0	63			Katherine																L.Haimberger	0
170	0-20000-0-42409	0	171	42409	1	TANGLA			0	91.92	26.65				1	0	63			Udalguri																L.Haimberger	0
171	0-20000-0-78846	0	172	78846	1	JULIANA AIRPORT,  ST. MAARTEN			0	-63.12	18.03				1	0	63			Basseterre																L.Haimberger	0
172	0-20000-0-48372	0	173	48372	1	SUKHOTHAI			0	99.8	17.11				1	0	63			Sukhothai																L.Haimberger	0
173	0-20000-0-01002	0	174	1002	1	VERLEGENHUKEN			0	16.25	80.06				1	0	63			None																L.Haimberger	0
174	0-20000-0-41672	0	175	41672	1	LAHORE CITY			0	74.33	31.55				1	0	63			Lahore																L.Haimberger	0
175	0-20000-0-11934	0	176	11934	1	POPRAD-GANOVCE			0	20.32	49.03				1	0	63			Poprad																L.Haimberger	0
176	0-20000-0-91665	0	177	91665	1	MATEI			0	-179.87	-16.68				1	0	63			None																L.Haimberger	0
177	0-20000-0-29866	0	178	29866	1	ABAKAN			0	91.32	53.77				1	0	63			Minusinsk																L.Haimberger	0
178	0-20000-0-02432	0	179	2432	1	OREBRO			0	15.05	59.23				1	0	63			Orebro																L.Haimberger	0
179	0-20000-0-72651	0	180	72651	1	SIOUX FALLS/FOSS FIELD, SD.			0	-96.73	43.58				1	0	63			Sioux Falls																L.Haimberger	0
180	0-20000-0-66118	0	181	66118	1	NBANZA-KONGO			0	14.25	-6.27				1	0	63			Matadi																L.Haimberger	0
181	0-20000-0-10067	0	182	10067	1	MARIENLEUCHTE			0	11.24	54.49				1	0	63			Nakskov																L.Haimberger	0
182	0-20000-0-48040	0	183	48040	1	HSIPAW			0	97.3	22.6				1	0	63			Lashio																L.Haimberger	0
183	0-20000-0-94334	0	184	94334	1	BEDOURIE POLICE STATION			0	139.47	-24.36				1	0	63			Mount Isa																L.Haimberger	0
184	0-20000-0-42343	0	185	42343	1	AJMER			0	74.62	26.45				1	0	63			Ajmer																L.Haimberger	0
185	0-20000-0-42349	0	186	42349	1	TONK			0	75.75	26.17				1	0	63			Tonk																L.Haimberger	0
186	0-20000-0-84401	0	187	84401	1	PIURA GRUP7			0	-80.6	-5.18				1	0	63			Piura																L.Haimberger	0
187	0-20000-0-10554	0	188	10554	1	ERFURT-WEIMAR			0	10.96	50.98				1	0	63			Erfurt																L.Haimberger	0
188	0-20000-0-43450	0	189	43450	1	COLOMBO			0	79.87	6.9				1	0	63			Katunayaka																L.Haimberger	0
189	0-20000-0-95678	0	190	95678	1	ADELAIDE AIRPORT			0	138.52	-34.95				1	0	63			Adelaide																L.Haimberger	0
190	0-20000-0-48556	0	191	48556	1	PHRASANG			0	99.26	8.57				1	0	63			Wiang Sa																L.Haimberger	0
191	0-20000-0-34845	0	192	34845	1	GORODOVIKOVSK			0	41.97	46.07				1	0	63			Gorodovikovsk																L.Haimberger	0
192	0-20000-0-91683	0	193	91683	1	NAUSORI			0	178.57	-18.05				1	0	63			None																L.Haimberger	0
193	0-20000-0-48435	0	194	48435	1	PAK CHONG AGROMET			0	101.32	14.64				1	0	63			Pak Chong																L.Haimberger	0
194	0-20000-0-11978	0	195	11978	1	MILHOSTOV			0	21.73	48.67				1	0	63			Trebisov																L.Haimberger	0
195	0-20000-0-62762	0	196	62762	1	SENNAR			0	33.62	13.55				1	0	63			Sinnar																L.Haimberger	0
196	0-20000-0-78484	0	197	78484	1	SANTO DOMINGO (78486-0)			0	-69.88	18.43				1	0	63			Santo Domingo																L.Haimberger	0
197	0-20000-0-04085	0	198	4087	1	SKJALDTHINGSSTADIR			0	-14.82	65.7				1	0	63			Akureyri																L.Haimberger	0
198	0-20000-0-91411	0	199	91411	1	NGULU ATOLL AWS, CAROLINE IS.			0	137.48	8.3				1	0	63			Koror																L.Haimberger	0
199	0-20000-0-41267	0	200	41267	1	QALHAT			0	59.4	22.67				1	0	63			Sur																L.Haimberger	0
200	0-20000-0-01008	0	201	1008	1	SVALBARD AP			0	15.47	78.25				1	0	63			None																L.Haimberger	0
201	0-20000-0-47474	0	202	47474	1	MOMBETSU AIRPORT			0	143.4	44.3				1	0	63			Mombetsu																L.Haimberger	0
202	0-20000-0-78088	0	203	78088	1	COCKBURN TOWN, SAN SALVADOR (78088-0)			0	-74.53	24.05				1	0	63			Nassau																L.Haimberger	0
203	0-20000-0-61699	0	204	61941	1	KEDOUGOU			0	-12.22	12.57				1	0	63			Kedougou																L.Haimberger	0
204	0-20000-0-48475	0	205	48475	1	HUA HIN			0	99.95	12.58				1	0	63			Hua Hin																L.Haimberger	0
205	0-20000-0-31917	0	206	31917	1	POLTAVKA (31917-0)			0	131.32	44.03				1	0	63			Dongning																L.Haimberger	0
206	0-20000-0-40701	0	207	40701	1	MAKKO			0	44.39	39.38				1	0	63			Maku																L.Haimberger	0
207	0-20000-0-42473	0	208	42473	1	BANDA			0	80.37	25.47				1	0	63			Banda																L.Haimberger	0
208	0-20000-0-01332	0	209	1334	1	FJAERLAND-BREMUSEET			0	6.76	61.42				1	0	63			Bergen																L.Haimberger	0
209	0-20000-0-72263	0	210	72263	1	SAN ANGELO/MATHIS, TX.			0	-100.5	31.37				1	0	63			San Angelo																L.Haimberger	0
210	0-20000-0-13583	0	211	13583	1	BITOLA			0	21.37	41.05				1	0	63			Bitola																L.Haimberger	0
211	0-20000-0-14640	0	212	14640	1	LIVNO			0	17.0	43.82				1	0	63			Livno																L.Haimberger	0
212	0-20000-0-10506	0	213	10507	1	NUERBURG-BARWEILER			0	6.87	50.36				1	0	63			Schleiden																L.Haimberger	0
213	0-20000-0-91844	0	214	91844	1	RAROTONGA (91843-0)			0	-159.82	-21.2				1	0	63			Avarua																L.Haimberger	0
214	0-20000-0-71739	0	215	71739	1	TIMMINS VICTOR POWER A, ONT			0	-81.38	48.57				1	0	63			Timmins																L.Haimberger	0
215	0-20000-0-43241	0	216	43241	1	CUDDAPAH			0	78.83	14.48				1	0	63			Cuddapah																L.Haimberger	0
216	0-20000-0-43422	0	217	43422	1	MAHA ILLUPPALLAMA			0	80.47	8.12				1	0	63			Anuradhapura																L.Haimberger	0
217	0-20000-0-40718	0	218	40718	1	ANZALI			0	49.46	37.48				1	0	63			Bandar-E Anzali																L.Haimberger	0
218	0-20000-0-48327	0	219	48326	1	CHIANG MAI			0	98.97	18.77				1	0	63			Sansai																L.Haimberger	0
219	0-20000-0-91676	0	220	91676	1	VANUA BALAVU			0	-178.95	-17.23				1	0	63			None																L.Haimberger	0
220	0-20000-0-10557	0	221	10558	1	NEUHAUS A.R.			0	11.13	50.5				1	0	63			Sonneberg																L.Haimberger	0
221	0-20000-0-37686	0	222	37686	1	GYUMRI			0	43.86	40.76				1	0	63			Gyumri																L.Haimberger	0
222	0-20000-0-47615	0	223	47615	1	UTSUNOMIYA			0	139.87	36.55				1	0	63			Kanuma																L.Haimberger	0
223	0-20000-0-74750	0	224	74750	1	PALESTINE, TX.			0	-95.72	31.78				1	0	63			Palestine																L.Haimberger	0
224	0-20000-0-02154	0	225	2154	1	VIDSEL			0	20.15	65.87				1	0	63			Boden																L.Haimberger	0
225	0-20000-0-47115	0	226	47115	1	ULLEUNGDO			0	130.9	37.48				1	0	63			Izumo																L.Haimberger	0
226	0-20000-0-42419	0	227	42419	1	GOHPUR			0	93.58	26.83				1	0	63			Itanagar																L.Haimberger	0
227	0-20000-0-43158	0	228	43158	1	SANGLI			0	74.6	16.85				1	0	63			Budhgaon																L.Haimberger	0
228	0-20000-0-42459	0	229	42459	1	SHIVPURI			0	77.65	25.33				1	0	63			Kolaras																L.Haimberger	0
229	0-20000-0-91766	0	230	91766	1	PAGO PAGO/INT.AIRP. AMERICAN SAMOA			0	-170.72	-14.34				1	0	63			Apia																L.Haimberger	0
230	0-20000-0-94861	0	231	94861	1	ECHUCA AERODROME			0	144.76	-36.16				1	0	63			Bendigo																L.Haimberger	0
231	0-20000-0-67875	0	232	67875	1	BUHERA			0	31.43	-19.32				1	0	63			Masvingo																L.Haimberger	0
232	0-20000-0-91234	0	233	91234	1	MAUG AWS,  MARIANA IS.			0	145.22	20.05				1	0	63			None																L.Haimberger	0
233	0-20000-0-47406	0	234	47406	1	RUMOI			0	141.63	43.95				1	0	63			Rumoi																L.Haimberger	0
234	0-20000-0-16718	0	235	16717	1	ATHINAI HELLINIKON			0	23.74	37.89				1	0	63			Perama																L.Haimberger	0
235	0-20000-0-72421	0	236	72421	1	CINCINNATI/GREATER CINCINNATI, OH.			0	-84.67	39.05				1	0	63			Florence																L.Haimberger	0
236	0-20000-0-78584	0	237	78584	1	BELIZE/PHILLIP GOLDSTON INTL. AIRPORT			0	-88.3	17.53				1	0	63			Belize																L.Haimberger	0
237	0-20000-0-48600	0	238	48600	1	LANGKAWI			0	99.73	6.33				1	0	63			Kuah																L.Haimberger	0
238	0-20000-0-98333	0	239	98333	1	BALER			0	121.56	15.76				1	0	63			Bagting																L.Haimberger	0
239	0-20000-0-26124	0	240	26124	1	LAANE-NIGULA			0	23.82	58.95				1	0	63			Haapsalu																L.Haimberger	0
240	0-20000-0-65015	0	241	65015	1	GUSAU			0	6.7	12.17				1	0	63			Gusau																L.Haimberger	0
241	0-20000-0-31442	0	242	31442	1	SIMANOVSK			0	127.65	51.98				1	0	63			Shimanovsk																L.Haimberger	0
242	0-20000-0-41293	0	243	41293	1	BIDIYA			0	58.85	22.46				1	0	63			Ibra																L.Haimberger	0
243	0-20000-0-60253	0	244	60253	1	TAROUDANT			0	-8.82	30.5				1	0	63			Tarudant																L.Haimberger	0
244	0-20000-0-26403	0	245	26403	1	PAVILOSTA			0	21.19	56.89				1	0	63			Liepaja																L.Haimberger	0
245	0-20000-0-48555	0	246	48555	1	SURAT THANI AGROMET			0	99.64	9.14				1	0	63			Don Sak																L.Haimberger	0
246	0-20000-0-41519	0	247	41519	1	CHILLAS			0	74.1	35.42				1	0	63			Hunza																L.Haimberger	0
247	0-20000-0-74491	0	248	74491	1	CHICOPEE FALLS/WESTOVER AFB, MA.			0	-72.53	42.2				1	0	63			Ludlow																L.Haimberger	0
248	0-20000-0-78982	0	249	78982	1	QUEEN BEATRIX AIRPORT, ARUBA			0	-70.02	12.5				1	0	63			Oranjestad																L.Haimberger	0
249	0-20000-0-78399	0	250	78399	1	MORANT POINT			0	-76.18	17.92				1	0	63			Port Antonio																L.Haimberger	0
250	0-20000-0-61721	0	251	61721	1	JANJANGBUREH (GEORGETOWN)			0	-14.77	13.54				1	0	63			Kuntaur																L.Haimberger	0
251	0-20000-0-76848	0	252	76848	1	COMITAN, CHIS.			0	-92.14	16.23				1	0	63			Comitan																L.Haimberger	0
252	0-20000-0-48374	0	253	48374	1	LOM SAK			0	101.25	16.77				1	0	63			Phetchabun																L.Haimberger	0
253	0-20000-0-42279	0	254	42279	1	BASTI			0	82.73	26.8				1	0	63			Basti																L.Haimberger	0
254	0-20000-0-61979	0	255	61979	1	SAINT-DENIS/GILLOT (REUNION)			0	55.53	-20.89				1	0	63			Saint-Denis																L.Haimberger	0
255	0-20000-0-40419	0	256	40419	1	DAMMAM-A.W.S.			0	50.13	26.4				1	0	63			Sayhat																L.Haimberger	0
256	0-20000-0-37409	0	257	37409	1	MTA-SABUETI			0	43.48	42.03				1	0	63			Tkibuli																L.Haimberger	0
257	0-20000-0-04101	0	258	4001	1	BJARGTANGAR			0	-24.53	65.5				1	0	63			Reykjavik																L.Haimberger	0
258	0-20000-0-63403	0	259	63403	1	GORE			0	35.53	8.15				1	0	63			Metu																L.Haimberger	0
259	0-20000-0-61666	0	260	61666	1	DIOURBEL			0	-16.23	14.65				1	0	63			Diourbel																L.Haimberger	0
260	0-20000-0-16453	0	261	16454	1	GELA			0	14.22	37.08				1	0	63			Gela																L.Haimberger	0
261	0-20000-0-94140	0	262	94140	1	MILINGIMBI AWS			0	134.89	-12.09				1	0	63			Katherine																L.Haimberger	0
262	0-20000-0-91648	0	263	91648	1	NIULAKITA			0	179.5	-10.75				1	0	63			None																L.Haimberger	0
263	0-20000-0-07145	0	264	7137	1	TRAPPES			0	2.01	48.77				1	0	63			Trappes																L.Haimberger	0
264	0-20000-0-78485	0	265	78485	1	SANTO DOMINGO (78486-0)			0	-69.88	18.43				1	0	63			Santo Domingo																L.Haimberger	0
265	0-20000-0-94182	0	266	94182	1	COCONUT ISLAND			0	143.07	-10.05				1	0	63			Daru																L.Haimberger	0
266	0-20000-0-91184	0	267	91184	1	WAIMANALO, OAHU			0	-157.72	21.33				1	0	63			Kailua																L.Haimberger	0
267	0-20000-0-91929	0	268	91929	1	BORA-BORA-MOTU-AERO			0	-151.75	-16.45				1	0	63			Faaa																L.Haimberger	0
268	0-20000-0-37897	0	269	37897	1	SISIAN			0	46.03	39.52				1	0	63			Goris																L.Haimberger	0
269	0-20000-0-94954	0	270	94954	1	CAPE GRIM BAPS			0	144.69	-40.68				1	0	63			Burnie																L.Haimberger	0
270	0-20000-0-48327	0	271	19099	1	CHIANG MAI			0	98.97	18.77				1	0	63			Chiang Mai																L.Haimberger	0
271	0-20000-0-83708	0	272	83708	1	GUARATINGUETA (83708-0)			0	-45.2	-22.78				1	0	63			Guaratingueta																L.Haimberger	0
272	0-705-0-460	0	273	13015	1	LJUBLJANA/BEZIGRAD			0	14.51	46.07				1	0	63			Ljubljana																L.Haimberger	0
273	0-20000-0-84132	0	274	84132	1	NUEVO ROCAFUERTE (84132-0)			0	-75.4	-0.92				1	0	63			Nueva Loja																L.Haimberger	0
274	0-20000-0-17300	0	275	17300	1	ANTALYA HAVALİMANI			0	30.73	36.87				1	0	63			Antalya																L.Haimberger	0
275	0-20000-0-37895	0	276	37895	1	KHANKANDY			0	46.75	39.98				1	0	63			Susa																L.Haimberger	0
276	0-20000-0-16121	0	277	16121	1	GENOVA			0	8.92	44.42				1	0	63			Genoa																L.Haimberger	0
277	0-20000-0-44282	0	278	44282	1	TSETSERLEG			0	101.46	47.47				1	0	63			Bulgan																L.Haimberger	0
278	0-20000-0-30925	0	279	30925	1	KJAHTA			0	106.45	50.36				1	0	63			Kyakhta																L.Haimberger	0
279	0-20000-0-14445	0	280	13334	1	SPLIT/MARJAN			0	16.43	43.51				1	0	63			Split																L.Haimberger	0
280	0-20000-0-15090	0	281	15090	1	IASI			0	27.63	47.16				1	0	63			Iasi																L.Haimberger	0
281	0-20000-0-89034	0	282	89034	1	BASE BELGRANO II			0	-34.63	-77.87				1	0	63			None																L.Haimberger	0
282	0-20000-0-44218	0	283	44218	1	HOVD			0	91.63	48.0				1	0	63			Ulaangom																L.Haimberger	0
283	0-20000-0-10499	0	284	10499	1	GOERLITZ			0	14.95	51.16				1	0	63			Gorlitz																L.Haimberger	0
284	0-20000-0-68269	0	285	68262	1	PRETORIA (IRENE)			0	28.21	-25.91				1	0	63			Pretoria																L.Haimberger	0
285	0-20000-0-71248	0	286	71248	1	SUNDRE A, ALTA			0	-114.68	51.78				1	0	63			Cochrane																L.Haimberger	0
286	0-20000-0-20094	0	287	20094	1	MYS BARANOVA			0	101.62	79.28				1	0	63			None																L.Haimberger	0
287	0-20000-0-41560	0	288	41560	1	PARACHINAR			0	70.08	33.87				1	0	63			Azrow																L.Haimberger	0
288	0-20000-0-04030	0	289	4099	1	REYKJAVIK (4030-0)			0	-21.9	64.13				1	0	63			Kopavogur																L.Haimberger	0
289	0-20000-0-86068	0	290	86068	1	MARISCAL ESTIGARRIBIA			0	-60.62	-22.02				1	0	63			Porto Murtinho																L.Haimberger	0
290	0-20000-0-40676	0	291	40676	1	NASIRIYA			0	46.23	31.02				1	0	63			Susangerd																L.Haimberger	0
291	0-20000-0-38001	0	292	38001	1	FORT SHEVCHENKO			0	50.24	44.55				1	0	63			Aktau																L.Haimberger	0
292	0-20000-0-43064	0	293	43064	1	PUNE / LOHOGAON AERODROME			0	73.92	18.58				1	0	63			Khadki																L.Haimberger	0
293	0-20000-0-40938	0	294	40938	1	HERAT			0	62.22	34.22				1	0	63			Herat																L.Haimberger	0
294	0-20000-0-17195	0	295	17195	1	KAYSERI/ERKILET			0	35.49	38.77				1	0	63			Kayseri																L.Haimberger	0
295	0-20000-0-37395	0	296	37395	1	KUTAISI			0	42.63	42.25				1	0	63			Tskaltubo																L.Haimberger	0
296	0-20000-0-07618	0	297	7618	1	TOULOUSE RW			0	1.37	43.58				1	0	63			Tournefeuille																L.Haimberger	0
297	0-20000-0-43475	0	298	43475	1	POTTUVIL			0	81.83	6.88				1	0	63			Amparai																L.Haimberger	0
298	0-20000-0-96529	0	299	96529	1	TANJUNG REDEP/KALIMARAU			0	117.43	2.14				1	0	63			Tarakan																L.Haimberger	0
299	0-20000-0-17082	0	300	17082	1	MERZIFON			0	35.53	40.84				1	0	63			Suluova																L.Haimberger	0
300	0-20000-0-41907	0	301	41855	1	ISHWARDI			0	89.05	24.13				1	0	63			Ishurdi																L.Haimberger	0
301	0-20000-0-44241	0	302	44241	1	BARUUNHARAA			0	106.09	48.91				1	0	63			Ulaanbaatar																L.Haimberger	0
302	0-20000-0-44272	0	303	44272	1	ULIASTAI (44272-0)			0	96.85	47.73				1	0	63			Moron																L.Haimberger	0
303	0-20000-0-76679	0	304	78679	1	AEROP. INTERNACIONAL MEXICO, D.F.			0	-99.2	19.4				1	0	63			Mexico																L.Haimberger	0
304	0-20000-0-07101	0	305	7101	1	SONGKHLA			0	100.61	7.18				1	0	63			Songkhla																L.Haimberger	0
305	0-20000-0-91802	0	306	91802	1	PENRHYN			0	-158.05	-9.03				1	0	63			None																L.Haimberger	0
306	0-20000-0-06496	0	307	6496	1	ELSENBORN			0	6.18	50.48				1	0	63			Monschau																L.Haimberger	0
307	0-20000-0-76654	0	308	78654	1	MANZANILLO, COL.			0	-104.32	19.04				1	0	63			Manzanillo																L.Haimberger	0
308	0-20000-0-47114	0	309	47118	1	WONJU			0	127.95	37.34				1	0	63			Seoul																L.Haimberger	0
309	0-20000-0-47101	0	310	47101	1	CHUNCHEON			0	127.74	37.9				1	0	63			Seoul																L.Haimberger	0
310	0-20000-0-34924	0	311	34924	1	SLAVJANSK-NA-KUBANI			0	38.12	45.28				1	0	63			Slavyansk-Na-Kubani																L.Haimberger	0
311	0-20000-0-64006	0	312	64006	1	GEMENA			0	19.78	3.28				1	0	63			Gemena																L.Haimberger	0
312	0-20000-0-43086	0	313	43086	1	RAMGUNDAM			0	79.43	18.77				1	0	63			Naspur																L.Haimberger	0
313	0-20000-0-06081	0	314	6086	1	BLAAVANDSHUK FYR			0	8.08	55.56				1	0	63			Esbjerg																L.Haimberger	0
314	0-20000-0-48565	0	315	8098	1	PHUKET AIRPORT			0	98.31	8.14				1	0	63			Kathu																L.Haimberger	0
315	0-20000-0-41646	0	316	41646	1	OKARA			0	73.43	30.8				1	0	63			Okara																L.Haimberger	0
316	0-20000-0-47132	0	317	47132	1	ANMYEONDO			0	126.32	36.52				1	0	63			Seoul																L.Haimberger	0
317	0-20000-0-40553	0	318	40564	1	SABRIYAH			0	47.85	29.75				1	0	63			Sur																L.Haimberger	0
318	0-20000-0-44341	0	319	44341	1	MANDALGOBI			0	106.26	45.74				1	0	63			Mandalgovi																L.Haimberger	0
319	0-20000-0-17068	0	320	17068	1	KOCAELİ CENGIZTOPEL HAVALİMANI			0	30.08	40.73				1	0	63			Izmit																L.Haimberger	0
320	0-20000-0-40980	0	321	40980	1	MOKUR			0	67.78	32.83				1	0	63			Gazni																L.Haimberger	0
321	0-20000-0-65264	0	322	65264	1	CALABAR			0	8.35	4.97				1	0	63			Calabar																L.Haimberger	0
322	0-20000-0-02055	0	323	2055	1	NAIMAKKA			0	21.53	68.68				1	0	63			Kiruna																L.Haimberger	0
323	0-20000-0-08521	0	324	8521	1	FUNCHAL			0	-16.89	32.65				1	0	63			Machico																L.Haimberger	0
324	0-20000-0-78955	0	325	78955	1	GRANTLEY ADAMS			0	-59.48	13.07				1	0	63			Bridgetown																L.Haimberger	0
325	0-20000-0-78339	0	326	78339	1	CAYO COCO,  CIEGO DE AVILA			0	-78.45	22.52				1	0	63			Moron																L.Haimberger	0
326	0-20000-0-06034	0	327	6034	1	SINDAL FLYVEPLADS			0	10.22	57.5				1	0	63			Hjorring																L.Haimberger	0
327	0-20000-0-42474	0	328	42474	1	ALLAHABAD/GHOORPUR			0	81.81	25.31				1	0	63			Allahabad																L.Haimberger	0
328	0-20000-0-44239	0	329	44239	1	BULGAN			0	103.52	48.82				1	0	63			Bulgan																L.Haimberger	0
329	0-20000-0-47167	0	330	47167	1	YEOSU AIRPORT			0	127.62	34.83				1	0	63			Hirado																L.Haimberger	0
330	0-20000-0-40642	0	331	40642	1	NEW DELHI/SAFDARJUNG			0	77.2	28.58				1	0	63			Abu Kamal																L.Haimberger	0
331	0-20000-0-15014	0	332	15014	1	BAIA MARE			0	23.47	47.66				1	0	63			Baia Mare																L.Haimberger	0
332	0-20001-0-72403	0	333	69003	1	STERLING, VA.			0	-77.49	38.98				1	0	63			Herndon																L.Haimberger	0
333	0-20000-0-10577	0	334	10577	1	CHEMNITZ			0	12.87	50.79				1	0	63			Chemnitz																L.Haimberger	0
334	0-20000-0-71714	0	335	71714	1	VALCARTIER A, QUE			0	-71.5	46.9				1	0	63			Quebec																L.Haimberger	0
335	0-20000-0-71194	0	336	71194	1	Shearwater UA, NS			0	-63.51	44.63				1	0	63			None																L.Haimberger	0
336	0-20000-0-08545	0	337	8545	1	PORTO/PEDRAS RUBRAS			0	-8.68	41.23				1	0	63			Leca Da Palmeira																L.Haimberger	0
337	0-20000-0-06846	0	338	6843	1	SCALOTTAS			0	9.51	46.72				1	0	63			Chur																L.Haimberger	0
338	0-20000-0-48407	0	339	15105	1	UBON RATCHATHANI			0	104.87	15.25				1	0	63			Ubon Ratchathani																L.Haimberger	0
339	0-20000-0-15350	0	340	15350	1	BUZAU			0	26.85	45.13				1	0	63			Buzau																L.Haimberger	0
340	0-36-9-95282	0	341	95282	1	Woodstock			0	146.86	-19.63				1	0	63			Townsville																L.Haimberger	0
341	0-20000-0-45005	0	342	45005	1	KOWLOON (45004-0)			0	114.17	22.31				1	0	63			Shenzhen																L.Haimberger	0
342	0-20000-0-15490	0	343	15490	1	TURNU-MAGURELE			0	24.88	43.76				1	0	63			Turnu Magurele																L.Haimberger	0
343	0-20000-0-43421	0	344	43421	1	ANURADHAPURA			0	80.42	8.33				1	0	63			Anuradhapura																L.Haimberger	0
344	0-20000-0-16090	0	345	16087	1	VERONA/VILLAFRANCA			0	10.87	45.39				1	0	63			Verona																L.Haimberger	0
345	0-20000-0-92047	0	346	92047	1	NADZAB W.O.			0	146.72	-6.57				1	0	63			Lae																L.Haimberger	0
346	0-20000-0-40199	0	347	40199	1	EILAT			0	34.95	29.55				1	0	63			Elat																L.Haimberger	0
347	0-20000-0-41593	0	348	41593	1	SARGODHA (41594-0)			0	72.67	32.05				1	0	63			Sargodha																L.Haimberger	0
348	0-20000-0-71117	0	349	71117	1	MOBILE UPPER AIR STATION-ONTARIO, ONT			0	-79.42	46.27				1	0	63			None																L.Haimberger	0
349	0-20000-0-41678	0	350	41678	1	BAHAWALNAGAR			0	73.25	29.95				1	0	63			Bahawalnagar																L.Haimberger	0
350	0-20000-0-42379	0	351	379	1	GORAKHPUR			0	83.37	26.75				1	0	63			Gorakhpur																L.Haimberger	0
351	0-20000-0-15310	0	352	15310	1	GALATI			0	28.03	45.47				1	0	63			Galati																L.Haimberger	0
352	0-20000-0-13067	0	353	13067	1	PALIC			0	19.77	46.1				1	0	63			Subotica																L.Haimberger	0
353	0-20000-0-48453	0	354	14101	1	BANGNA AGROMET			0	100.61	13.67				1	0	63			Samut Prakan																L.Haimberger	0
354	0-20000-0-15302	0	355	15302	1	PREDEAL			0	25.58	45.51				1	0	63			Rasnov																L.Haimberger	0
355	0-20000-0-48381	0	356	48381	1	KHON KAEN			0	102.79	16.46				1	0	63			Khon Kaen																L.Haimberger	0
356	0-20000-0-07629	0	357	7629	1	TOULOUSE RW			0	1.37	43.58				1	0	63			Tournefeuille																L.Haimberger	0
357	0-20000-0-03373	0	358	3373	1	WADDINGTON			0	-0.52	53.18				1	0	63			Lincoln																L.Haimberger	0
358	0-20000-0-41696	0	359	41696	1	KALAT			0	66.58	29.03				1	0	63			Kalat																L.Haimberger	0
359	0-20000-0-78807	0	360	78808	1	COROZAL OESTE			0	-79.57	8.97				1	0	63			Panama																L.Haimberger	0
360	0-20000-0-06649	0	361	6842	1	OBERRIET / KRIESSERN			0	9.61	47.38				1	0	63			Hohenems																L.Haimberger	0
361	0-20000-0-30683	0	362	30683	1	EROFEJ PAVLOVIC			0	121.93	53.97				1	0	63			Skovorodino																L.Haimberger	0
362	0-20000-0-41950	0	363	41950	1	BARISAL			0	90.37	22.75				1	0	63			Teknaf																L.Haimberger	0
363	0-20000-0-15410	0	364	15410	1	DROBETA-TURNU SEVERIN			0	22.63	44.63				1	0	63			Drobeta-Turnu Severin																L.Haimberger	0
364		0	365		1	LILLOOET, BC			0	-121.93	50.68				1	0	63			Kamloops																L.Haimberger	0
365	0-20000-0-41764	0	366	41764	1	HYDERABAD			0	68.42	25.38				1	0	63			Hyderabad																L.Haimberger	0
366	0-20000-0-37735	0	367	37735	1	GANDJA			0	46.42	40.72				1	0	63			Xanlar																L.Haimberger	0
367	0-20000-0-41517	0	368	41517	1	SKARDU			0	75.68	35.3				1	0	63			Kargil																L.Haimberger	0
368	0-20000-0-41506	0	369	41506	1	CHITRAL			0	71.83	35.85				1	0	63			Chitral																L.Haimberger	0
369	0-20000-0-41515	0	370	41515	1	DROSH			0	71.78	35.57				1	0	63			Dir																L.Haimberger	0
370	0-20000-0-40794	0	371	40795	1	SAFI-ABAD DEZFUL			0	48.42	32.27				1	0	63			Dezful																L.Haimberger	0
371		0	372		1	CAPE TOWN INTNL. AIRPORT			0	18.6	-33.96				1	0	63			Cape Town																L.Haimberger	0
372	0-20000-0-42189	0	373	42189	1	BAREILLY			0	79.4	28.37				1	0	63			Bareli																L.Haimberger	0
373	0-20000-0-43181	0	374	43181	1	VIJAYAWADA /GANNAVARAM			0	80.8	16.53				1	0	63			Gannavaram																L.Haimberger	0
374	0-20000-0-47108	0	375	47110	1	SEOUL			0	126.97	37.57				1	0	63			Seoul																L.Haimberger	0
375	0-20000-0-41768	0	376	41768	1	CHHOR			0	69.78	25.52				1	0	63			Chor																L.Haimberger	0
376	0-20000-0-28552	0	377	28552	1	SADRINSK			0	63.65	56.07				1	0	63			Shadrinsk																L.Haimberger	0
377	0-20000-0-40001	0	378	40001	1	KAMISHLI			0	41.22	37.05				1	0	63			Nusaybin																L.Haimberger	0
378	0-20000-0-15080	0	379	15080	1	ORADEA			0	21.9	47.04				1	0	63			Oradea																L.Haimberger	0
379	0-20000-0-41950	0	380	41932	1	BARISAL			0	90.37	22.75				1	0	63			Barisal																L.Haimberger	0
380	0-20000-0-71843	0	381	71843	1	WINNIPEG UA, MAN			0	-97.13	49.8				1	0	63			Winnipeg																L.Haimberger	0
381	0-20000-0-15230	0	382	15230	1	DEVA			0	22.9	45.87				1	0	63			Deva																L.Haimberger	0
382	0-20000-0-38606	0	383	38606	1	KOKAND			0	70.95	40.55				1	0	63			Yaypan																L.Haimberger	0
383	0-20000-0-08433	0	384	8433	1	MURCIA/SAN JAVIER			0	-0.8	37.79				1	0	63			San Javier																L.Haimberger	0
384	0-20000-0-84658	0	385	84658	1	PUERTO MALDONADO BAMAL			0	-69.23	-12.63				1	0	63			Puerto Maldonado																L.Haimberger	0
385	0-20000-0-43555	0	386	43395	1	MALE			0	73.53	4.19				1	0	63			Male																L.Haimberger	0
386	0-20000-0-71851	0	387	71851	1	PORTAGE SOUTHPORT, MAN			0	-98.28	49.9				1	0	63			Winnipeg																L.Haimberger	0
387	0-20000-0-80210	0	388	80210	1	PEREIRA/MATECANA			0	-75.73	4.82				1	0	63			Pereira																L.Haimberger	0
388	0-20000-0-15200	0	389	15200	1	ARAD			0	21.35	46.13				1	0	63			Vladimirescu																L.Haimberger	0
389	0-20000-0-40270	0	390	40270	1	AMMAN AIRPORT			0	35.98	31.98				1	0	63			Jawa																L.Haimberger	0
390	0-20000-0-40190	0	391	40191	1	BEER SHEVA CITY			0	34.8	31.25				1	0	63			Ofaqim																L.Haimberger	0
391	0-620-2001-08558	0	392	8558	1	EVORA / C.C.			0	-7.89	38.54				1	0	63			Evora																L.Haimberger	0
392	0-20000-0-40007	0	393	41530	1	ALEPPO MESELME			0	37.22	36.33				1	0	63			Peshawar																L.Haimberger	0
393	0-20000-0-03808	0	394	3814	1	CAMBORNE			0	-5.33	50.22				1	0	63			Falmouth																L.Haimberger	0
394	0-20000-0-06096	0	395	6096	1	ROEMOE/JUVRE			0	8.56	55.19				1	0	63			Esbjerg																L.Haimberger	0
395	0-20000-0-98558	0	396	98558	1	GUIUAN			0	125.76	11.05				1	0	63			Guiuan																L.Haimberger	0
396	0-20000-0-72531	0	397	20008	1	RANTOUL/CHANUTE AFB, IL.			0	-88.15	40.3				1	0	63			Champaign																L.Haimberger	0
397	0-20000-0-42706	0	398	42706	1	BANKURA			0	87.08	23.38				1	0	63			Bankura																L.Haimberger	0
398	0-20000-0-60686	0	399	60686	1	BORDJ-BADJ-MOKHTAR			0	0.95	21.33				1	0	63			Kidal																L.Haimberger	0
399	0-20000-0-10860	0	400	10862	1	INGOLSTADT (FLUGPLATZ)			0	11.54	48.71				1	0	63			Abensberg																L.Haimberger	0
400	0-20000-0-06082	0	401	6082	1	BORRIS			0	8.62	55.96				1	0	63			Herning																L.Haimberger	0
401	0-20000-0-48887	0	402	48887	1	PHAN THIET			0	108.1	10.93				1	0	63			Phan Thiet																L.Haimberger	0
402	0-20000-0-96535	0	403	96535	1	PALOH			0	109.3	1.77				1	0	63			Manggar																L.Haimberger	0
403	0-20000-0-80422	0	404	80422	1	CARUPANO, SUCRE			0	-63.25	10.67				1	0	63			Carupano																L.Haimberger	0
404	0-20000-0-41620	0	405	41620	1	ZHOB			0	69.47	31.35				1	0	63			Zhob																L.Haimberger	0
405	0-20000-0-40226	0	406	40165	1	JENIN			0	35.3	32.47				1	0	63			Iksal																L.Haimberger	0
406	0-20000-0-03414	0	407	3414	1	SHAWBURY			0	-2.66	52.79				1	0	63			Shrewsbury																L.Haimberger	0
407	0-20000-0-42220	0	408	42220	1	PASIGHAT			0	95.38	28.1				1	0	63			Pasighat																L.Haimberger	0
408	0-20000-0-47143	0	409	47142	1	DAEGU			0	128.65	35.83				1	0	63			Seoul																L.Haimberger	0
409	0-20000-0-15010	0	410	15010	1	SATU MARE			0	22.89	47.72				1	0	63			Satu Mare																L.Haimberger	0
410	0-724-0-0000000000008087	0	411	8087	1	BARDENAS REALES			0	-1.48	42.2				1	0	63			Tudela																L.Haimberger	0
411	0-20000-0-96323	0	412	96323	1	KUALA BELAIT			0	114.2	4.58				1	0	63			Miri																L.Haimberger	0
412	0-20000-0-40689	0	413	40689	1	BASRAH-HUSSEN			0	47.78	30.52				1	0	63			Khorramshahr																L.Haimberger	0
413	0-20000-0-96565	0	414	96565	1	PUTUSSIBAU/PAGSUMA			0	112.93	0.88				1	0	63			Kapit																L.Haimberger	0
414	0-20000-0-15247	0	415	15247	1	TIMISOARA			0	21.26	45.77				1	0	63			Timisoara																L.Haimberger	0
415	0-20000-0-08554	0	416	8554	1	FARO/AEROPORTO			0	-7.97	37.02				1	0	63			Faro																L.Haimberger	0
416	0-20000-0-20891	0	417	20892	1	HATANGA			0	102.47	71.98				1	0	63			None																L.Haimberger	0
417	0-20000-0-84659	0	418	84659	1	PUERTO MALDONADO BAMAL			0	-69.23	-12.63				1	0	63			Puerto Maldonado																L.Haimberger	0
418	0-20000-0-01009	0	419	1009	1	KARL XII OYA			0	25.01	80.65				1	0	63			None																L.Haimberger	0
419	0-20000-0-02981	0	420	2981	1	PARAINEN UTO			0	21.37	59.78				1	0	63			Parainen																L.Haimberger	0
420	0-20001-0-10393	0	421	10395	1	LINDENBERG (10393-1)			0	14.12	52.21				1	0	63			Furstenwalde																L.Haimberger	0
421	0-20000-0-71371	0	422	71371	1	MONTREAL/ST-HUBERT A, QUE			0	-73.42	45.52				1	0	63			Montreal																L.Haimberger	0
422	0-20000-0-37472	0	423	37472	1	MAHACHKALA (37259-1)			0	47.5	43.0				1	0	63			Makhachkala																L.Haimberger	0
423	0-20000-0-84378	0	424	84378	1	MORONA			0	-73.25	-3.73				1	0	63			Iquitos																L.Haimberger	0
424	0-20000-0-71569	0	425	71569	1	BRATT'S LAKE CLIMATE, SASK			0	-104.71	50.2				1	0	63			Regina																L.Haimberger	0
425	0-20000-0-76405	0	426	4405	1	LA PAZ, BCS			0	-110.32	24.13				1	0	63			La Paz																L.Haimberger	0
426	0-20000-0-41712	0	427	41712	1	DAL BANDIN			0	64.4	28.88				1	0	63			Dalbandin																L.Haimberger	0
427	0-20000-0-41285	0	428	40462	1	BID BID			0	58.17	23.46				1	0	63			Ruwi																L.Haimberger	0
428	0-20000-0-71110	0	429	71110	1	ST LAWRENCE, NFLD			0	-55.38	46.92				1	0	63			Bay Roberts																L.Haimberger	0
429	0-20000-0-44454	0	430	44454	1	KATHMANDU AIRPORT			0	85.37	27.7				1	0	63			Lalitpur																L.Haimberger	0
430	0-20000-0-47604	0	431	47604	1	NIIGATA			0	139.02	37.89				1	0	63			Niigata																L.Haimberger	0
431	0-20000-0-41715	0	432	41715	1	JACOBABAD			0	68.47	28.3				1	0	63			Jacobabad																L.Haimberger	0
432	0-20000-0-41169	0	433	41169	1	HAMAD INTERNATIONAL AIRPORT			0	51.61	25.27				1	0	63			Doha																L.Haimberger	0
433	0-20000-0-78793	0	434	78793	1	DAVID			0	-82.42	8.4				1	0	63			David																L.Haimberger	0
434	0-20000-0-43243	0	435	43243	1	KAVALI			0	80.0	14.92				1	0	63			Kavali																L.Haimberger	0
435	0-20000-0-03132	0	436	3130	1	WEST FREUGH			0	-4.94	54.86				1	0	63			Stranraer																L.Haimberger	0
436	0-20000-0-42079	0	437	42079	1	SUNDERNAGAR			0	76.9	31.53				1	0	63			Sundarnagar																L.Haimberger	0
437	0-20000-0-80094	0	438	80094	1	BUCARAMANGA/PALONEGRO			0	-73.2	7.1				1	0	63			Giron																L.Haimberger	0
438	0-20000-0-47102	0	439	47103	1	BAENGNYEONGDO			0	124.71	37.97				1	0	63			Seoul																L.Haimberger	0
439	0-20000-0-16597	0	440	16597	1	LUQA			0	14.48	35.85				1	0	63			Qormi																L.Haimberger	0
440	0-20000-0-42474	0	441	42475	1	ALLAHABAD/GHOORPUR			0	81.81	25.31				1	0	63			Allahabad																L.Haimberger	0
441	0-20000-0-92035	0	442	92035	1	PORT MORESBY W.O.			0	147.22	-9.38				1	0	63			Port Moresby																L.Haimberger	0
442	0-20000-0-40821	0	443	40821	1	YAZD			0	54.29	31.9				1	0	63			Yazd																L.Haimberger	0
443	0-20000-0-43497	0	444	43497	1	HAMBANTOTA			0	81.13	6.12				1	0	63			Hambantota																L.Haimberger	0
444	0-20000-0-41915	0	445	41915	1	SRIMANGAL			0	91.73	24.3				1	0	63			Jhikargachha																L.Haimberger	0
445	0-20000-0-10618	0	446	10620	1	IDAR-OBERSTEIN			0	7.33	49.69				1	0	63			Idar-Oberstein																L.Haimberger	0
446	0-20000-0-43413	0	447	43413	1	MANNAR			0	79.92	8.98				1	0	63			Vavuniya																L.Haimberger	0
447	0-20000-0-42909	0	448	42909	1	VERAVAL			0	70.37	20.9				1	0	63			Veraval																L.Haimberger	0
448	0-20000-0-37099	0	449	37099	1	SOCHI			0	39.77	43.58				1	0	63			Sochi																L.Haimberger	0
449	0-20000-0-41529	0	450	41529	1	PESHAWAR			0	71.93	34.03				1	0	63			Amangarh																L.Haimberger	0
450	0-20000-0-42726	0	451	42726	1	LENGPUI			0	92.62	23.83				1	0	63			Aizawl																L.Haimberger	0
451	0-20000-0-76903	0	452	76903	1	TAPACHULA, CHIS			0	-92.3	14.89				1	0	63			Tapachula																L.Haimberger	0
452	0-20000-0-41858	0	453	41858	1	SAIDPUR			0	88.92	25.75				1	0	63			Jaipur Hat																L.Haimberger	0
453	0-20000-0-33966	0	454	33966	1	Bilohirsk			0	34.6	45.05				1	0	63			Sudak																L.Haimberger	0
454	0-20000-0-03162	0	455	3162	1	ESKDALEMUIR			0	-3.21	55.31				1	0	63			Hawick																L.Haimberger	0
455	0-20000-0-74641	0	456	74641	1	GAGE, OK, GAGE ARPT			0	-99.78	36.3				1	0	63			Woodward																L.Haimberger	0
456	0-20000-0-47160	0	457	47153	1	GUDEOKSAN			0	129.0	35.12				1	0	63			Hirado																L.Haimberger	0
457	0-20000-0-47624	0	458	47624	1	MAEBASHI			0	139.06	36.41				1	0	63			Takasaki																L.Haimberger	0
458	0-20000-0-44288	0	459	44288	1	ARVAIHEER			0	102.79	46.26				1	0	63			Hovd																L.Haimberger	0
459	0-20000-0-43418	0	460	43418	1	TRINCOMALEE			0	81.25	8.58				1	0	63			Trincomalee																L.Haimberger	0
460	0-20000-0-42675	0	461	42675	1	JABALPUR			0	79.95	23.2				1	0	63			Jabalpur																L.Haimberger	0
461	0-20000-0-40400	0	462	40400	1	AL-WEJH			0	36.48	26.2				1	0	63			Umm Lajj																L.Haimberger	0
462	0-20000-0-37484	0	463	37484	1	BATUMI			0	41.6	41.63				1	0	63			Artvin																L.Haimberger	0
463	0-20000-0-41571	0	464	41571	1	ISLAMABAD AIRPORT			0	73.1	33.62				1	0	63			Rawalpindi																L.Haimberger	0
464	0-20000-0-41170	0	465	40428	1	HAMAD INTERNATIONAL AIRPORT			0	51.61	25.27				1	0	63			Doha																L.Haimberger	0
465	0-20000-0-41598	0	466	41598	1	JHELUM			0	73.72	32.93				1	0	63			Jhelum																L.Haimberger	0
466	0-20000-0-74626	0	467	74626	1	WFO PHOENIX, AZ.			0	-111.95	33.45				1	0	63			Tempe																L.Haimberger	0
467	0-20000-0-40372	0	468	40372	1	MAARIK			0	38.9	30.53				1	0	63			Bayan																L.Haimberger	0
468	0-20000-0-42701	0	469	42700	1	M.O. RANCHI			0	85.32	23.32				1	0	63			Kanke																L.Haimberger	0
469	0-20000-0-47161	0	470	47161	1	SACHEON AB			0	128.05	35.07				1	0	63			Hirado																L.Haimberger	0
470	0-20000-0-47105	0	471	47107	1	BUKGANGNEUNG			0	128.86	37.8				1	0	63			Seoul																L.Haimberger	0
471	0-20000-0-41756	0	472	41756	1	JIWANI			0	61.8	25.07				1	0	63			Jiwani																L.Haimberger	0
472	0-20000-0-03809	0	473	3810	1	CAMBORNE			0	-5.33	50.22				1	0	63			Falmouth																L.Haimberger	0
473	0-20000-0-41675	0	474	41675	1	MULTAN			0	71.43	30.2				1	0	63			Multan																L.Haimberger	0
474	0-20000-0-42623	0	475	42623	1	IMPHAL/TULIHAL			0	93.9	24.77				1	0	63			Imphal																L.Haimberger	0
475	0-20000-0-74648	0	476	74650	1	HASKELL, OK.			0	-95.78	35.8				1	0	63			Okmulgee																L.Haimberger	0
476	0-20000-0-76692	0	477	4692	1	HACIENDA YLANG YLANG VERACRUZ, VER.			0	-96.11	19.14				1	0	63			Boca Del Rio																L.Haimberger	0
477	0-20000-0-74649	0	478	74651	1	PURCELL, OK.			0	-97.52	34.98				1	0	63			Chickasha																L.Haimberger	0
478	0-20000-0-78384	0	479	84384	1	OWEN ROBERTS AIRPORT GRAND CAYMAN			0	-81.36	19.29				1	0	63			George Town																L.Haimberger	0
479	0-20000-0-97120	0	480	97120	1	MAJENE			0	118.98	-3.55				1	0	63			Polewali																L.Haimberger	0
480	0-20000-0-84629	0	481	84629	1	LAS PALMAS			0	-77.0	-12.15				1	0	63			Lima																L.Haimberger	0
481	0-20001-0-28695	0	482	28695	1	OMSK (RS)			0	73.4	54.93				1	0	63			Omsk																L.Haimberger	0
482	0-20000-0-44259	0	483	44259	1	CHOIBALSAN			0	114.54	48.08				1	0	63			Baruun-Urt																L.Haimberger	0
483	0-20000-0-41624	0	484	41624	1	DERA ISMAIL KHAN			0	70.92	31.82				1	0	63			Dera Ismail Khan																L.Haimberger	0
484	0-20000-0-03590	0	485	3590	1	WATTISHAM			0	0.96	52.12				1	0	63			Ipswich																L.Haimberger	0
485	0-20000-0-10315	0	486	10307	1	MUENSTER/OSNABRUECK			0	7.7	52.13				1	0	63			Rheine																L.Haimberger	0
486	0-20000-0-41316	0	487	40575	1	SALALAH AIRPORT			0	54.07	17.03				1	0	63			Salalah																L.Haimberger	0
487	0-20000-0-42798	0	488	42798	1	JAMSHEDPUR (42798-0)			0	86.18	22.82				1	0	63			Jamshedpur																L.Haimberger	0
488	0-20000-0-42875	0	489	42875	1	PBO RAIPUR			0	81.65	21.23				1	0	63			Raipur																L.Haimberger	0
489	0-20000-0-37860	0	490	37860	1	MASHTAGA			0	50.0	40.53				1	0	63			Mastaga																L.Haimberger	0
490	0-20000-0-40650	0	491	40650	1	BAGHDAD INT. AIRPORT			0	44.4	33.3				1	0	63			Baghdad																L.Haimberger	0
491	0-20000-0-11683	0	492	11683	1	SVRATOUCH			0	16.03	49.73				1	0	63			Hlinsko																L.Haimberger	0
492	0-20000-0-03559	0	493	3559	1	CARDINGTON			0	-0.42	52.1				1	0	63			Bedford																L.Haimberger	0
493	0-20000-0-76743	0	494	76743	1	VILLAHERMOSA, TAB.			0	-92.92	17.98				1	0	63			Villahermosa																L.Haimberger	0
494	0-20000-0-43237	0	495	43237	1	PBO ANANTAPUR			0	77.63	14.58				1	0	63			Anantapur																L.Haimberger	0
495	0-20000-0-40990	0	496	40990	1	KANDAHAR AIRPORT			0	65.85	31.5				1	0	63			Qandahar																L.Haimberger	0
496	0-20000-0-44354	0	497	44354	1	SAINSHAND			0	110.12	44.87				1	0	63			Darhan																L.Haimberger	0
497	0-20000-0-41749	0	498	41749	1	NAWABSHAH			0	68.37	26.25				1	0	63			Nawabshah																L.Haimberger	0
498	0-20000-0-10046	0	499	10046	1	KIEL-HOLTENAU			0	10.14	54.38				1	0	63			Kiel																L.Haimberger	0
499	0-20000-0-28952	0	500	28951	1	KOSTANAY			0	63.74	53.24				1	0	63			Qostanay																L.Haimberger	0
500	0-20000-0-84416	0	501	84416	1	PIURA GRUP7			0	-80.6	-5.18				1	0	63			Piura																L.Haimberger	0
501	0-20000-0-16242	0	502	16242	1	PRATICA DI MARE RDS			0	12.45	41.67				1	0	63			Fiumicino																L.Haimberger	0
502	0-20000-0-42634	0	503	42634	1	BHUJ-RUDRAMATA			0	69.8	23.25				1	0	63			Bhuj																L.Haimberger	0
503	0-20000-0-38989	0	504	38989	1	TAGTABAZAR			0	62.92	35.95				1	0	63			Sarakhs																L.Haimberger	0
504	0-20000-0-72551	0	505	72551	1	LINCOLN/MUN., NE.			0	-96.75	40.85				1	0	63			Lincoln																L.Haimberger	0
505	0-20000-0-65125	0	506	65125	1	ABUJA			0	7.0	9.25				1	0	63			Abuja																L.Haimberger	0
506	0-20000-0-13586	0	507	13586	1	SKOPJE PETROVEC			0	21.65	41.97				1	0	63			Ilinden																L.Haimberger	0
507	0-20000-0-97460	0	508	97460	1	LABUHA/OESMAN SADIK			0	127.5	-0.63				1	0	63			Luwuk																L.Haimberger	0
508	0-20000-0-42886	0	509	42886	1	JHARSIGUDA			0	84.08	21.92				1	0	63			Jharsuguda																L.Haimberger	0
509	0-20000-0-47058	0	510	47058	1	PYONGYANG			0	125.78	39.03				1	0	63			Dandong																L.Haimberger	0
510	0-20000-0-40080	0	511	40080	1	DAMASCUS INT. AIRPORT			0	36.52	33.42				1	0	63			Jaramana																L.Haimberger	0
511	0-20000-0-48811	0	512	48811	1	Dien Bien			0	103.0	21.36				1	0	63			Dien Bien																L.Haimberger	0
512	0-20000-0-42103	0	513	42103	1	PATIALA			0	76.47	30.33				1	0	63			Ambala																L.Haimberger	0
513	0-20000-0-17601	0	514	17601	1	AKROTIRI			0	32.99	34.59				1	0	63			Lemesos																L.Haimberger	0
514	0-20000-0-41594	0	515	41594	1	SARGODHA (41594-0)			0	72.67	32.05				1	0	63			Sargodha																L.Haimberger	0
515	0-20000-0-41661	0	516	41661	1	QUETTA (SHEIKH MANDA)			0	66.92	30.27				1	0	63			Quetta																L.Haimberger	0
516	0-620-2001-08507	0	517	8507	1	GRACIOSA/AERODROMO			0	-28.03	39.09				1	0	63			Angra																L.Haimberger	0
517	0-20000-0-41061	0	518	40495	1	WADI AL-DAWASSER AIRPORT			0	45.25	20.5				1	0	63			Najran																L.Haimberger	0
518	0-20000-0-20107	0	519	20107	1	BARENTSBURG			0	14.22	78.06				1	0	63			None																L.Haimberger	0
519	0-20000-0-40841	0	520	40841	1	KERMAN			0	56.97	30.25				1	0	63			Kerman																L.Haimberger	0
520	0-20000-0-17607	0	521	17516	1	ATHALASSA			0	33.4	35.14				1	0	63			Nicosia																L.Haimberger	0
521	0-20000-0-61903	0	522	61904	1	ST. HELENA IS.			0	-5.67	-15.94				1	0	63			None																L.Haimberger	0
522	0-20000-0-20667	0	523	20667	1	IM. M.V. POPOVA			0	70.07	73.33				1	0	63			None																L.Haimberger	0
523	0-20000-0-70027	0	524	70027	1	BARROW/W. POST W. ROGERS			0	-156.78	71.29				1	0	63			None																L.Haimberger	0
524	0-20000-0-40572	0	525	40572	1	SOUTH DOLPHIN			0	48.0	29.42				1	0	63			Jizan																L.Haimberger	0
525	0-20000-0-42591	0	526	42591	1	GAYA (42591-0)			0	84.95	24.75				1	0	63			Gaya																L.Haimberger	0
526	0-20000-0-36974	0	527	36974	1	NARYN			0	76.0	41.43				1	0	63			At-Bashi																L.Haimberger	0
527	0-20000-0-42111	0	528	42111	1	DEHRADUN			0	78.03	30.32				1	0	63			Dehra Dun																L.Haimberger	0
528	0-20000-0-28900	0	529	28900	1	SAMARA (OGMS)			0	50.22	53.25				1	0	63			Kinel																L.Haimberger	0
529	0-20000-0-40007	0	530	40007	1	ALEPPO MESELME			0	37.22	36.33				1	0	63			Aleppo																L.Haimberger	0
530	0-20000-0-11723	0	531	11722	1	BRNO/TURANY			0	16.69	49.15				1	0	63			Brno																L.Haimberger	0
531	0-20000-0-74006	0	532	74006	1	YUMA PROVING GROUNDS, AZ (K1Y9)			0	-113.8	32.92				1	0	63			Fortuna Foothills																L.Haimberger	0
532	0-20000-0-42874	0	533	42874	1	PBO RAIPUR			0	81.65	21.23				1	0	63			Raipur																L.Haimberger	0
533	0-20000-0-42165	0	534	42165	1	BIKANER			0	73.3	28.0				1	0	63			Bikaner																L.Haimberger	0
534	0-20000-0-43149	0	535	43149	1	VISHAKHAPATNAM/WALTAIR			0	83.3	17.68				1	0	63			Visakhapatnam																L.Haimberger	0
535	0-20000-0-29838	0	536	29838	1	BARNAUL (29839-0)			0	83.83	53.5				1	0	63			Barnaul																L.Haimberger	0
536	0-20000-0-57687	0	537	57687	1	CHANGSHA (57687-0)			0	112.78	28.12				1	0	63			Ningxiang																L.Haimberger	0
537	0-20000-0-01492	0	538	1492	1	OSLO-BLINDERN (1492-1)			0	10.72	59.94				1	0	63			Oslo																L.Haimberger	0
538	0-20000-0-36259	0	539	36259	1	KOSH-AGACH			0	88.67	50.01				1	0	63			Ak-Dovurak																L.Haimberger	0
539	0-20000-0-29862	0	540	29865	1	ABAKAN			0	91.32	53.77				1	0	63			Abakan																L.Haimberger	0
540	0-20000-0-74005	0	541	74005	1	YUMA PROVING GROUNDS, AZ (K1Y8)			0	-114.03	32.86				1	0	63			Fortuna Foothills																L.Haimberger	0
541	0-20000-0-10384	0	542	10384	1	BERLIN-TEMPELHOF			0	13.4	52.47				1	0	63			Berlin																L.Haimberger	0
542	0-20000-0-91532	0	543	91532	1	NAURU ARC-2			0	166.92	-0.52				1	0	63			None																L.Haimberger	0
543	0-20000-0-41020	0	544	40477	1	JEDDAH I.E.			0	39.22	21.42				1	0	63			Jiddah																L.Haimberger	0
544	0-20000-0-38413	0	545	38413	1	TAMDY			0	64.62	41.73				1	0	63			Nurota																L.Haimberger	0
545	0-20000-0-68098	0	546	68098	1	WALVIS BAY AIRPORT			0	14.65	-22.98				1	0	63			Walvis Bay																L.Haimberger	0
546	0-20000-0-36859	0	547	36859	1	ZHARKENT			0	80.05	44.16				1	0	63			Zharkent																L.Haimberger	0
547	0-20000-0-42056	0	548	42056	1	JAMMU			0	74.83	32.67				1	0	63			Bishna																L.Haimberger	0
548	0-20000-0-40416	0	549	40416	1	DHAHRAN			0	50.17	26.27				1	0	63			Sayhat																L.Haimberger	0
549	0-20000-0-40100	0	550	40100	1	BEYROUTH (AEROPORT)			0	35.48	33.82				1	0	63			Bayrut																L.Haimberger	0
550	0-20000-0-41780	0	551	41780	1	KARACHI AIRPORT			0	67.13	24.9				1	0	63			Karachi																L.Haimberger	0
551	0-20000-0-10147	0	552	10141	1	HAMBURG-FUHLSBUETTEL			0	9.99	53.63				1	0	63			Norderstedt																L.Haimberger	0
552	0-20000-0-10818	0	553	10921	1	KLIPPENECK			0	8.75	48.11				1	0	63			Tuttlingen																L.Haimberger	0
553	0-20000-0-38927	0	554	38927	1	TERMEZ			0	67.32	37.28				1	0	63			Termiz																L.Haimberger	0
554	0-20000-0-62403	0	555	62403	1	SOUTH OF VALLEY UNIVERSITY			0	32.75	26.2				1	0	63			Qena																L.Haimberger	0
555	0-20000-0-44212	0	556	44212	1	ULAANGOM			0	92.08	49.97				1	0	63			Ulaangom																L.Haimberger	0
556	0-20001-0-10548	0	557	9548	1	MEININGEN (10548-1)			0	10.38	50.56				1	0	63			Meiningen																L.Haimberger	0
557	0-20000-0-17600	0	558	17600	1	PAPHOS AP			0	32.48	34.72				1	0	63			Pafos																L.Haimberger	0
558	0-20000-0-03316	0	559	3317	1	CROSBY			0	-3.06	53.5				1	0	63			Shrewsbury																L.Haimberger	0
559	0-20000-0-31707	0	560	31707	1	EKATERINO-NIKOL'SKOE			0	130.97	47.74				1	0	63			Hegang																L.Haimberger	0
560	0-20000-0-31735	0	561	31735	1	HABAROVSK (31736-0)			0	135.23	48.53				1	0	63			Khabarovsk																L.Haimberger	0
561	0-20000-0-76525	0	562	76526	1	ZACATECAS, ZAC. (LA BUFA, ZAC.)			0	-102.57	22.78				1	0	63			Guadalupe																L.Haimberger	0
562	0-20000-0-37018	0	563	37018	1	TUAPSE (37011-1)			0	39.03	44.1				1	0	63			Tuapse																L.Haimberger	0
563	0-20000-0-41640	0	564	41640	1	LAHORE CITY			0	74.33	31.55				1	0	63			Lahore																L.Haimberger	0
564	0-20000-0-52983	0	565	52983	1	YU ZHONG			0	104.15	35.87				1	0	63			Baiyin																L.Haimberger	0
565	0-20000-0-40438	0	566	40438	1	KING KHALED INT. AIRPORT			0	46.72	24.93				1	0	63			Riyadh																L.Haimberger	0
566	0-20000-0-10338	0	567	10338	1	HANNOVER			0	9.68	52.46				1	0	63			Langenhagen																L.Haimberger	0
567	0-20000-0-38687	0	568	38687	1	TURKMENABAT			0	63.6	39.08				1	0	63			Turkmenabat																L.Haimberger	0
568	0-20000-0-12330	0	569	12330	1	POZNAN-LAWICA			0	16.83	52.42				1	0	63			Lubon																L.Haimberger	0
569	0-20000-0-89573	0	570	89573	1	ZHONGSHAN			0	76.37	-69.37				1	0	63			None																L.Haimberger	0
570	0-643-0-26708	0	571	26708	1	KALININGRAD (NIZOV'E)			0	20.77	54.7				1	0	63			Guryevsk																L.Haimberger	0
571	0-620-1003-08509	0	572	8509	1	LAJES (ACORES) (8508-0)			0	-27.09	38.77				1	0	63			Angra																L.Haimberger	0
572	0-20000-0-38353	0	573	38353	1	BISHKEK			0	74.53	42.85				1	0	63			Kant																L.Haimberger	0
573	0-20000-0-31329	0	574	31329	1	EKIMCHAN			0	132.93	53.08				1	0	63			Chegdomyn																L.Haimberger	0
574	0-20000-0-31561	0	575	31561	1	KOMSOMOLSK-NA-AMURE			0	137.03	50.53				1	0	63			Solnechnyy																L.Haimberger	0
575	0-20000-0-36177	0	576	36177	1	SEMIPALATINSK			0	80.3	50.42				1	0	63			Semey																L.Haimberger	0
576	0-20000-0-31770	0	577	31770	1	SOVETSKAYA GAVAN'			0	140.3	49.0				1	0	63			Sovetskaya Gavan																L.Haimberger	0
577	0-20000-0-22802	0	578	22802	1	SORTAVALA			0	30.72	61.72				1	0	63			Sortavala																L.Haimberger	0
578	0-20000-0-15730	0	579	15730	1	KURDJALI			0	25.38	41.65				1	0	63			Haskovo																L.Haimberger	0
579	0-20000-0-59293	0	580	59293	1	HEYUAN			0	114.73	23.8				1	0	63			Yuancheng																L.Haimberger	0
580	0-20000-0-38062	0	581	38062	1	Tasboget AMS			0	65.53	44.77				1	0	63			Tasbuget																L.Haimberger	0
581	0-20000-0-27947	0	582	27947	1	TAMBOV (27947-0)			0	41.33	52.8				1	0	63			Tambov																L.Haimberger	0
582	0-20000-0-81729	0	583	81729	1	MANACAPURU			0	-60.63	-3.29				1	0	63			Manacapuru																L.Haimberger	0
583	0-20000-0-71127	0	584	71126	1	STONY PLAIN UA, ALTA			0	-114.11	53.55				1	0	63			Spruce Grove																L.Haimberger	0
584	0-20000-0-40569	0	585	40569	1	ABHA			0	42.65	18.23				1	0	63			Abha																L.Haimberger	0
585	0-686-0-61660	0	586	61660	1	DAKAR-DIASS-AIBD			0	-17.07	14.67				1	0	63			Moussoro																L.Haimberger	0
586	0-20000-0-43333	0	587	43333	1	PORT BLAIR			0	92.72	11.67				1	0	63			Port Blair																L.Haimberger	0
587	0-20000-0-42399	0	588	42399	1	JALPAIGURI			0	88.72	26.53				1	0	63			Jalpaiguri																L.Haimberger	0
588	0-20000-0-82107	0	589	82107	1	SAO GABRIEL DA CACHOEIRA (AERO)			0	-66.97	-0.12				1	0	63			Sao Gabriel Da Cachoeira																L.Haimberger	0
589	0-20000-0-08594	0	590	8594	1	SAL			0	-22.95	16.74				1	0	63			Santa Maria																L.Haimberger	0
590	0-20000-0-33631	0	591	33631	1	Uzhhorod			0	22.26	48.63				1	0	63			Uzhhorod																L.Haimberger	0
591	0-20000-0-38613	0	592	38613	1	DZHALAL-ABAD			0	72.95	40.92				1	0	63			Ozgon																L.Haimberger	0
592	0-20001-0-72403	0	593	72413	1	STERLING, VA.			0	-77.49	38.98				1	0	63			Herndon																L.Haimberger	0
593	0-20000-0-48839	0	594	48839	1	BACH LONG VI			0	107.72	20.13				1	0	63			Cam Pha																L.Haimberger	0
594	0-20000-0-25400	0	595	25403	1	ZYRYANKA (25400-0)			0	150.9	65.73				1	0	63			None																L.Haimberger	0
595	0-20000-0-68592	0	596	68592	1	KING SHAKA INT'L AIRPORT			0	31.12	-29.6				1	0	63			Ballitoville																L.Haimberger	0
596	0-20000-0-43295	0	597	43295	1	BANGALORE			0	77.58	12.97				1	0	63			Bangalore																L.Haimberger	0
597	0-20000-0-44277	0	598	44277	1	ALTAI			0	96.24	46.38				1	0	63			Hami																L.Haimberger	0
598	0-20000-0-40913	0	599	40913	1	KUNDUZ			0	68.92	36.67				1	0	63			Qunduz																L.Haimberger	0
599	0-20000-0-25399	0	600	25399	1	MYS UELEN			0	-169.83	66.16				1	0	63			None																L.Haimberger	0
600	0-20000-0-38457	0	601	38457	1	TASHKENT			0	69.3	41.33				1	0	63			Tashkent																L.Haimberger	0
601	0-20000-0-47041	0	602	47041	1	HAMHEUNG			0	127.55	39.93				1	0	63			Linjiang																L.Haimberger	0
602	0-20000-0-25677	0	603	25677	1	BERINGOVSKAJA			0	179.28	63.02				1	0	63			Anadyr																L.Haimberger	0
603	0-20000-0-44292	0	604	44292	1	ULAANBAATAR			0	106.85	47.92				1	0	63			Ulaanbaatar																L.Haimberger	0
604	0-20000-0-36870	0	605	36870	1	ALMATY OGMS			0	76.93	43.24				1	0	63			Almaty																L.Haimberger	0
605	0-20000-0-42398	0	606	42397	1	SILIGURI (42398-0)			0	88.32	26.63				1	0	63			Baghdogra																L.Haimberger	0
606	0-20000-0-38507	0	607	38507	1	TURKMENBASHI (38507-1)			0	52.98	40.03				1	0	63			Balkanabat																L.Haimberger	0
607	0-20000-0-48453	0	608	48453	1	BANGNA AGROMET			0	100.61	13.67				1	0	63			Samut Prakan																L.Haimberger	0
608	0-20000-0-23955	0	609	23955	1	ALEKSANDROVSKOE			0	77.87	60.43				1	0	63			Strezhevoy																L.Haimberger	0
609	0-20000-0-43466	0	610	43466	1	COLOMBO			0	79.87	6.9				1	0	63			Kotte																L.Haimberger	0
610	0-20000-0-30692	0	611	30692	1	SKOVORODINO			0	123.97	54.0				1	0	63			Skovorodino																L.Haimberger	0
611	0-20000-0-40754	0	612	40754	1	TEHRAN-MEHRABAD			0	51.31	35.69				1	0	63			Eslamshahr																L.Haimberger	0
612	0-20000-0-35796	0	613	35796	1	BALHASH			0	75.08	46.8				1	0	63			Balkhash																L.Haimberger	0
613	0-20000-0-30554	0	614	30557	1	BAGDARIN (30554-0)			0	113.58	54.44				1	0	63			Taksimo																L.Haimberger	0
614	0-20000-0-42410	0	615	42410	1	GUWAHATI			0	91.58	26.1				1	0	63			Sualkuchi																L.Haimberger	0
615	0-20000-0-34560	0	616	34560	1	VOLGOGRAD (34467-1)			0	44.33	48.78				1	0	63			Gorkovskiy																L.Haimberger	0
616	0-20000-0-01205	0	617	1206	1	SVINOY LH			0	5.27	62.33				1	0	63			Molde																L.Haimberger	0
617	0-20000-0-15120	0	618	15120	1	CLUJ-NAPOCA			0	23.57	46.78				1	0	63			Cluj-Napoca																L.Haimberger	0
618	0-20000-0-10488	0	619	9486	1	DRESDEN-KLOTZSCHE			0	13.75	51.13				1	0	63			Radebeul																L.Haimberger	0
619	0-20000-0-24125	0	620	24122	1	OLENEK (24125-0)			0	112.43	68.5				1	0	63			Udachnyy																L.Haimberger	0
620	0-20000-0-37054	0	621	37054	1	MINERAL'NYE VODY (37055-1)			0	43.1	44.22				1	0	63			Mineralnyye Vody																L.Haimberger	0
621	0-20000-0-30710	0	622	30710	1	IRKUTSK (30710-0)			0	104.32	52.27				1	0	63			Irkutsk																L.Haimberger	0
622	0-20000-0-14240	0	623	13130	1	ZAGREB/MAKSIMIR			0	16.03	45.82				1	0	63			Zagreb																L.Haimberger	0
623	0-20000-0-34122	0	624	34122	1	VORONEZ (34122-0)			0	39.25	51.65				1	0	63			Voronezh																L.Haimberger	0
624	0-20000-0-20069	0	625	20069	1	OSTROV VIZE			0	76.98	79.49				1	0	63			None																L.Haimberger	0
625	0-20000-0-26435	0	626	26435	1	SKRIVERI			0	25.13	56.64				1	0	63			Ogre																L.Haimberger	0
626	0-20000-0-24817	0	627	24817	1	ERBOGACEN			0	108.02	61.27				1	0	63			Kirensk																L.Haimberger	0
627	0-124-0-73110	0	628	73110	1	Shearwater UA, NS			0	-63.51	44.63				1	0	63			Halifax																L.Haimberger	0
628	0-20000-0-30521	0	629	30521	1	ZHIGALOVO			0	105.17	54.8				1	0	63			Zheleznogorsk-Ilimskiy																L.Haimberger	0
629	0-20000-0-36883	0	630	36872	1	ILIYSKY			0	76.98	43.48				1	0	63			Energeticheskiy																L.Haimberger	0
630	0-124-0-73033	0	631	73033	1	Vernon UA, BC			0	-119.27	50.26				1	0	63			Vernon																L.Haimberger	0
631	0-20000-0-82244	0	632	82244	1	SANTAREM (AERO)			0	-54.72	-2.43				1	0	63			Santarem																L.Haimberger	0
632	0-20000-0-33791	0	633	33791	1	Kryvyi Rih			0	33.21	48.05				1	0	63			Kryvyy Rih																L.Haimberger	0
633	0-20000-0-44373	0	634	44373	1	DALANZADGAD			0	104.42	43.58				1	0	63			Hovd																L.Haimberger	0
634	0-20000-0-26258	0	635	26258	1	PSKOV			0	28.33	57.82				1	0	63			Pskov																L.Haimberger	0
635	0-20000-0-43041	0	636	43041	1	JAGDALPUR			0	82.03	19.08				1	0	63			Jagdalpur																L.Haimberger	0
636	0-20000-0-38392	0	637	38392	1	DASHOGUZ			0	59.82	41.75				1	0	63			Dasoguz																L.Haimberger	0
637	0-20000-0-38954	0	638	38954	1	KHOROG			0	71.5	37.5				1	0	63			Eskasem																L.Haimberger	0
638	0-20000-0-25563	0	639	25563	1	ANADYR'			0	177.57	64.78				1	0	63			Anadyr																L.Haimberger	0
639	0-20000-0-27730	0	640	27731	1	RYAZAN'			0	39.7	54.63				1	0	63			Ryazan																L.Haimberger	0
640	0-20000-0-27037	0	641	27037	1	VOLOGDA (27038-0)			0	39.93	59.32				1	0	63			Vologda																L.Haimberger	0
641	0-20000-0-38836	0	642	38836	1	DUSHANBE			0	68.73	38.58				1	0	63			Dushanbe																L.Haimberger	0
642	0-20000-0-27198	0	643	27196	1	KIROV (27199-0)			0	49.57	58.57				1	0	63			Kirov																L.Haimberger	0
643	0-20000-0-37545	0	644	37549	1	TBILISI			0	44.77	41.75				1	0	63			Tbilisi																L.Haimberger	0
644	0-20000-0-29698	0	645	29698	1	NIZHNEUDINSK			0	99.03	54.88				1	0	63			Nizhneudinsk																L.Haimberger	0
645	0-20000-0-78807	0	646	78807	1	COROZAL OESTE			0	-79.57	8.97				1	0	63			Panama																L.Haimberger	0
646	0-20000-0-43192	0	647	43192	1	GOA/PANJIM			0	73.82	15.48				1	0	63			Panaji																L.Haimberger	0
647	0-20000-0-26629	0	648	26629	1	KAUNAS (26629-1)			0	23.84	54.88				1	0	63			Kaunas																L.Haimberger	0
648	0-20000-0-26406	0	649	26406	1	LIEPAJA			0	21.02	56.48				1	0	63			Liepaja																L.Haimberger	0
649	0-20000-0-42361	0	650	42361	1	GWALIOR			0	78.25	26.23				1	0	63			Morar																L.Haimberger	0
650	0-20000-0-20353	0	651	20353	1	MYS ZELANIYA			0	68.55	76.95				1	0	63			None																L.Haimberger	0
651	0-20000-0-24125	0	652	24125	1	OLENEK (24125-0)			0	112.43	68.5				1	0	63			Udachnyy																L.Haimberger	0
652	0-20000-0-33658	0	653	33658	1	Chernivtsi			0	25.97	48.27				1	0	63			Chernivtsi																L.Haimberger	0
653	0-20000-0-42348	0	654	42348	1	JAIPUR / SANGANER			0	75.8	26.82				1	0	63			Jaipur																L.Haimberger	0
654	0-20000-0-29571	0	655	29574	1	EMEL' YANOVO			0	92.61	56.18				1	0	63			Krasnoyarsk																L.Haimberger	0
655	0-20000-0-20744	0	656	20744	1	MALYE KARMAKULY (20744-1)			0	52.7	72.37				1	0	63			Naryan-Mar																L.Haimberger	0
656	0-20000-0-15480	0	657	15480	1	CONSTANTA			0	28.65	44.21				1	0	63			Constanta																L.Haimberger	0
657	0-20000-0-24944	0	658	24944	1	OLEKMINSK (24944-0)			0	120.42	60.4				1	0	63			Aldan																L.Haimberger	0
658	0-20000-0-37985	0	659	37985	1	LANKARAN			0	48.83	38.73				1	0	63			Astara																L.Haimberger	0
659	0-20001-0-34467	0	660	34467	1	VOLGOGRAD (34467-1)			0	44.33	48.78				1	0	63			Gorkovskiy																L.Haimberger	0
660	0-20000-0-31004	0	661	31004	1	ALDAN			0	125.37	58.62				1	0	63			Aldan																L.Haimberger	0
661	0-20000-0-42724	0	662	42724	1	AGARTALA			0	91.25	23.88				1	0	63			Agartala																L.Haimberger	0
662	0-20000-0-32165	0	663	32165	1	JUZHNO-KURIL'SK			0	145.87	44.02				1	0	63			Shibetsu																L.Haimberger	0
663	0-20000-0-26422	0	664	26422	1	RIGA LU			0	24.12	56.95				1	0	63			Riga																L.Haimberger	0
664	0-20000-0-21982	0	665	21982	1	OSTROV VRANGELJA			0	-178.65	70.98				1	0	63			None																L.Haimberger	0
665	0-20000-0-24507	0	666	24507	1	TURA (24507-0)			0	100.22	64.27				1	0	63			None																L.Haimberger	0
666	0-20000-0-33393	0	667	33393	1	Lviv			0	23.96	49.81				1	0	63			Lvov																L.Haimberger	0
667	0-20000-0-57131	0	668	57131	1	JINGHE (57131-0)			0	108.97	34.43				1	0	63			Xian																L.Haimberger	0
668	0-20000-0-33317	0	669	33317	1	Shepetivka			0	27.04	50.16				1	0	63			Shepetivka																L.Haimberger	0
669	0-643-0-26708	0	670	26702	1	KALININGRAD (NIZOV'E)			0	20.77	54.7				1	0	63			Kaliningrad																L.Haimberger	0
670	0-20000-0-23552	0	671	23552	1	TARKO-SALE			0	77.77	64.91				1	0	63			Tarko-Sale																L.Haimberger	0
671	0-20000-0-25551	0	672	25551	1	MARKOVO			0	170.42	64.68				1	0	63			None																L.Haimberger	0
672	0-20000-0-35746	0	673	35746	1	ARAL TENIZI			0	61.66	46.78				1	0	63			Dzhusaly																L.Haimberger	0
673	0-20000-0-28698	0	674	28698	1	OMSK (RS)			0	73.4	54.93				1	0	63			Omsk																L.Haimberger	0
674	0-20000-0-31960	0	675	31960	1	VLADIVOSTOK			0	131.92	43.12				1	0	63			Vladivostok																L.Haimberger	0
675	0-20000-0-92044	0	676	92044	1	MOMOTE W.O.			0	147.42	-2.05				1	0	63			Kavieng																L.Haimberger	0
676	0-20000-0-29839	0	677	29839	1	BARNAUL (29839-0)			0	83.83	53.5				1	0	63			Barnaul																L.Haimberger	0
677	0-20000-0-15614	0	678	15614	1	SOFIA (OBSERV.)			0	23.38	42.65				1	0	63			Novi Iskar																L.Haimberger	0
678	0-20000-0-47420	0	679	47420	1	NEMURO			0	145.59	43.33				1	0	63			Nemuro																L.Haimberger	0
679	0-20000-0-76595	0	680	76595	1	CANCUN			0	-86.85	21.03				1	0	63			Cancun																L.Haimberger	0
680	0-20000-0-21946	0	681	21946	1	CHOKURDAH			0	147.88	70.62				1	0	63			None																L.Haimberger	0
681	0-20000-0-20891	0	682	20891	1	HATANGA			0	102.47	71.98				1	0	63			None																L.Haimberger	0
682	0-20000-0-34880	0	683	34880	1	ASTRAHAN' (34882-1)			0	47.98	46.28				1	0	63			Astrakhan																L.Haimberger	0
683	0-20000-0-47090	0	684	47090	1	SOKCHO			0	128.56	38.25				1	0	63			Seoul																L.Haimberger	0
684	0-20000-0-43014	0	685	43014	1	AURANGABAD CHIKALTHANA AERODROME			0	75.4	19.85				1	0	63			Aurangabad																L.Haimberger	0
685	0-20000-0-10469	0	686	10468	1	LEIPZIG/HALLE			0	12.24	51.43				1	0	63			Halle																L.Haimberger	0
686	0-20000-0-40265	0	687	40265	1	MAFRAQ			0	36.25	32.37				1	0	63			Hawwarah																L.Haimberger	0
687	0-20000-0-23022	0	688	23022	1	AMDERMA			0	61.66	69.78				1	0	63			Severnyy																L.Haimberger	0
688	0-20000-0-29282	0	689	29282	1	BOGUCANY			0	97.45	58.38				1	0	63			Boguchany																L.Haimberger	0
689	0-20000-0-42101	0	690	42101	1	PATIALA			0	76.47	30.33				1	0	63			Sanaur																L.Haimberger	0
690	0-20000-0-25400	0	691	25400	1	ZYRYANKA (25400-0)			0	150.9	65.73				1	0	63			None																L.Haimberger	0
691	0-20000-0-27459	0	692	27553	1	NIZHNIJ NOVGOROD			0	44.0	56.27				1	0	63			Nizhniy Novgorod																L.Haimberger	0
692	0-20000-0-30230	0	693	30230	1	KIRENSK			0	108.07	57.77				1	0	63			Kirensk																L.Haimberger	0
693	0-20000-0-40948	0	694	40948	1	KABUL AIRPORT			0	69.22	34.55				1	0	63			Kabul																L.Haimberger	0
694	0-20000-0-06458	0	695	6458	1	BEAUVECHAIN			0	4.76	50.75				1	0	63			Grez-Doiceau																L.Haimberger	0
695	0-20000-0-42647	0	696	42647	1	AHMADABAD			0	72.63	23.07				1	0	63			Ahmadabad																L.Haimberger	0
696	0-20000-0-17280	0	697	17280	1	DIYARBAKIR HAVALİMANI			0	40.2	37.9				1	0	63			Bismil																L.Haimberger	0
697	0-20000-0-38750	0	698	38750	1	ESENGULY			0	53.97	37.47				1	0	63			Bandar-E Torkaman																L.Haimberger	0
698	0-20000-0-82026	0	699	82026	1	TIRIOS			0	-55.95	2.22				1	0	63			Lelydorp																L.Haimberger	0
699	0-20000-0-24726	0	700	24726	1	MIRNVY			0	113.87	62.53				1	0	63			Mirnyy																L.Haimberger	0
700	0-20000-0-33946	0	701	33946	1	Simferopol			0	33.97	45.04				1	0	63			Bakhchysaray																L.Haimberger	0
701	0-20000-0-82705	0	702	82705	1	CRUZEIRO DO SUL (AERO)			0	-72.77	-7.58				1	0	63			Cruzeiro Do Sul																L.Haimberger	0
702	0-20000-0-56187	0	703	56187	1	WENJIANG (56187-1)			0	103.87	30.75				1	0	63			Chengdu																L.Haimberger	0
703	0-20000-0-38880	0	704	38880	1	ASHGABAT (38880-1)			0	58.38	37.97				1	0	63			Asgabat																L.Haimberger	0
704	0-20000-0-26298	0	705	26298	1	BOLOGOE			0	34.03	57.88				1	0	63			Bologoye																L.Haimberger	0
705	0-20000-0-82917	0	706	82917	1	RIO BRANCO (AERO)			0	-67.8	-10.0				1	0	63			Rio Branco																L.Haimberger	0
706	0-20000-0-14240	0	707	14240	1	ZAGREB/MAKSIMIR			0	16.03	45.82				1	0	63			Zagreb																L.Haimberger	0
707	0-20000-0-17064	0	708	17062	1	ISTANBUL BOLGE (KARTAL)			0	29.16	40.91				1	0	63			Istanbul																L.Haimberger	0
708	0-20000-0-40186	0	709	40186	1	ASHDOD NORTH			0	34.68	31.87				1	0	63			Yavne																L.Haimberger	0
709	0-20000-0-33815	0	710	33815	1	CHISINAU			0	28.85	46.97				1	0	63			Chisinau																L.Haimberger	0
710	0-20000-0-42971	0	711	42971	1	BHUBANESHWAR			0	85.83	20.25				1	0	63			Bhubaneswar																L.Haimberger	0
711	0-20000-0-31909	0	712	31909	1	TERNEJ			0	136.6	45.0				1	0	63			Dalnegorsk																L.Haimberger	0
712	0-20000-0-93817	0	713	93817	1	Lauder Observatory			0	169.68	-45.04				1	0	63			Dunedin																L.Haimberger	0
713	0-20000-0-44231	0	714	44231	1	MUREN			0	100.17	49.64				1	0	63			Moron																L.Haimberger	0
714	0-20000-0-24266	0	715	24266	1	VERHOJANSK			0	133.4	67.57				1	0	63			None																L.Haimberger	0
715	0-20000-0-33837	0	716	33837	1	Odesa			0	30.77	46.44				1	0	63			Odesa																L.Haimberger	0
716	0-20000-0-23804	0	717	23804	1	SYKTYVKAR (23802-0)			0	50.78	61.68				1	0	63			Syktyvkar																L.Haimberger	0
717	0-20000-0-71802	0	718	71802	1	ST JOHN'S WEST UA, NFLD			0	-52.78	47.52				1	0	63			Bay Roberts																L.Haimberger	0
718	0-20000-0-74646	0	719	74646	1	Southern Great Plains (SCP) Central Facility			0	-97.48	36.61				1	0	63			Ponca City																L.Haimberger	0
719	0-20000-0-22550	0	720	22550	1	ARHANGEL'SK (22543-0)			0	40.51	64.62				1	0	63			Arkhangelsk																L.Haimberger	0
720	0-20001-0-10393	0	721	9393	1	LINDENBERG (10393-1)			0	14.12	52.21				1	0	63			Furstenwalde																L.Haimberger	0
721	0-20000-0-27595	0	722	27595	1	KAZAN' (27595-0)			0	49.2	55.74				1	0	63			Kazan																L.Haimberger	0
722	0-20000-0-54727	0	723	54727	1	ZHANGQIU			0	117.5	36.65				1	0	63			Mingshui																L.Haimberger	0
723	0-20000-0-43346	0	724	43346	1	KARAIKAL			0	79.83	10.92				1	0	63			Nagapattinam																L.Haimberger	0
724	0-20000-0-30635	0	725	30635	1	UST'-BARGUZIN			0	109.02	53.42				1	0	63			Onokhoy																L.Haimberger	0
725	0-20000-0-43311	0	726	43311	1	AMINIDIVI			0	72.73	11.12				1	0	63			Kavaratti																L.Haimberger	0
726	0-20000-0-17195	0	727	17196	1	KAYSERI/ERKILET			0	35.49	38.77				1	0	63			Kayseri																L.Haimberger	0
727	0-20001-0-28661	0	728	28661	1	KURGAN			0	65.4	55.46				1	0	63			Kurgan																L.Haimberger	0
728	0-20000-0-42667	0	729	42667	1	BHOPAL/BAIRAGHAR			0	77.35	23.28				1	0	63			Bhopal																L.Haimberger	0
729	0-20000-0-26850	0	730	26850	1	MINSK			0	27.64	53.93				1	0	63			Minsk																L.Haimberger	0
730	0-20000-0-28440	0	731	28440	1	EKATERINBURG (VERHNEE DUBROVO)			0	61.07	56.73				1	0	63			Yekaterinburg																L.Haimberger	0
731	0-20000-0-33345	0	732	33345	1	Kyiv			0	30.54	50.39				1	0	63			Vyshneve																L.Haimberger	0
732	0-20000-0-36096	0	733	36096	1	KYZYL			0	94.5	51.72				1	0	63			Kyzyl																L.Haimberger	0
733	0-20000-0-47158	0	734	47158	1	GWANGJU AB			0	126.8	35.12				1	0	63			Seoul																L.Haimberger	0
734	0-20000-0-82099	0	735	82099	1	MACAPA (AERO)			0	-51.07	0.05				1	0	63			Macapa																L.Haimberger	0
735	0-20000-0-82532	0	736	82532	1	MANICORE (AERO)			0	-61.28	-5.82				1	0	63			Manicore																L.Haimberger	0
736	0-20000-0-83779	0	737	83779	1	MARTE (AERO)			0	-46.63	-23.5				1	0	63			Cruz Alta																L.Haimberger	0
737	0-20000-0-24959	0	738	24959	1	JAKUTSK			0	129.72	62.02				1	0	63			Markha																L.Haimberger	0
738	0-20000-0-22543	0	739	22543	1	ARHANGEL'SK (22543-0)			0	40.51	64.62				1	0	63			Arkhangelsk																L.Haimberger	0
739	0-20000-0-35229	0	740	35229	1	AKTOBE			0	57.22	50.26				1	0	63			Aqtobe																L.Haimberger	0
740	0-20000-0-34858	0	741	34858	1	DIVNOE			0	43.35	45.92				1	0	63			Divnoye																L.Haimberger	0
741	0-20000-0-10184	0	742	9184	1	GREIFSWALD			0	13.41	54.1				1	0	63			Greifswald																L.Haimberger	0
742	0-20000-0-43285	0	743	43285	1	MANGALORE/PANAMBUR			0	74.83	12.95				1	0	63			Mangaluru																L.Haimberger	0
743	0-20000-0-98433	0	744	98433	1	TANAY			0	121.37	14.57				1	0	63			Sampaloc																L.Haimberger	0
744	0-20000-0-29263	0	745	29263	1	ENISEJSK			0	92.2	58.45				1	0	63			Yeniseysk																L.Haimberger	0
745	0-20000-0-42314	0	746	42314	1	DIBRUGARH /MOHANBARI			0	95.02	27.48				1	0	63			Dibrugarh																L.Haimberger	0
746	0-20000-0-42809	0	747	42809	1	KOLKATA/DUM DUM			0	88.45	22.65				1	0	63			Barasat																L.Haimberger	0
747	0-20000-0-22271	0	748	22271	1	SHOJNA			0	44.17	67.88				1	0	63			Arkhangelsk																L.Haimberger	0
748	0-20000-0-42369	0	749	42369	1	LUCKNOW/AMAUSI			0	80.88	26.75				1	0	63			Lakhnau																L.Haimberger	0
749	0-20000-0-33008	0	750	33008	1	BREST (33008-1)			0	23.69	52.12				1	0	63			Brest																L.Haimberger	0
750	0-20000-0-30054	0	751	30054	1	VITIM			0	112.58	59.45				1	0	63			Lensk																L.Haimberger	0
751	0-20000-0-42027	0	752	42027	1	SRINAGAR (42027-0)			0	74.83	34.08				1	0	63			Srinagar																L.Haimberger	0
752	0-20000-0-38064	0	753	38064	1	Tasboget AMS			0	65.53	44.77				1	0	63			Tasbuget																L.Haimberger	0
753	0-20000-0-40430	0	754	40430	1	AL-MADINAH			0	39.7	24.55				1	0	63			Umm Lajj																L.Haimberger	0
754	0-20000-0-83525	0	755	83525	1	UBERLANDIA (AERO)			0	-48.22	-18.88				1	0	63			Uberlandia																L.Haimberger	0
755	0-20000-0-89859	0	756	89859	1	JANG BOGO			0	164.23	-74.62				1	0	63			None																L.Haimberger	0
756	0-20000-0-30935	0	757	30935	1	KRASNYJ CHIKOJ			0	108.75	50.37				1	0	63			Petrovsk-Zabaykalskiy																L.Haimberger	0
757	0-20000-0-17281	0	758	17281	1	DIYARBAKIR-BOLGE			0	40.2	37.9				1	0	63			Bismil																L.Haimberger	0
758	0-20000-0-15420	0	759	15420	1	BUCURESTI BANEASA			0	26.08	44.51				1	0	63			Voluntari																L.Haimberger	0
759	0-20000-0-12982	0	760	12982	1	SZEGED külterület			0	20.09	46.26				1	0	63			Szeged																L.Haimberger	0
760	0-20000-0-31873	0	761	31873	1	DAL'NERECHENSK			0	133.73	45.87				1	0	63			Dalnerechensk																L.Haimberger	0
761	0-20000-0-47122	0	762	47122	1	OSAN AB			0	127.03	37.08				1	0	63			Seoul																L.Haimberger	0
762	0-20000-0-21824	0	763	21824	1	TIKSI			0	128.92	71.58				1	0	63			None																L.Haimberger	0
763	0-620-2001-08536	0	764	8536	1	LISBOA/PORTELA			0	-9.13	38.77				1	0	63			Moscavide																L.Haimberger	0
764	0-20000-0-25703	0	765	25703	1	SEJMCHAN			0	152.42	62.92				1	0	63			Magadan																L.Haimberger	0
765	0-20000-0-17095	0	766	17095	1	ERZURUM BOLGE			0	41.25	39.91				1	0	63			Erzurum																L.Haimberger	0
766	0-20000-0-20046	0	767	20046	1	POLARGMO IM. E.T. KRENKELJA			0	58.06	80.63				1	0	63			None																L.Haimberger	0
767	0-20000-0-22845	0	768	22845	1	KARGOPOL'			0	38.93	61.51				1	0	63			Kargopol																L.Haimberger	0
768	0-20001-0-28225	0	769	28225	1	PERM' (28225-1)			0	56.2	57.96				1	0	63			Perm																L.Haimberger	0
769	0-20000-0-24688	0	770	24688	1	OJMJAKON			0	143.15	63.25				1	0	63			None																L.Haimberger	0
770	0-20000-0-27612	0	771	27612	1	MOSKVA VDNH			0	37.62	55.83				1	0	63			Moscow																L.Haimberger	0
771	0-20000-0-08495	0	772	8495	1	GIBRALTAR (8495-1)			0	-5.35	36.15				1	0	63			La Linea																L.Haimberger	0
772	0-20000-0-22113	0	773	22008	1	MURMANSK (22113-0)			0	33.04	68.96				1	0	63			Murmansk																L.Haimberger	0
773	0-20000-0-22820	0	774	22820	1	PETROZAVODSK			0	34.27	61.82				1	0	63			Petrozavodsk																L.Haimberger	0
774	0-20000-0-32618	0	775	32618	1	OSTROV BERINGA			0	165.98	55.2				1	0	63			None																L.Haimberger	0
775	0-20000-0-48650	0	776	48650	1	KUALA LUMPUR INTERNATIONAL AIRPORT (KLIA)			0	101.7	2.72				1	0	63			Sungai Pelek																L.Haimberger	0
776	0-20000-0-08383	0	777	8383	1	HUELVA			0	-6.91	37.28				1	0	63			Huelva																L.Haimberger	0
777	0-20000-0-26477	0	778	26477	1	VELIKIE LUKI			0	30.62	56.35				1	0	63			Velikie Luki																L.Haimberger	0
778	0-20000-0-32061	0	779	32061	1	ALEKSANDROVSK-SAHALINSKIJ			0	142.17	50.9				1	0	63			Aleksandrovsk-Sakhalinskiy																L.Haimberger	0
779	0-20000-0-30965	0	780	30965	1	BORZYA			0	116.52	50.4				1	0	63			Borzya																L.Haimberger	0
780	0-20000-0-16560	0	781	16560	1	DECIMOMANNU RDS			0	8.97	39.35				1	0	63			Assemini																L.Haimberger	0
781	0-20000-0-24944	0	782	24947	1	OLEKMINSK (24944-0)			0	120.42	60.4				1	0	63			Aldan																L.Haimberger	0
782	0-20000-0-47418	0	783	47418	1	KUSHIRO (47418-1)			0	144.44	42.95				1	0	63			Kushiro																L.Haimberger	0
783	0-20000-0-71908	0	784	71908	1	PRINCE GEORGE UA, BC			0	-122.79	53.9				1	0	63			Prince George																L.Haimberger	0
784	0-20001-0-37055	0	785	37055	1	MINERAL'NYE VODY (37055-1)			0	43.1	44.22				1	0	63			Mineralnyye Vody																L.Haimberger	0
785	0-20000-0-34247	0	786	34247	1	KALACH			0	41.05	50.42				1	0	63			Buturlinovka																L.Haimberger	0
786	0-20000-0-32098	0	787	32098	1	PORONAJSK			0	143.1	49.22				1	0	63			Poronaysk																L.Haimberger	0
787	0-20000-0-28275	0	788	28275	1	TOBOL'SK			0	68.25	58.15				1	0	63			Tobolsk																L.Haimberger	0
788	0-20000-0-23415	0	789	23415	1	PECHORA (23415-0)			0	57.1	65.12				1	0	63			Pechora																L.Haimberger	0
789	0-20000-0-11747	0	790	11747	1	PROSTEJOV			0	17.13	49.45				1	0	63			Prostejov																L.Haimberger	0
790	0-20000-0-23472	0	791	23472	1	TURUHANSK			0	87.99	65.79				1	0	63			Norilsk																L.Haimberger	0
791	0-20000-0-17220	0	792	17220	1	IZMIR/GUZELYALI			0	27.08	38.39				1	0	63			Izmir																L.Haimberger	0
792	0-20001-0-37259	0	793	37259	1	MAHACHKALA (37259-1)			0	47.5	43.0				1	0	63			Makhachkala																L.Haimberger	0
793	0-20000-0-24908	0	794	24908	1	VANAVARA			0	102.29	60.34				1	0	63			Kodinsk																L.Haimberger	0
794	0-20001-0-34731	0	795	34731	1	ROSTOV-NA-DONU (34731-1)			0	39.82	47.25				1	0	63			Aksay																L.Haimberger	0
795	0-20000-0-31168	0	796	31168	1	AYAN			0	138.15	56.45				1	0	63			Nikolayevsk-Na-Amure																L.Haimberger	0
796	0-20000-0-72376	0	797	72376	1	FLAGSTAFF, AZ			0	-111.82	35.23				1	0	63			Flagstaff																L.Haimberger	0
797	0-20000-0-72582	0	798	72582	1	ELKO, NV.			0	-115.74	40.86				1	0	63			Elko																L.Haimberger	0
798	0-20000-0-27707	0	799	27707	1	SUHINICHI			0	35.35	54.1				1	0	63			Sukhinichi																L.Haimberger	0
799	0-20000-0-27612	0	800	27713	1	MOSKVA VDNH			0	37.62	55.83				1	0	63			Dolgoprudnyy																L.Haimberger	0
800	0-20000-0-17130	0	801	17130	1	ANKARA BÖLGE			0	32.88	39.95				1	0	63			Ankara																L.Haimberger	0
801	0-20000-0-10954	0	802	10954	1	ALTENSTADT			0	10.87	47.83				1	0	63			Schongau																L.Haimberger	0
802	0-20000-0-32540	0	803	32540	1	PETROPAVLOVSK-KAMCHATSKIJ (32540-0)			0	158.58	53.08				1	0	63			Petropavlovsk-Kamchatskiy																L.Haimberger	0
803	0-20001-0-34172	0	804	34172	1	SARATOV (34172-1)			0	46.04	51.56				1	0	63			Saratov																L.Haimberger	0
804	0-20000-0-22217	0	805	22217	1	KANDALAKSHA			0	32.35	67.17				1	0	63			Kandalaksha																L.Haimberger	0
805	0-20000-0-16080	0	806	16080	1	MILANO LINATE RDS			0	9.28	45.46				1	0	63			San Donato Milanese																L.Haimberger	0
806	0-20000-0-31088	0	807	31088	1	OHOTSK			0	143.2	59.37				1	0	63			None																L.Haimberger	0
807	0-20000-0-23921	0	808	23921	1	IVDEL'			0	60.45	60.68				1	0	63			Ivdel																L.Haimberger	0
808	0-20000-0-07510	0	809	7510	1	BORDEAUX MERIGNAC			0	-0.69	44.83				1	0	63			Pessac																L.Haimberger	0
809	0-20000-0-21432	0	810	21432	1	OSTROV KOTEL'NYJ			0	137.87	76.0				1	0	63			None																L.Haimberger	0
810	0-20001-0-22522	0	811	22522	1	KEM'			0	34.65	64.95				1	0	63			Kem																L.Haimberger	0
811	0-20000-0-31369	0	812	31369	1	NIKOLAEVSK-NA-AMURE			0	140.69	53.15				1	0	63			Nikolayevsk-Na-Amure																L.Haimberger	0
812	0-20000-0-11520	0	813	11520	1	PRAHA-LIBUS			0	14.45	50.01				1	0	63			Prague																L.Haimberger	0
813	0-20000-0-22113	0	814	22113	1	MURMANSK (22113-0)			0	33.04	68.96				1	0	63			Murmansk																L.Haimberger	0
814	0-20000-0-17030	0	815	17030	1	SAMSUN			0	36.26	41.34				1	0	63			Samsun																L.Haimberger	0
815	0-20000-0-16716	0	816	16716	1	ATHINAI HELLINIKON			0	23.74	37.89				1	0	63			Ellinikon																L.Haimberger	0
816	0-20000-0-07645	0	817	7645	1	NIMES-COURBESSAC			0	4.41	43.86				1	0	63			Nimes																L.Haimberger	0
817	0-20000-0-25913	0	818	25913	1	MAGADAN			0	150.78	59.55				1	0	63			Magadan																L.Haimberger	0
818	0-20000-0-04089	0	819	4089	1	EGILSSTADIR			0	-14.4	65.28				1	0	63			Akureyri																L.Haimberger	0
819	0-20000-0-28722	0	820	28722	1	UFA-DIOMA			0	55.81	54.71				1	0	63			Ufa																L.Haimberger	0
820	0-20000-0-32389	0	821	32389	1	KLJUCHI			0	160.83	56.32				1	0	63			Yelizovo																L.Haimberger	0
821	0-20001-0-16045	0	822	16044	1	UDINE/RIVOLTO RDS			0	13.06	45.98				1	0	63			Udine																L.Haimberger	0
822	0-20000-0-72386	0	823	72388	1	LAS VEGAS/MCCARRAN, NV.			0	-115.17	36.08				1	0	63			Paradise																L.Haimberger	0
823	0-20000-0-95527	0	824	95527	1	MOREE AERO			0	149.85	-29.49				1	0	63			Tamworth																L.Haimberger	0
824	0-20000-0-47741	0	825	47741	1	MATSUE			0	133.07	35.46				1	0	63			Yasugi																L.Haimberger	0
825	0-20000-0-26781	0	826	26781	1	SMOLENSK			0	32.07	54.75				1	0	63			Smolensk																L.Haimberger	0
826	0-20000-0-13275	0	827	13275	1	BEOGRAD/KOSUTNJAK			0	20.42	44.77				1	0	63			Kaluderica																L.Haimberger	0
827	0-20000-0-60018	0	828	60018	1	TENERIFE-GUIMAR			0	-16.38	28.32				1	0	63			Candelaria																L.Haimberger	0
828	0-20000-0-35121	0	829	35121	1	ORENBURG			0	55.08	51.69				1	0	63			Sol-Iletsk																L.Haimberger	0
829	0-20000-0-03238	0	830	3238	1	ALBEMARLE			0	-1.88	55.02				1	0	63			Newburn																L.Haimberger	0
830	0-20000-0-08221	0	831	8221	1	MADRID/BARAJAS RS			0	-3.58	40.47				1	0	63			Coslada																L.Haimberger	0
831	0-20000-0-47600	0	832	47600	1	WAJIMA			0	136.9	37.39				1	0	63			Wajima																L.Haimberger	0
832	0-20000-0-45004	0	833	45004	1	KOWLOON (45004-0)			0	114.17	22.31				1	0	63			Shenzhen																L.Haimberger	0
833	0-20000-0-40179	0	834	40179	1	BET DAGAN			0	34.82	32.0				1	0	63			Azur																L.Haimberger	0
834	0-20001-0-04417	0	835	4417	1	GEOSUMMIT			0	-38.46	72.58				1	0	63			None																L.Haimberger	0
835	0-20000-0-16429	0	836	16429	1	TRAPANI BIRGI RDS			0	12.49	37.91				1	0	63			Paceco																L.Haimberger	0
836	0-20000-0-72672	0	837	72672	1	RIVERTON, WY.			0	-108.48	43.06				1	0	63			Rock Springs																L.Haimberger	0
837	0-20000-0-10618	0	838	10618	1	IDAR-OBERSTEIN			0	7.33	49.69				1	0	63			Idar-Oberstein																L.Haimberger	0
838	0-20000-0-12843	0	839	12843	1	BUDAPEST/PESTSZENTLORINC			0	19.18	47.43				1	0	63			Gyal																L.Haimberger	0
839	0-20000-0-85586	0	840	85586	1	SANTO DOMINGO (85586-0)			0	-71.61	-33.66				1	0	63			San Antonio																L.Haimberger	0
840	0-20000-0-91212	0	841	91212	1	WEATHER FORECAST OFFICE, GUAM, MARIANA IS.			0	144.79	13.48				1	0	63			None																L.Haimberger	0
841	0-20000-0-03354	0	842	3354	1	NOTTINGHAM, WATNALL			0	-1.25	53.01				1	0	63			Heanor																L.Haimberger	0
842	0-20000-0-16113	0	843	16113	1	CUNEO-LEVALDIGI RDS			0	7.61	44.54				1	0	63			Fossano																L.Haimberger	0
843	0-20000-0-16320	0	844	16320	1	BRINDISI RDS			0	17.96	40.66				1	0	63			Brindisi																L.Haimberger	0
844	0-20000-0-12425	0	845	12425	1	WROCLAW-STARACHOWICE			0	16.88	51.11				1	0	63			Wroclaw																L.Haimberger	0
845	0-20000-0-03918	0	846	3918	1	CASTOR BAY			0	-6.33	54.5				1	0	63			Lurgan																L.Haimberger	0
846	0-20000-0-47155	0	847	47155	1	CHANGWON			0	128.57	35.17				1	0	63			Hirado																L.Haimberger	0
847	0-20000-0-47401	0	848	47401	1	WAKKANAI			0	141.68	45.42				1	0	63			Wakkanai																L.Haimberger	0
848	0-20000-0-11952	0	849	11952	1	POPRAD-GANOVCE			0	20.32	49.03				1	0	63			Poprad																L.Haimberger	0
849	0-20000-0-72649	0	850	72649	1	CHANHASSEN, MN.			0	-93.56	44.85				1	0	63			Chanhassen																L.Haimberger	0
850	0-20000-0-07761	0	851	7761	1	AJACCIO			0	8.79	41.92				1	0	63			Ajaccio																L.Haimberger	0
851	0-20000-0-74560	0	852	74560	1	LINCOLN, IL.			0	-89.34	40.15				1	0	63			Lincoln																L.Haimberger	0
852	0-20000-0-12120	0	853	12120	1	LEBA			0	17.53	54.75				1	0	63			Lebork																L.Haimberger	0
853	0-20000-0-16754	0	854	16754	1	HERAKLEION (AIRPORT)			0	25.18	35.34				1	0	63			Nea Alikarnassos																L.Haimberger	0
854	0-20000-0-47102	0	855	47102	1	BAENGNYEONGDO			0	124.71	37.97				1	0	63			Seoul																L.Haimberger	0
855	0-20000-0-11035	0	856	11035	1	WIEN/HOHE WARTE (11035-1)			0	16.36	48.25				1	0	63			Vienna																L.Haimberger	0
856	0-20000-0-72634	0	857	72634	1	GAYLORD, MI.			0	-84.72	44.91				1	0	63			Traverse City																L.Haimberger	0
857	0-20000-0-08190	0	858	8190	1	BARCELONA SERVEI			0	2.12	41.38				1	0	63			Sant Just Desvern																L.Haimberger	0
858	0-20000-0-47582	0	859	47582	1	AKITA (47582-1)			0	140.1	39.72				1	0	63			Akita																L.Haimberger	0
859	0-20000-0-10035	0	860	10035	1	SCHLESWIG (10035-1)			0	9.55	54.53				1	0	63			Schleswig																L.Haimberger	0
860	0-20000-0-72440	0	861	72440	1	SPRINGFIELD/MUN., MO.			0	-93.4	37.23				1	0	63			Springfield																L.Haimberger	0
861	0-20000-0-01010	0	862	1010	1	ANDOYA (1010-1)			0	16.13	69.32				1	0	63			Harstad																L.Haimberger	0
862	0-20000-0-16622	0	863	16622	1	THESSALONIKI (AIRPORT)			0	22.97	40.53				1	0	63			Peraia																L.Haimberger	0
863	0-20000-0-47412	0	864	47412	1	SAPPORO			0	141.33	43.06				1	0	63			Ebetsu																L.Haimberger	0
864	0-20000-0-47169	0	865	47169	1	HEUKSANDO			0	125.45	34.69				1	0	63			Seoul																L.Haimberger	0
865	0-20000-0-10304	0	866	10304	1	MEPPEN			0	7.32	52.72				1	0	63			Meppen																L.Haimberger	0
866	0-20000-0-16546	0	867	16546	1	DECIMOMANNU RDS			0	8.97	39.35				1	0	63			Assemini																L.Haimberger	0
867	0-20000-0-10868	0	868	10868	1	MUENCHEN-OBERSCHLEISSHEIM			0	11.55	48.24				1	0	63			Ismaning																L.Haimberger	0
868	0-20000-0-12374	0	869	12374	1	LEGIONOWO			0	20.96	52.41				1	0	63			Legionowo																L.Haimberger	0
869	0-20000-0-72426	0	870	72426	1	WILMINGTON, OH.			0	-83.82	39.42				1	0	63			Wilmington																L.Haimberger	0
