	primary_id	primary_id_scheme	record_number	secondary_id	secondary_id_scheme	station_name	station_abbreviation	alternative_name	station_crs	longitude	latitude	local_gravity	start_date	end_date	station_type	platform_type	platform_sub_type	operating_institute	operating_territory	city	contact	role	observing_frequency	reporting_time	telecommunication_method	station_automation	measuring_system_model	measuring_system_id	observed_variables	comment	optional_data	bbox_min_longitude	bbox_max_longitude	bbox_min_latitude	bbox_max_latitude	metadata_contact	metadata_contact_role
0	0-20000-0-91491	0	1	['91491']	1	CHRISTMAS ISLAND (91491-0)			0	-157.17	1.72				1	0	63			None									[104, 105, 106, 107, 117]							L.Haimberger	0
1	0-20000-0-43364	0	2	['43364']	1	HUT BAY			0	92.55	10.58				1	0	63			Port Blair									[39, 106, 107, 117]							L.Haimberger	0
2	0-20000-0-24988	0	3	['24988']	1	ARKA			0	142.33	60.08				1	0	63			None									[104, 105, 106, 107, 117]							L.Haimberger	0
3	0-20000-0-71415	0	4	['71415']	1	CARIBOU POINT (AUT), NS			0	-62.68	45.76				1	0	63			New Glasgow									[104, 105, 106, 107, 117]							L.Haimberger	0
4	0-20000-0-94325	0	5	['94325']	1	ALI CURUNG			0	134.4	-21.0				1	0	63			Alice Springs									[104, 105, 106, 107, 117]							L.Haimberger	0
5	0-20000-0-62301	0	6	['62301']	1	SIDI BARRANI			0	25.9	31.62				1	0	63			Marsa Matruh									[104, 105, 106, 107, 117]							L.Haimberger	0
6	0-20000-0-67699	0	7	['67699']	1	MIMOSA			0	35.58	-16.08				1	0	63			Mulanje									[104, 105, 106, 107, 117]							L.Haimberger	0
7	0-20000-0-94237	0	8	['94237']	1	LARRIMAH			0	133.21	-15.57				1	0	63			Katherine									[104, 105, 106, 107, 117]							L.Haimberger	0
8		0	9	['20358']	1				0						1	0	63			None									[36, 38, 39, 85, 104, 105, 106, 107, 117]							L.Haimberger	0
9	0-20000-0-38318	0	10	['38317']	1	BAYYRKUM			0	68.12	42.1				1	0	63			Arys									[36, 38, 39, 85, 104, 105, 106, 107, 117]							L.Haimberger	0
10	0-20000-0-48920	0	11	['48920']	1	TRUONG SA			0	111.92	8.65				1	0	63			Phan Rang									[36, 38, 39, 85, 104, 105, 106, 107, 117]							L.Haimberger	0
11	0-20000-0-60515	0	12	['60515']	1	BOU-SAADA			0	4.2	35.33				1	0	63			Birin									[104, 105, 106, 107, 117]							L.Haimberger	0
12	0-20000-0-28696	0	13	['28696']	1	KALACINSK			0	74.61	55.02				1	0	63			Kalachinsk									[36, 38, 39, 85, 104, 105, 106, 107, 117]							L.Haimberger	0
13	0-20000-0-94715	0	14	['94715']	1	FORBES AIRPORT AWS			0	147.92	-33.36				1	0	63			Dubbo									[104, 105, 106, 107, 117]							L.Haimberger	0
14	0-20000-0-34186	0	15	['34186']	1	ERSHOV			0	48.3	51.37				1	0	63			Yershov									[36, 38, 39, 85, 104, 105, 106, 107, 117]							L.Haimberger	0
15	0-20000-0-74638	0	16	['74638']	1	MELROSE GUNNERY RANGE, NM.			0	-103.8	34.3				1	0	63			Portales									[104, 105, 106, 107, 117]							L.Haimberger	0
16	0-20000-0-41314	0	17	['41314']	1	THUMRAIT			0	54.02	17.68				1	0	63			Salalah									[36, 38, 39, 85, 104, 105, 106, 107, 117]							L.Haimberger	0
17	0-20000-0-48068	0	18	['48068']	1	PINLAUNG			0	96.77	20.13				1	0	63			Loikaw									[104, 105, 106, 107, 117]							L.Haimberger	0
18	0-20000-0-80423	0	19	['80423']	1	GUIRIA			0	-62.32	10.58				1	0	63			Point Fortin									[104, 105, 106, 107, 117]							L.Haimberger	0
19	0-20000-0-94474	0	20	['94464']	1	PUKATJA			0	132.18	-26.26				1	0	63			Alice Springs									[104, 105, 106, 107, 117]							L.Haimberger	0
20	0-20000-0-60200	0	21	['60200']	1	BOUARFA			0	-1.95	32.57				1	0	63			Nador									[104, 105, 106, 107, 117]							L.Haimberger	0
21	0-20000-0-32562	0	22	['32564']	1	BOL' SHERETZK			0	156.3	52.83				1	0	63			Yelizovo									[36, 38, 39, 85, 104, 105, 106, 107, 117]							L.Haimberger	0
22	0-20000-0-68104	0	23	['68104']	1	WALVIS BAY (PELICAN POINT)			0	14.43	-22.88				1	0	63			Walvis Bay									[36, 38, 39, 85, 104, 105, 106, 107, 117]							L.Haimberger	0
23	0-20000-0-40763	0	24	['40763']	1	KASHMAR			0	58.47	35.27				1	0	63			Neyshabur									[36, 38, 39, 85, 104, 105, 106, 107, 117]							L.Haimberger	0
24	0-20000-0-94356	0	25	['94356']	1	CHARTERS TOWERS AIRPORT			0	146.27	-20.05				1	0	63			Townsville									[104, 105, 106, 107, 117]							L.Haimberger	0
25	0-20000-0-41020	0	26	['41026']	1	JEDDAH (KING ABDUL AZIZ INT. AIRPORT)			0	39.18	21.7				1	0	63			Jiddah									[36, 38, 39, 85, 104, 105, 106, 107, 117]							L.Haimberger	0
26	0-20000-0-48461	0	27	['48461']	1	PHATTHAYA			0	100.87	12.92				1	0	63			Pattaya									[104, 105, 106, 107, 117]							L.Haimberger	0
27	0-20000-0-48089	0	28	['48089']	1	SHWEGYIN			0	96.87	17.92				1	0	63			Nyaunglebin									[104, 105, 106, 107, 117]							L.Haimberger	0
28	0-20000-0-67346	0	29	['67346']	1	CHANGALANE			0	32.18	-26.28				1	0	63			Matola									[36, 38, 39, 85, 104, 105, 106, 107, 117]							L.Haimberger	0
29	0-20000-0-38567	0	30	['38567']	1	NAVOI			0	65.35	40.13				1	0	63			Karmana									[36, 38, 39, 85, 104, 105, 106, 107, 117]							L.Haimberger	0
30	0-20000-0-94980	0	31	['94984']	1	FLINDERS ISLAND AIRPORT			0	148.0	-40.09				1	0	63			Launceston									[104, 105, 106, 107, 117]							L.Haimberger	0
31	0-20000-0-65465	0	32	['65465']	1	AXIM			0	-2.23	4.87				1	0	63			Axim									[104, 105, 106, 107, 117]							L.Haimberger	0
32	0-20000-0-28831	0	33	['28831']	1	BELORECK			0	58.36	53.97				1	0	63			Beloretsk									[36, 38, 39, 85, 104, 105, 106, 107, 117]							L.Haimberger	0
33	0-20000-0-62635	0	34	['62635']	1	ARBAT			0	36.97	19.83				1	0	63			Sawakin									[104, 105, 106, 107, 117]							L.Haimberger	0
34	0-20000-0-24871	0	35	['24871']	1	OHOTSKIJ PEREVOZ			0	135.5	61.87				1	0	63			None									[36, 38, 39, 85, 104, 105, 106, 107, 117]							L.Haimberger	0
35	0-20000-0-82825	0	36	['82825']	1	PORTO VELHO (AERO)			0	-63.92	-8.77				1	0	63			Porto Velho									[104, 105, 106, 107, 117]							L.Haimberger	0
36	0-20000-0-16723	0	37	['16723']	1	SAMOS (AIRPORT)			0	26.92	37.69				1	0	63			Soke									[104, 105, 106, 107, 117]							L.Haimberger	0
37	0-20000-0-26666	0	38	['26666']	1	VITEBSK			0	30.25	55.25				1	0	63			Haradok									[36, 38, 39, 85, 104, 105, 106, 107, 117]							L.Haimberger	0
38	0-20000-0-03966	0	39	['03965']	1	GURTEEN			0	-8.0	53.02				1	0	63			Tullamore									[104, 105, 106, 107, 117]							L.Haimberger	0
39	0-20000-0-95901	0	40	['94880']	1	MOUNT BAW BAW			0	146.27	-37.84				1	0	63			Pakenham									[104, 105, 106, 107, 117]							L.Haimberger	0
40	0-20000-0-31913	0	41	['31913']	1	TURIJ ROG			0	131.98	45.22				1	0	63			Mishan									[36, 38, 39, 85, 104, 105, 106, 107, 117]							L.Haimberger	0
41	0-20000-0-68114	0	42	['68108']	1	OMARURU			0	15.93	-21.42				1	0	63			Omaruru									[104, 105, 106, 107, 117]							L.Haimberger	0
42	0-20000-0-01262	0	43	['01262']	1	NORDOYAN LH			0	10.55	64.8				1	0	63			Steinkjer									[36, 38, 39, 85, 104, 105, 106, 107, 117]							L.Haimberger	0
43	0-20000-0-54725	0	44	['54725']	1	HUIMIN			0	117.53	37.5				1	0	63			Binzhou									[36, 38, 39, 85, 104, 105, 106, 107, 117]							L.Haimberger	0
44	0-20000-0-41571	0	45	['41570']	1	ISLAMABAD AIRPORT			0	73.1	33.62				1	0	63			Rawalpindi									[104, 105, 106, 107, 117]							L.Haimberger	0
45	0-20000-0-91590	0	46	['91590']	1	LA TONTOUTA (NLLE-CALEDONIE)			0	166.22	-22.02				1	0	63			Paita									[104, 105, 106, 107, 117]							L.Haimberger	0
46	0-20000-0-48004	0	47	['48004']	1	HKAMTI			0	95.7	26.0				1	0	63			Tuensang									[36, 38, 39, 85, 104, 105, 106, 107, 117]							L.Haimberger	0
47	0-20000-0-02417	0	48	['02417']	1	PALGRUNDEN			0	13.15	58.75				1	0	63			Lidkoping									[104, 105, 106, 107, 117]							L.Haimberger	0
48	0-20000-0-94376	0	49	['94376']	1	THANGOOL AIRPORT			0	150.57	-24.49				1	0	63			Gladstone									[104, 105, 106, 107, 117]							L.Haimberger	0
49	0-20000-0-72271	0	50	['72271']	1	TRUTH OR CONSEQUENCES, NM			0	-107.27	33.23				1	0	63			Las Cruces									[36, 38, 39, 85, 104, 105, 106, 107, 117]							L.Haimberger	0
50	0-20000-0-61980	0	51	['59310']	1	SAINT-DENIS/GILLOT (REUNION)			0	55.53	-20.89				1	0	63			Sainte-Marie									[104, 105, 106, 107, 117]							L.Haimberger	0
51	0-20000-0-22408	0	52	['22408']	1	KALEVALA			0	31.15	65.22				1	0	63			Kostomuksha									[36, 38, 39, 85, 104, 105, 106, 107, 117]							L.Haimberger	0
52	0-20000-0-67243	0	53	['67243']	1	ZUMBO			0	30.43	-15.62				1	0	63			Karoi									[104, 105, 106, 107, 117]							L.Haimberger	0
53	0-20000-0-64207	0	54	['64207']	1	MATADI			0	13.43	-5.8				1	0	63			Matadi									[36, 38, 39, 85, 104, 105, 106, 107, 117]							L.Haimberger	0
54	0-20000-0-65548	0	55	['62893']	1	MAN			0	-7.52	7.38				1	0	63			Man									[104, 105, 106, 107, 117]							L.Haimberger	0
55	0-20000-0-12120	0	56	['12152']	1	LEBA			0	17.53	54.75				1	0	63			Lebork									[104, 105, 106, 107, 117]							L.Haimberger	0
56	0-20000-0-94675	0	57	['94675']	1	ADELAIDE AIRPORT			0	138.52	-34.95				1	0	63			Adelaide									[104, 105, 106, 107, 117]							L.Haimberger	0
57	0-20000-0-31683	0	58	['31683']	1	TUMNIN			0	140.08	49.65				1	0	63			Vanino									[36, 38, 39, 85, 104, 105, 106, 107, 117]							L.Haimberger	0
58	0-20000-0-22887	0	59	['22887']	1	KOTLAS			0	46.69	61.24				1	0	63			Kotlas									[36, 38, 39, 85, 104, 105, 106, 107, 117]							L.Haimberger	0
59	0-20000-0-03002	0	60	['03007']	1	BALTASOUND NO 2			0	-0.86	60.75				1	0	63			Fraserburgh									[104, 105, 106, 107, 117]							L.Haimberger	0
60	0-20000-0-34845	0	61	['34845']	1	GORODOVIKOVSK			0	41.97	46.07				1	0	63			Gorodovikovsk									[104, 105, 106, 107, 117]							L.Haimberger	0
61	0-20000-0-64503	0	62	['64521']	1	MAYUMBA			0	10.65	-3.42				1	0	63			Tchibanga									[104, 105, 106, 107, 117]							L.Haimberger	0
62	0-20000-0-63985	0	63	['47314']	1	SEYCHELLES INTER. AIRPORT (RAWINSONDE STATION)			0	55.52	-4.68				1	0	63			Victoria									[104, 105, 106, 107, 117]							L.Haimberger	0
63		0	64	['72485']	1				0						1	0	63			Pahrump									[36, 38, 39, 85, 104, 105, 106, 107, 117]							L.Haimberger	0
64	0-20000-0-72241	0	65	['72241']	1	PORT ARTHUR/JEFFERSON CO., TX.			0	-94.02	29.95				1	0	63			Nederland									[36, 38, 39, 85, 104, 105, 106, 107, 117]							L.Haimberger	0
65	0-20000-0-38616	0	66	['38615']	1	KARA-SUU			0	72.9	40.7				1	0	63			Andijon									[36, 38, 39, 85, 104, 105, 106, 107, 117]							L.Haimberger	0
66	0-20000-0-95529	0	67	['94529']	1	MILES CONSTANCE STREET			0	150.18	-26.66				1	0	63			Toowoomba									[104, 105, 106, 107, 117]							L.Haimberger	0
67	0-20000-0-84018	0	68	['84013']	1	ESMERALDAS (TACHINA) AEROPUERTO			0	-79.63	0.98				1	0	63			Esmeraldas									[36, 38, 39, 85, 104, 105, 106, 107, 117]							L.Haimberger	0
68	0-20000-0-42484	0	69	['42484']	1	BALLIA			0	84.17	25.75				1	0	63			Ballia									[104, 105, 106, 107, 117]							L.Haimberger	0
69	0-20000-0-43422	0	70	['43422']	1	MAHA ILLUPPALLAMA			0	80.47	8.12				1	0	63			Anuradhapura									[104, 105, 106, 107, 117]							L.Haimberger	0
70	0-20000-0-64452	0	71	['64452']	1	M'POUYA			0	16.22	-2.62				1	0	63			Bolobo									[104, 105, 106, 107, 117]							L.Haimberger	0
71	0-20000-0-38911	0	72	['38911']	1	ATAMYRAT			0	65.2	37.83				1	0	63			Kerki									[36, 38, 39, 85, 104, 105, 106, 107, 117]							L.Haimberger	0
72	0-20000-0-94294	0	73	['94297']	1	TOWNSVILLE AERO			0	146.77	-19.25				1	0	63			Townsville									[104, 105, 106, 107, 117]							L.Haimberger	0
73	0-20000-0-03853	0	74	['03853']	1	YEOVILTON			0	-2.64	51.01				1	0	63			Yeovil									[36, 38, 39, 85, 104, 105, 106, 107, 117]							L.Haimberger	0
74	0-20000-0-63612	0	75	['47373']	1	LODWAR			0	35.59	3.12				1	0	63			Lodwar									[104, 105, 106, 107, 117]							L.Haimberger	0
75	0-20000-0-72330	0	76	['72330']	1	POPLAR BLUFF, MO.			0	-90.47	36.77				1	0	63			Poplar Bluff									[104, 105, 106, 107, 117]							L.Haimberger	0
76	0-20000-0-03039	0	77	['03039']	1	BEALACH NA BA NO 2			0	-5.69	57.42				1	0	63			Helensburgh									[104, 105, 106, 107, 117]							L.Haimberger	0
77	0-20000-0-02154	0	78	['02154']	1	VIDSEL			0	20.15	65.87				1	0	63			Boden									[36, 38, 39, 85, 104, 105, 106, 107, 117]							L.Haimberger	0
78	0-20000-0-78088	0	79	['78088']	1	COCKBURN TOWN, SAN SALVADOR (78088-0)			0	-74.53	24.05				1	0	63			Nassau									[36, 38, 39, 85, 104, 105, 106, 107, 117]							L.Haimberger	0
79	0-20000-0-91789	0	80	['91789']	1	NUKU'ALOFA			0	-175.18	-21.13				1	0	63			We									[104, 105, 106, 107, 117]							L.Haimberger	0
80		0	81	['94611']	1				0						1	0	63			Perth									[36, 38, 39, 85, 104, 105, 106, 107, 117]							L.Haimberger	0
81	0-20000-0-88903	0	82	['88903']	1	GRYTVIKEN,  SOUTH GEORGIA			0	-36.5	-54.28				1	0	63			None									[36, 38, 39, 85, 104, 105, 106, 107, 117]							L.Haimberger	0
82	0-20000-0-94402	0	83	['94402']	1	DENHAM			0	113.53	-25.93				1	0	63			Geraldton									[104, 105, 106, 107, 117]							L.Haimberger	0
83	0-20000-0-40718	0	84	['40718']	1	ANZALI			0	49.46	37.48				1	0	63			Bandar-E Anzali									[104, 105, 106, 107, 117]							L.Haimberger	0
84	0-20000-0-60355	0	85	['60355']	1	SKIKDA			0	6.9	36.88				1	0	63			Constantine									[36, 38, 39, 85, 104, 105, 106, 107, 117]							L.Haimberger	0
85	0-20000-0-74796	0	86	['76800']	1	AVON PARK GUNNERY RANGE, FL.			0	-81.33	27.65				1	0	63			Sebring									[36, 38, 39, 85, 104, 105, 106, 107, 117]							L.Haimberger	0
86	0-20000-0-30650	0	87	['30650']	1	ROMANOVKA			0	112.78	53.2				1	0	63			Chita									[36, 38, 39, 85, 104, 105, 106, 107, 117]							L.Haimberger	0
87	0-20000-0-94298	0	88	['94298']	1	MARION REEF			0	152.39	-19.1				1	0	63			Mackay									[104, 105, 106, 107, 117]							L.Haimberger	0
88	0-20000-0-12843	0	89	['12840']	1	BUDAPEST/PESTSZENTLORINC			0	19.18	47.43				1	0	63			Budapest									[104, 105, 106, 107, 117]							L.Haimberger	0
89	0-20000-0-68454	0	90	['68454']	1	UPINGTON			0	21.26	-28.41				1	0	63			Upington									[104, 105, 106, 107, 117]							L.Haimberger	0
90	0-20000-0-02432	0	91	['02432']	1	OREBRO			0	15.05	59.23				1	0	63			Orebro									[104, 105, 106, 107, 117]							L.Haimberger	0
91	0-20000-0-02679	0	92	['02599']	1	HOBURG A			0	18.15	56.92				1	0	63			Visby									[39, 106, 107, 117]							L.Haimberger	0
92	0-20000-0-30504	0	93	['30504']	1	TULUN			0	100.63	54.6				1	0	63			Tulun									[36, 38, 39, 85, 104, 105, 106, 107, 117]							L.Haimberger	0
93	0-20000-0-94861	0	94	['94861']	1	ECHUCA AERODROME			0	144.76	-36.16				1	0	63			Bendigo									[36, 38, 39, 85, 104, 105, 106, 107, 117]							L.Haimberger	0
94	0-20000-0-47765	0	95	['47765']	1	HIROSHIMA			0	132.46	34.4				1	0	63			Kaita									[104, 105, 106, 107, 117]							L.Haimberger	0
95	0-20000-0-48848	0	96	['48817']	1	DONG HOI			0	106.6	17.48				1	0	63			Dong Hoi									[104, 105, 106, 107, 117]							L.Haimberger	0
96	0-20000-0-61968	0	97	['59463']	1	ILES GLORIEUSES			0	47.29	-11.58				1	0	63			Dzaoudzi									[104, 105, 106, 107, 117]							L.Haimberger	0
97	0-20000-0-94550	0	98	['94550']	1	STANTHORPE LESLIE PARADE			0	151.93	-28.66				1	0	63			Warwick									[104, 105, 106, 107, 117]							L.Haimberger	0
98	0-20000-0-12345	0	99	['12345']	1	KOLO			0	18.66	52.2				1	0	63			Kolo									[104, 105, 106, 107, 117]							L.Haimberger	0
99	0-20000-0-17115	0	100	['17115']	1	BANDIRMA HAVALİMANI			0	27.97	40.32				1	0	63			Gonen									[36, 38, 39, 85, 104, 105, 106, 107, 117]							L.Haimberger	0
100	0-20000-0-23606	0	101	['23606']	1	UHTA			0	53.81	63.58				1	0	63			Ukhta									[36, 38, 39, 85, 104, 105, 106, 107, 117]							L.Haimberger	0
101	0-20000-0-04027	0	102	['04027']	1	ASGARDUR			0	-21.75	65.23				1	0	63			Reykjavik									[104, 105, 106, 107, 117]							L.Haimberger	0
102	0-20000-0-95721	0	103	['94720']	1	COWRA AIRPORT AWS			0	148.65	-33.84				1	0	63			Orange									[36, 38, 39, 85, 104, 105, 106, 107, 117]							L.Haimberger	0
103	0-20000-0-61809	0	104	['61809']	1	LABE			0	-12.3	11.32				1	0	63			Labe									[104, 105, 106, 107, 117]							L.Haimberger	0
104	0-20000-0-87166	0	105	['87166']	1	RESISTENCIA AERO			0	-59.05	-27.44				1	0	63			Corrientes									[104, 105, 106, 107, 117]							L.Haimberger	0
105	0-20000-0-64706	0	106	['64706']	1	MOUNDOU			0	16.07	8.57				1	0	63			Moundou									[104, 105, 106, 107, 117]							L.Haimberger	0
106		0	107	['31306']	1				0						1	0	63			Zeya									[39, 106, 107, 117]							L.Haimberger	0
107	0-20000-0-27083	0	108	['27083']	1	OPARINO			0	48.28	59.85				1	0	63			Luza									[36, 38, 39, 85, 104, 105, 106, 107, 117]							L.Haimberger	0
108	0-20000-0-13583	0	109	['13583']	1	BITOLA			0	21.37	41.05				1	0	63			Bitola									[36, 38, 39, 85, 104, 105, 106, 107, 117]							L.Haimberger	0
109	0-20000-0-07635	0	110	['07635']	1	CARCASSONNE			0	2.3	43.22				1	0	63			Carcassonne									[36, 38, 39, 85, 104, 105, 106, 107, 117]							L.Haimberger	0
110	0-20000-0-33526	0	111	['33526']	1	Ivano-Frankivsk			0	24.69	48.89				1	0	63			Kalush									[36, 38, 39, 85, 104, 105, 106, 107, 117]							L.Haimberger	0
111	0-20000-0-91583	0	112	['91583']	1	POINDIMIE (NLLE-CALEDONIE)			0	165.33	-20.93				1	0	63			Paita									[104, 105, 106, 107, 117]							L.Haimberger	0
112	0-20000-0-41519	0	113	['41519']	1	CHILLAS			0	74.1	35.42				1	0	63			Hunza									[104, 105, 106, 107, 117]							L.Haimberger	0
113	0-20000-0-40769	0	114	['40769']	1	ARAK (40769-0)			0	49.78	34.07				1	0	63			Arak									[36, 38, 39, 85, 104, 105, 106, 107, 117]							L.Haimberger	0
114	0-20000-0-94628	0	115	['94628']	1	NEWDEGATE RESEARCH STATION			0	118.84	-33.11				1	0	63			Albany									[36, 38, 39, 85, 104, 105, 106, 107, 117]							L.Haimberger	0
115	0-20000-0-37085	0	116	['37085']	1	KOCHUBEJ			0	46.55	44.4				1	0	63			Kizlyar									[104, 105, 106, 107, 117]							L.Haimberger	0
116	0-20000-0-06069	0	117	['06062']	1	FLYVESTATION KARUP			0	9.11	56.29				1	0	63			Skive									[104, 105, 106, 107, 117]							L.Haimberger	0
117	0-20000-0-17084	0	118	['17084']	1	CORUM			0	34.94	40.55				1	0	63			Corum									[104, 105, 106, 107, 117]							L.Haimberger	0
118	0-20000-0-63170	0	119	['63170']	1	HARGEISA			0	44.08	9.5				1	0	63			Hargeysa									[36, 38, 39, 85, 104, 105, 106, 107, 117]							L.Haimberger	0
119	0-454-2-AWSLUCHENZA	0	120	['67793']	1	LUCHENZA			0	35.29	-16.01				1	0	63			Luchenza									[104, 105, 106, 107, 117]							L.Haimberger	0
120	0-20000-0-61017	0	121	['60017']	1	BILMA			0	12.92	18.68				1	0	63			Agadez									[104, 105, 106, 107, 117]							L.Haimberger	0
121	0-20000-0-60770	0	122	['60046']	1	MEDENINE			0	10.48	33.35				1	0	63			Tatawin									[104, 105, 106, 107, 117]							L.Haimberger	0
122	0-20000-0-60566	0	123	['60951']	1	GHARDAIA			0	3.8	32.4				1	0	63			Warqla									[104, 105, 106, 107, 117]							L.Haimberger	0
123	0-20000-0-41898	0	124	['41898']	1	SERAJGONJ			0	89.7	24.45				1	0	63			Sirajganj									[104, 105, 106, 107, 117]							L.Haimberger	0
124	0-20000-0-43354	0	125	['43354']	1	PUNALUR			0	76.92	9.0				1	0	63			Punalur									[36, 38, 39, 85, 104, 105, 106, 107, 117]							L.Haimberger	0
125	0-20000-0-43258	0	126	['43258']	1	SHIMOGA			0	75.63	13.93				1	0	63			Shimoga									[36, 38, 39, 85, 104, 105, 106, 107, 117]							L.Haimberger	0
126	0-20000-0-64453	0	127	['64471']	1	DJAMBALA			0	14.77	-2.53				1	0	63			Gamboma									[104, 105, 106, 107, 117]							L.Haimberger	0
127	0-20000-0-26544	0	128	['26544']	1	DAUGAVPILS			0	26.62	55.87				1	0	63			Daugavpils									[36, 38, 39, 85, 104, 105, 106, 107, 117]							L.Haimberger	0
128	0-20000-0-47742	0	129	['47742']	1	MATSUE			0	133.07	35.46				1	0	63			Sakaiminato									[104, 105, 106, 107, 117]							L.Haimberger	0
129	0-20000-0-96559	0	130	['96559']	1	SINTANG			0	111.53	0.12				1	0	63			Sri Aman									[104, 105, 106, 107, 117]							L.Haimberger	0
130	0-20000-0-26124	0	131	['26124']	1	LAANE-NIGULA			0	23.82	58.95				1	0	63			Haapsalu									[36, 38, 39, 85, 104, 105, 106, 107, 117]							L.Haimberger	0
131	0-20000-0-83646	0	132	['83646']	1	CACHOEIRO ITAPEMIRIM			0	-41.1	-20.85				1	0	63			Cachoeiro De Itapemirim									[104, 105, 106, 107, 117]							L.Haimberger	0
132	0-20000-0-94365	0	133	['94365']	1	PROSERPINE AIRPORT			0	148.56	-20.49				1	0	63			Bowen									[104, 105, 106, 107, 117]							L.Haimberger	0
133	0-20000-0-41947	0	134	['41947']	1	KHULNA			0	89.53	22.78				1	0	63			Khulna									[104, 105, 106, 107, 117]							L.Haimberger	0
134	0-20000-0-62671	0	135	['62671']	1	TOKAR			0	37.73	18.43				1	0	63			Tawkar									[104, 105, 106, 107, 117]							L.Haimberger	0
135	0-20000-0-68338	0	136	['68338']	1	VRYBURG			0	24.65	-26.95				1	0	63			Vryburg									[104, 105, 106, 107, 117]							L.Haimberger	0
136	0-20000-0-61976	0	137	['59439']	1	SERGE-FROLOW (ILE TROMELIN)			0	54.52	-15.89				1	0	63			Antalaha									[104, 105, 106, 107, 117]							L.Haimberger	0
137	0-20000-0-96011	0	138	['95491']	1	BANDA ACEH/BLANG BINTANG			0	95.42	5.52				1	0	63			Banda Aceh									[104, 105, 106, 107, 117]							L.Haimberger	0
138	0-20000-0-60015	0	139	['60015']	1	TENERIFE-GUIMAR			0	-16.38	28.32				1	0	63			Santa Cruz De Tenerife									[104, 105, 106, 107, 117]							L.Haimberger	0
139	0-20000-0-08202	0	140	['08202']	1	SALAMANCA/MATACAN			0	-5.5	40.96				1	0	63			Santa Marta De Tormes									[36, 38, 39, 85, 104, 105, 106, 107, 117]							L.Haimberger	0
140	0-20000-0-96935	0	141	['95274']	1	JUANDA SURABAYA			0	112.78	-7.37				1	0	63			Waru									[104, 105, 106, 107, 117]							L.Haimberger	0
141	0-20000-0-41944	0	142	['41944']	1	CHITTAGONG (AMBAGAN)			0	91.82	22.35				1	0	63			Raozan									[39, 106, 107, 117]							L.Haimberger	0
142	0-20000-0-60566	0	143	['58594']	1	GHARDAIA			0	3.8	32.4				1	0	63			Warqla									[104, 105, 106, 107, 117]							L.Haimberger	0
143	0-20000-0-17060	0	144	['17060']	1	ISTANBUL BOLGE (KARTAL)			0	29.16	40.91				1	0	63			Istanbul									[104, 105, 106, 107, 117]							L.Haimberger	0
144	0-20000-0-43009	0	145	['43009']	1	AHMADNAGAR			0	74.8	19.08				1	0	63			Ahmadnagar									[104, 105, 106, 107, 117]							L.Haimberger	0
145	0-20000-0-71739	0	146	['71739']	1	TIMMINS VICTOR POWER A, ONT			0	-81.38	48.57				1	0	63			Timmins									[104, 105, 106, 107, 117]							L.Haimberger	0
146	0-20000-0-72651	0	147	['72651']	1	SIOUX FALLS/FOSS FIELD, SD.			0	-96.73	43.58				1	0	63			Sioux Falls									[36, 38, 39, 85, 104, 105, 106, 107, 117]							L.Haimberger	0
147	0-20000-0-61233	0	148	['61251']	1	NARA (61233-0)			0	-7.28	15.17				1	0	63			Nara									[104, 105, 106, 107, 117]							L.Haimberger	0
148	0-20000-0-29576	0	149	['29576']	1	UJAR			0	94.31	55.82				1	0	63			Uyar									[36, 38, 39, 85, 104, 105, 106, 107, 117]							L.Haimberger	0
149	0-20000-0-64751	0	150	['64751']	1	ATI			0	18.32	13.22				1	0	63			Ati									[104, 105, 106, 107, 117]							L.Haimberger	0
150	0-20000-0-41396	0	151	['41396']	1	SEIYOUN			0	48.95	15.98				1	0	63			Sayyan									[104, 105, 106, 107, 117]							L.Haimberger	0
151	0-20000-0-60360	0	152	['58494']	1	ANNABA			0	7.82	36.83				1	0	63			Tabarqah									[104, 105, 106, 107, 117]							L.Haimberger	0
152	0-20000-0-94955	0	153	['94955']	1	SHEFFIELD SCHOOL FARM			0	146.32	-41.39				1	0	63			Burnie									[104, 105, 106, 107, 117]							L.Haimberger	0
153	0-20000-0-67591	0	154	['67591']	1	NKHOTA KOTA			0	34.27	-12.92				1	0	63			Nkhotakota									[104, 105, 106, 107, 117]							L.Haimberger	0
154	0-20000-0-10136	0	155	['10136']	1	NORDHOLZ (FLUGPLATZ)			0	8.66	53.76				1	0	63			Cuxhaven									[39, 106, 107, 117]							L.Haimberger	0
155	0-20000-0-16749	0	156	['16749']	1	RHODES (AIRPORT)			0	28.09	36.4				1	0	63			Ialisos									[36, 38, 39, 85, 104, 105, 106, 107, 117]							L.Haimberger	0
156	0-20000-0-97570	0	157	['97570']	1	SERUI/SUJARWO CONDRO NEGORO			0	136.24	-1.88				1	0	63			Biak									[104, 105, 106, 107, 117]							L.Haimberger	0
157	0-20000-0-37575	0	158	['37575']	1	ZAKATALA			0	46.65	41.67				1	0	63			Zaqatala									[36, 38, 39, 85, 104, 105, 106, 107, 117]							L.Haimberger	0
158	0-20000-0-82392	0	159	['82392']	1	SOBRAL (82392-0)			0	-40.35	-3.7				1	0	63			Sobral									[104, 105, 106, 107, 117]							L.Haimberger	0
159	0-20000-0-28676	0	160	['28679']	1	PETROPAVLOVSK (28676-0)			0	69.12	54.79				1	0	63			Petropavl									[36, 38, 39, 85, 104, 105, 106, 107, 117]							L.Haimberger	0
160	0-20000-0-63333	0	161	['63531']	1	COMBOLCHA			0	39.73	11.12				1	0	63			Kembolcha									[104, 105, 106, 107, 117]							L.Haimberger	0
161	0-20000-0-82331	0	162	['82331']	1	MANAUS (AERO)			0	-59.98	-3.15				1	0	63			Manaus									[39, 106, 107, 117]							L.Haimberger	0
162	0-20000-0-33261	0	163	['33261']	1	Konotop			0	33.19	51.24				1	0	63			Konotop									[36, 38, 39, 85, 104, 105, 106, 107, 117]							L.Haimberger	0
163	0-20000-0-48300	0	164	['48300']	1	MAE HONG SON			0	97.98	19.3				1	0	63			Loikaw									[36, 38, 39, 85, 104, 105, 106, 107, 117]							L.Haimberger	0
164	0-20000-0-64971	0	165	['64971']	1	KRIBI			0	9.9	2.95				1	0	63			Kribi									[104, 105, 106, 107, 117]							L.Haimberger	0
165	0-20000-0-04242	0	166	['04242']	1	SIORALIK			0	-52.55	65.02				1	0	63			Nuuk									[104, 105, 106, 107, 117]							L.Haimberger	0
166	0-20000-0-37009	0	167	['37009']	1	DZHUBGA			0	38.72	44.33				1	0	63			Novomikhaylovskiy									[104, 105, 106, 107, 117]							L.Haimberger	0
167	0-20000-0-48564	0	168	['48564']	1	PHUKET			0	98.4	7.88				1	0	63			Phuket									[104, 105, 106, 107, 117]							L.Haimberger	0
168	0-20000-0-68212	0	169	['68212']	1	MARIENTAL			0	17.87	-24.5				1	0	63			Mariental									[104, 105, 106, 107, 117]							L.Haimberger	0
169	0-20000-0-07257	0	170	['07257']	1	AVORD			0	2.64	47.05				1	0	63			Bourges									[104, 105, 106, 107, 117]							L.Haimberger	0
170	0-20000-0-78584	0	171	['78584']	1	BELIZE/PHILLIP GOLDSTON INTL. AIRPORT			0	-88.3	17.53				1	0	63			Belize									[36, 38, 39, 85, 104, 105, 106, 107, 117]							L.Haimberger	0
171	0-20000-0-41494	0	172	['42601']	1	SOCOTRA			0	53.9	12.63				1	0	63			Bereda									[36, 38, 39, 85, 104, 105, 106, 107, 117]							L.Haimberger	0
172	0-20000-0-42349	0	173	['42349']	1	TONK			0	75.75	26.17				1	0	63			Tonk									[104, 105, 106, 107, 117]							L.Haimberger	0
173	0-20000-0-83309	0	174	['83309']	1	DIAMANTINO			0	-56.45	-14.4				1	0	63			Diamantino									[39, 106, 107, 117]							L.Haimberger	0
174	0-20000-0-40879	0	175	['40879']	1	IRANSHAHR			0	60.72	27.23				1	0	63			Iranshahr									[36, 38, 39, 85, 104, 105, 106, 107, 117]							L.Haimberger	0
175	0-20000-0-40602	0	176	['40602']	1	RABIAH			0	42.1	36.8				1	0	63			Sinjar									[104, 105, 106, 107, 117]							L.Haimberger	0
176	0-20000-0-15470	0	177	['15470']	1	ROSIORII DE VEDE			0	24.98	44.11				1	0	63			Rosiori De Vede									[36, 38, 39, 85, 104, 105, 106, 107, 117]							L.Haimberger	0
177	0-20000-0-94332	0	178	['94331']	1	MOUNT ISA AERO			0	139.49	-20.68				1	0	63			Mount Isa									[36, 38, 39, 85, 104, 105, 106, 107, 117]							L.Haimberger	0
178	0-20000-0-12992	0	179	['12992']	1	BEKESCSABA			0	21.17	46.68				1	0	63			Bekescsaba									[36, 38, 39, 85, 104, 105, 106, 107, 117]							L.Haimberger	0
179	0-20000-0-42871	0	180	['42871']	1	GONDIA			0	80.2	21.47				1	0	63			Balaghat									[36, 38, 39, 85, 104, 105, 106, 107, 117]							L.Haimberger	0
180	0-20000-0-64753	0	181	['64753']	1	FAYA			0	19.17	18.0				1	0	63			Faya									[104, 105, 106, 107, 117]							L.Haimberger	0
181	0-20000-0-72263	0	182	['72263']	1	SAN ANGELO/MATHIS, TX.			0	-100.5	31.37				1	0	63			San Angelo									[36, 38, 39, 85, 104, 105, 106, 107, 117]							L.Haimberger	0
182	0-20000-0-64556	0	183	['64556']	1	MAKOKOU			0	12.87	0.57				1	0	63			Makokou									[104, 105, 106, 107, 117]							L.Haimberger	0
183	0-20000-0-72638	0	184	['72638']	1	HOUGHTON LAKE/ROSCOMMON COUNTY,  MI.			0	-84.68	44.37				1	0	63			Cadillac									[36, 38, 39, 85, 104, 105, 106, 107, 117]							L.Haimberger	0
184	0-20000-0-85041	0	185	['85041']	1	COBIJA			0	-68.78	-11.03				1	0	63			Cobija									[36, 38, 39, 85, 104, 105, 106, 107, 117]							L.Haimberger	0
185	0-20000-0-60318	0	186	['60318']	1	Tétouan			0	-5.33	35.59				1	0	63			Tetouan									[36, 38, 39, 85, 104, 105, 106, 107, 117]							L.Haimberger	0
186	0-20000-0-61075	0	187	['59534']	1	BIRNI-N'KONNI			0	5.25	13.8				1	0	63			Illela									[104, 105, 106, 107, 117]							L.Haimberger	0
187	0-20000-0-60511	0	188	['60510']	1	TIARET			0	1.47	35.35				1	0	63			Sidi Ali									[104, 105, 106, 107, 117]							L.Haimberger	0
188		0	189	['23077']	1				0						1	0	63			Dudinka									[36, 38, 39, 85, 104, 105, 106, 107, 117]							L.Haimberger	0
189	0-20000-0-94665	0	190	['94665']	1	MAITLAND			0	137.67	-34.37				1	0	63			Gawler									[36, 38, 39, 85, 104, 105, 106, 107, 117]							L.Haimberger	0
190	0-20000-0-94755	0	191	['94755']	1	CAMDEN AIRPORT AWS			0	150.69	-34.04				1	0	63			Wollongong									[36, 38, 39, 85, 104, 105, 106, 107, 117]							L.Haimberger	0
191	0-20000-0-78982	0	192	['78982']	1	QUEEN BEATRIX AIRPORT, ARUBA			0	-70.02	12.5				1	0	63			Oranjestad									[36, 38, 39, 85, 104, 105, 106, 107, 117]							L.Haimberger	0
192	0-20000-0-95869	0	193	['94869']	1	DENILIQUIN AIRPORT AWS			0	144.95	-35.56				1	0	63			Bendigo									[36, 38, 39, 85, 104, 105, 106, 107, 117]							L.Haimberger	0
193	0-20000-0-27507	0	194	['27507']	1	GAGARIN			0	35.03	55.52				1	0	63			Gzhatsk									[36, 38, 39, 85, 104, 105, 106, 107, 117]							L.Haimberger	0
194	0-20000-0-47025	0	195	['47025']	1	KIMCHAEK			0	129.2	40.67				1	0	63			Helong									[104, 105, 106, 107, 117]							L.Haimberger	0
195	0-20000-0-94202	0	196	['94202']	1	BIDYADANGA			0	121.78	-18.68				1	0	63			Broome									[36, 38, 39, 85, 104, 105, 106, 107, 117]							L.Haimberger	0
196	0-20000-0-64170	0	197	['64170']	1	WALIKALE			0	27.0	-1.42				1	0	63			Kindu									[104, 105, 106, 107, 117]							L.Haimberger	0
197	0-20000-0-16190	0	198	['16190']	1	ANCONA			0	13.53	43.61				1	0	63			Ancona									[36, 38, 39, 85, 104, 105, 106, 107, 117]							L.Haimberger	0
198	0-20000-0-65273	0	199	['65273']	1	IKOM			0	8.7	5.97				1	0	63			Ikom									[104, 105, 106, 107, 117]							L.Haimberger	0
199	0-20000-0-82024	0	200	['82024']	1	BOA VISTA (AERO)			0	-60.7	2.83				1	0	63			Boa Vista									[104, 105, 106, 107, 117]							L.Haimberger	0
200	0-20000-0-43042	0	201	['43042']	1	BHAWANIPATNA			0	83.18	19.92				1	0	63			Bhawanipatna									[104, 105, 106, 107, 117]							L.Haimberger	0
201	0-20000-0-84782	0	202	['84782']	1	TACNA			0	-70.27	-18.05				1	0	63			Tacna									[36, 38, 39, 85, 104, 105, 106, 107, 117]							L.Haimberger	0
202	0-20000-0-91665	0	203	['91665']	1	MATEI			0	-179.87	-16.68				1	0	63			None									[36, 38, 39, 85, 104, 105, 106, 107, 117]							L.Haimberger	0
203	0-20000-0-78061	0	204	['78061']	1	WEST END, GRAND BAHAMA			0	-78.97	26.7				1	0	63			Freeport									[104, 105, 106, 107, 117]							L.Haimberger	0
204	0-20000-0-71780	0	205	['71780']	1	SHERINGHAM POINT, BC			0	-123.92	48.38				1	0	63			Victoria									[104, 105, 106, 107, 117]							L.Haimberger	0
205	0-20000-0-60402	0	206	['60400']	1	BEJAIA-AEROPORT			0	5.07	36.72				1	0	63			Tazmalt									[36, 38, 39, 85, 104, 105, 106, 107, 117]							L.Haimberger	0
206	0-20000-0-62419	0	207	['62419']	1	ABU SIMBEL			0	31.61	22.38				1	0	63			Aswan									[36, 38, 39, 85, 104, 105, 106, 107, 117]							L.Haimberger	0
207	0-20000-0-40608	0	208	['40608']	1	MOSUL			0	43.15	36.32				1	0	63			Tall Kayf									[36, 38, 39, 85, 104, 105, 106, 107, 117]							L.Haimberger	0
208	0-20000-0-97310	0	209	['97310']	1	LARANTUKA/GEWAYANTANA			0	123.0	-8.28				1	0	63			Maumere									[104, 105, 106, 107, 117]							L.Haimberger	0
209	0-20000-0-84202	0	210	['84202']	1	MILAGRO			0	-79.6	-2.12				1	0	63			Yaguachi									[36, 38, 39, 85, 104, 105, 106, 107, 117]							L.Haimberger	0
210	0-20000-0-59158	0	211	['59158']	1	TAIZHONG			0	120.68	24.15				1	0	63			Taichung									[104, 105, 106, 107, 117]							L.Haimberger	0
211	0-20000-0-37905	0	212	['37905']	1	BEYLAGAN AERODROME			0	47.75	39.77				1	0	63			Parsabad									[104, 105, 106, 107, 117]							L.Haimberger	0
212	0-20000-0-40552	0	213	['40552']	1	JAL ALIYAH			0	47.58	29.62				1	0	63			Abadan									[104, 105, 106, 107, 117]							L.Haimberger	0
213	0-20000-0-71902	0	214	['71902']	1	NAIN A, NFLD			0	-61.68	56.55				1	0	63			None									[36, 38, 39, 85, 104, 105, 106, 107, 117]							L.Haimberger	0
214	0-20000-0-01332	0	215	['01334']	1	FJAERLAND-BREMUSEET			0	6.76	61.42				1	0	63			Bergen									[36, 38, 39, 85, 104, 105, 106, 107, 117]							L.Haimberger	0
215	0-20000-0-65357	0	216	['65357']	1	KARA			0	1.17	9.55				1	0	63			Kara									[104, 105, 106, 107, 117]							L.Haimberger	0
216	0-20000-0-47675	0	217	['47675']	1	OSHIMA			0	139.36	34.75				1	0	63			Ito									[36, 38, 39, 85, 104, 105, 106, 107, 117]							L.Haimberger	0
217	0-20000-0-12500	0	218	['12500']	1	JELENIA GORA			0	15.79	50.9				1	0	63			Jelenia Gora									[36, 38, 39, 85, 104, 105, 106, 107, 117]							L.Haimberger	0
218	0-20000-0-08001	0	219	['07001']	1	LA CORUNA			0	-8.42	43.37				1	0	63			A Coruna									[36, 38, 39, 85, 104, 105, 106, 107, 117]							L.Haimberger	0
219	0-20000-0-51467	0	220	['51467']	1	BALGUNTAY			0	86.33	42.8				1	0	63			Korla									[104, 105, 106, 107, 117]							L.Haimberger	0
220	0-20000-0-94337	0	221	['94337']	1	JULIA CREEK AIRPORT			0	141.72	-20.67				1	0	63			Mount Isa									[36, 38, 39, 85, 104, 105, 106, 107, 117]							L.Haimberger	0
221	0-20000-0-62809	0	222	['62809']	1	BABANUSA			0	27.82	11.33				1	0	63			Babanusah									[104, 105, 106, 107, 117]							L.Haimberger	0
222	0-20000-0-94700	0	223	['94700']	1	HILLSTON AIRPORT			0	145.53	-33.49				1	0	63			Griffith									[104, 105, 106, 107, 117]							L.Haimberger	0
223	0-20000-0-87328	0	224	['87328']	1	VILLA DOLORES AERO			0	-65.15	-31.95				1	0	63			Alta Gracia									[104, 105, 106, 107, 117]							L.Haimberger	0
224	0-20000-0-94732	0	225	['94732']	1	GULGONG POST OFFICE			0	149.53	-32.36				1	0	63			Goulburn									[36, 38, 39, 85, 104, 105, 106, 107, 117]							L.Haimberger	0
225	0-20000-0-40377	0	226	['40377']	1	VILJUJSK			0	121.62	63.78				1	0	63			None									[104, 105, 106, 107, 117]							L.Haimberger	0
226	0-20000-0-98440	0	227	['98440']	1	DAET			0	122.98	14.12				1	0	63			Daet									[104, 105, 106, 107, 117]							L.Haimberger	0
227	0-20000-0-87509	0	228	['87509']	1	SAN RAFAEL AERO			0	-68.4	-34.59				1	0	63			San Rafael									[36, 38, 39, 85, 104, 105, 106, 107, 117]							L.Haimberger	0
228	0-20000-0-47576	0	229	['47576']	1	MUTSU			0	141.21	41.28				1	0	63			Mutsu									[104, 105, 106, 107, 117]							L.Haimberger	0
229	0-20000-0-48985	0	230	['48985']	1	KAMPOT			0	104.18	10.6				1	0	63			Kampot									[36, 38, 39, 85, 104, 105, 106, 107, 117]							L.Haimberger	0
230	0-20000-0-67869	0	231	['67893']	1	KADOMA			0	29.88	-18.32				1	0	63			Kadoma									[104, 105, 106, 107, 117]							L.Haimberger	0
231	0-20000-0-07500	0	232	['07500']	1	LEGE-CAP FERRET			0	-1.25	44.63				1	0	63			Arcachon									[36, 38, 39, 85, 104, 105, 106, 107, 117]							L.Haimberger	0
232	0-20000-0-38886	0	233	['38886']	1	TEDZHEN			0	60.52	37.38				1	0	63			Kaka									[36, 38, 39, 85, 104, 105, 106, 107, 117]							L.Haimberger	0
233	0-20000-0-40110	0	234	['40110']	1	DAHR BAIDAR			0	35.77	33.82				1	0	63			Jazzin									[36, 38, 39, 85, 104, 105, 106, 107, 117]							L.Haimberger	0
234	0-20000-0-65306	0	235	['62413']	1	KANDI			0	2.93	11.13				1	0	63			Kandi									[104, 105, 106, 107, 117]							L.Haimberger	0
235	0-20000-0-41700	0	236	['41700']	1	BAHAWALPUR			0	71.78	29.4				1	0	63			Bahawalpur									[36, 38, 39, 85, 104, 105, 106, 107, 117]							L.Haimberger	0
236	0-20000-0-83550	0	237	['83550']	1	SAO MATEUS (83550-0)			0	-39.85	-18.7				1	0	63			Sao Mateus									[36, 38, 39, 85, 104, 105, 106, 107, 117]							L.Haimberger	0
237	0-20000-0-70174	0	238	['70174']	1	BETTLES			0	-151.52	66.92				1	0	63			College									[36, 38, 39, 85, 104, 105, 106, 107, 117]							L.Haimberger	0
238	0-20000-0-13183	0	239	['13183']	1	VRSAC			0	21.32	45.15				1	0	63			Vrsac									[104, 105, 106, 107, 117]							L.Haimberger	0
239	0-20000-0-82476	0	240	['82476']	1	CAXIAS (82476-0)			0	-43.35	-4.87				1	0	63			Caxias									[36, 38, 39, 85, 104, 105, 106, 107, 117]							L.Haimberger	0
240	0-20000-0-97016	0	241	['97016']	1	BITUNG			0	125.18	1.44				1	0	63			Bitung									[36, 38, 39, 85, 104, 105, 106, 107, 117]							L.Haimberger	0
241	0-20000-0-64203	0	242	['64203']	1	KITONA			0	12.45	-5.92				1	0	63			Soyo									[36, 38, 39, 85, 104, 105, 106, 107, 117]							L.Haimberger	0
242	0-20000-0-56196	0	243	['56196']	1	MIANYANG			0	104.73	31.45				1	0	63			Mianyang									[36, 38, 39, 85, 104, 105, 106, 107, 117]							L.Haimberger	0
243	0-300-0-16660	0	244	['16662']	1	Skiathos (Airport)			0	23.5	39.18				1	0	63			Volos									[36, 38, 39, 85, 104, 105, 106, 107, 117]							L.Haimberger	0
244	0-20000-0-41194	0	245	['41194']	1	DUBAI INTERNATIONAL AIRPORT			0	55.33	25.25				1	0	63			Dubai									[104, 105, 106, 107, 117]							L.Haimberger	0
245	0-20000-0-60001	0	246	['60001']	1	HIERRO/AEROPUERTO			0	-17.89	27.82				1	0	63			Los Llanos De Aridane									[39, 106, 107, 117]							L.Haimberger	0
246	0-20000-0-31004	0	247	['30004']	1	ALDAN			0	125.37	58.62				1	0	63			Aldan									[36, 38, 39, 85, 104, 105, 106, 107, 117]							L.Haimberger	0
247	0-20000-0-95317	0	248	['94315']	1	MARBLE BAR			0	119.75	-21.18				1	0	63			Port Hedland									[36, 38, 39, 85, 104, 105, 106, 107, 117]							L.Haimberger	0
248	0-20000-0-03385	0	249	['03388']	1	DONNA NOOK NO 2			0	0.15	53.47				1	0	63			Grimsby									[104, 105, 106, 107, 117]							L.Haimberger	0
249	0-20000-0-06315	0	250	['06315']	1	HANSWEERT			0	4.0	51.45				1	0	63			Goes									[104, 105, 106, 107, 117]							L.Haimberger	0
250	0-20000-0-11060	0	251	['11017']	1	LINZ-STADT			0	14.29	48.3				1	0	63			Linz									[104, 105, 106, 107, 117]							L.Haimberger	0
251	0-20000-0-65351	0	252	['65351']	1	DAPAON			0	0.25	10.87				1	0	63			Dapaong									[104, 105, 106, 107, 117]							L.Haimberger	0
252	0-20000-0-68714	0	253	['68714']	1	LANGEBAANWEG			0	18.16	-32.97				1	0	63			Saldanha									[104, 105, 106, 107, 117]							L.Haimberger	0
253	0-20000-0-65420	0	254	['65420']	1	YENDI			0	-0.02	9.45				1	0	63			Yendi									[104, 105, 106, 107, 117]							L.Haimberger	0
254	0-20000-0-04013	0	255	['04013']	1	STYKKISHOLMUR			0	-22.73	65.07				1	0	63			Reykjavik									[36, 38, 39, 85, 104, 105, 106, 107, 117]							L.Haimberger	0
255	0-20000-0-04241	0	256	['04240']	1	MITTARFIK MANIITSOQ (SUKKERTOPPEN LUFTHAVN)			0	-52.93	65.42				1	0	63			Nuuk									[36, 38, 39, 85, 104, 105, 106, 107, 117]							L.Haimberger	0
256	0-20000-0-91652	0	257	['91652']	1	UDU POINT			0	-179.98	-16.13				1	0	63			None									[104, 105, 106, 107, 117]							L.Haimberger	0
257	0-20000-0-33761	0	258	['33761']	1	Liubashivka			0	30.27	47.85				1	0	63			Pervomaysk									[104, 105, 106, 107, 117]							L.Haimberger	0
258	0-20000-0-43321	0	259	['43319']	1	COIMBATORE/PEELAMEDU			0	77.05	11.03				1	0	63			Singanallur									[104, 105, 106, 107, 117]							L.Haimberger	0
259	0-20000-0-48020	0	260	['48020']	1	MAWLAIK			0	94.42	23.63				1	0	63			Mawlaik									[104, 105, 106, 107, 117]							L.Haimberger	0
260	0-20000-0-68478	0	261	['68478']	1	ESTCOURT			0	29.86	-29.01				1	0	63			Mooi River									[36, 38, 39, 85, 104, 105, 106, 107, 117]							L.Haimberger	0
261		0	262	['03121']	1				0						1	0	63			Ardrossan									[36, 38, 39, 85, 104, 105, 106, 107, 117]							L.Haimberger	0
262	0-20000-0-95670	0	263	['94670']	1	RAYVILLE PARK			0	138.22	-33.77				1	0	63			Port Pirie									[104, 105, 106, 107, 117]							L.Haimberger	0
263	0-20000-0-60338	0	264	['60338']	1	MELILLA (60338-0)			0	-2.96	35.28				1	0	63			Melilla									[104, 105, 106, 107, 117]							L.Haimberger	0
264	0-20000-0-80252	0	265	['80251']	1	BUENAVENTURA			0	-76.97	3.85				1	0	63			Buenaventura									[36, 38, 39, 85, 104, 105, 106, 107, 117]							L.Haimberger	0
265	0-20000-0-21802	0	266	['21802']	1	SASKYLAH			0	114.08	71.97				1	0	63			None									[36, 38, 39, 85, 104, 105, 106, 107, 117]							L.Haimberger	0
266	0-20000-0-29023	0	267	['29023']	1	NAPAS			0	81.95	59.85				1	0	63			Kolpashevo									[104, 105, 106, 107, 117]							L.Haimberger	0
267	0-20000-0-80211	0	268	['80211']	1	ARMENIA/EL EDEN			0	-75.72	4.5				1	0	63			Armenia									[36, 38, 39, 85, 104, 105, 106, 107, 117]							L.Haimberger	0
268	0-20000-0-68926	0	269	['68926']	1	RIVERSDALE			0	21.25	-34.1				1	0	63			Swellendam									[36, 38, 39, 85, 104, 105, 106, 107, 117]							L.Haimberger	0
269	0-20000-0-89064	0	270	['89064']	1	JUAN CARLOS I AWS			0	-60.38	-62.65				1	0	63			None									[36, 38, 39, 85, 104, 105, 106, 107, 117]							L.Haimberger	0
270	0-20000-0-12280	0	271	['12280']	1	MIKOLAJKI			0	21.59	53.79				1	0	63			Mragowo									[36, 38, 39, 85, 104, 105, 106, 107, 117]							L.Haimberger	0
271	0-20000-0-42961	0	272	['42961']	1	TITLAGARH			0	83.3	20.3				1	0	63			Kesinga									[104, 105, 106, 107, 117]							L.Haimberger	0
272	0-643-0-26708	0	273	['47987']	1	KALININGRAD (NIZOV'E)			0	20.77	54.7				1	0	63			Kaliningrad									[104, 105, 106, 107, 117]							L.Haimberger	0
273	0-20000-0-67403	0	274	['67403']	1	KAWAMBWA			0	29.08	-9.8				1	0	63			Kawambwa									[104, 105, 106, 107, 117]							L.Haimberger	0
274	0-20000-0-48401	0	275	['48401']	1	TAKFA AGROMET			0	100.53	15.35				1	0	63			Takhli									[104, 105, 106, 107, 117]							L.Haimberger	0
275	0-20000-0-01002	0	276	['01002']	1	VERLEGENHUKEN			0	16.25	80.06				1	0	63			None									[36, 38, 39, 85, 104, 105, 106, 107, 117]							L.Haimberger	0
276	0-20000-0-71976	0	277	['71976']	1	PARC NATIONAL DES PINGUALUIT, QUE			0	-73.67	61.31				1	0	63			None									[104, 105, 106, 107, 117]							L.Haimberger	0
277	0-20000-0-16312	0	278	['16312']	1	GIOIA DEL COLLE			0	16.94	40.77				1	0	63			Gioia Del Colle									[104, 105, 106, 107, 117]							L.Haimberger	0
278	0-20000-0-03469	0	279	['03470']	1	HOLBEACH NO 2			0	0.14	52.87				1	0	63			Boston									[36, 38, 39, 85, 104, 105, 106, 107, 117]							L.Haimberger	0
279	0-20000-0-26072	0	280	['26072']	1	SHLISSEL'BURG			0	31.0	59.93				1	0	63			Schlusselburg									[36, 38, 39, 85, 104, 105, 106, 107, 117]							L.Haimberger	0
280	0-20000-0-61045	0	281	['61045']	1	GOURE			0	10.3	13.98				1	0	63			Goure									[36, 38, 39, 85, 104, 105, 106, 107, 117]							L.Haimberger	0
281	0-20000-0-66118	0	282	['66118']	1	NBANZA-KONGO			0	14.25	-6.27				1	0	63			Matadi									[104, 105, 106, 107, 117]							L.Haimberger	0
282	0-20000-0-06910	0	283	['66053']	1	BEROMUENSTER			0	8.18	47.19				1	0	63			Luzern									[36, 38, 39, 85, 104, 105, 106, 107, 117]							L.Haimberger	0
283	0-20000-0-22762	0	284	['22762']	1	DVINSKIJ BEREZNIK			0	42.79	62.83				1	0	63			Plesetsk									[36, 38, 39, 85, 104, 105, 106, 107, 117]							L.Haimberger	0
284	0-20000-0-10249	0	285	['10249']	1	BOIZENBURG			0	10.69	53.39				1	0	63			Boizenburg									[36, 38, 39, 85, 104, 105, 106, 107, 117]							L.Haimberger	0
285	0-20000-0-48454	0	286	['48454']	1	BANGNA AGROMET			0	100.61	13.67				1	0	63			Phra Pradaeng									[104, 105, 106, 107, 117]							L.Haimberger	0
286	0-20000-0-61707	0	287	['61741']	1	JENOI			0	-15.56	13.48				1	0	63			Farafenni									[104, 105, 106, 107, 117]							L.Haimberger	0
287	0-20000-0-16021	0	288	['16021']	1	PASSO ROLLE			0	11.79	46.3				1	0	63			Feltre									[104, 105, 106, 107, 117]							L.Haimberger	0
288	0-20000-0-24923	0	289	['24923']	1	LENSK			0	114.88	60.72				1	0	63			Lensk									[36, 38, 39, 85, 104, 105, 106, 107, 117]							L.Haimberger	0
289	0-20000-0-43241	0	290	['43241']	1	CUDDAPAH			0	78.83	14.48				1	0	63			Cuddapah									[104, 105, 106, 107, 117]							L.Haimberger	0
290	0-20000-0-83576	0	291	['83576']	1	UBERABA (AERO)			0	-47.97	-19.75				1	0	63			Uberaba									[36, 38, 39, 85, 104, 105, 106, 107, 117]							L.Haimberger	0
291	0-20000-0-41963	0	292	['41963']	1	HATIA			0	91.1	22.43				1	0	63			Lalmohan									[104, 105, 106, 107, 117]							L.Haimberger	0
292	0-20000-0-03684	0	293	['03683']	1	ANDREWSFIELD			0	0.45	51.9				1	0	63			Harlow									[104, 105, 106, 107, 117]							L.Haimberger	0
293	0-20000-0-71118	0	294	['71118']	1	WAINWRIGHT CFB AIRFIELD 21, ALTA			0	-111.1	52.83				1	0	63			Lloydminster									[104, 105, 106, 107, 117]							L.Haimberger	0
294	0-20000-0-78344	0	295	['78344']	1	CANTARRANA,  CIENFUEGOS			0	-80.17	21.92				1	0	63			Cienfuegos									[36, 38, 39, 85, 104, 105, 106, 107, 117]							L.Haimberger	0
295	0-20000-0-41136	0	296	['40571']	1	SHARORAH			0	47.1	17.47				1	0	63			Najran									[36, 38, 39, 85, 104, 105, 106, 107, 117]							L.Haimberger	0
296	0-20000-0-40908	0	297	['40908']	1	SHEBIRGHAN			0	65.72	36.67				1	0	63			Shibarghan									[36, 38, 39, 85, 104, 105, 106, 107, 117]							L.Haimberger	0
297	0-20000-0-83948	0	298	['83948']	1	TORRES (83948-0)			0	-49.73	-29.33				1	0	63			Torres									[104, 105, 106, 107, 117]							L.Haimberger	0
298	0-20000-0-60728	0	299	['60728']	1	NABEUL			0	10.7	36.47				1	0	63			Nabul									[104, 105, 106, 107, 117]							L.Haimberger	0
299	0-20000-0-63220	0	300	['63220']	1	SCUSCIUBAN			0	50.23	10.3				1	0	63			Bandarbeyla									[36, 38, 39, 85, 104, 105, 106, 107, 117]							L.Haimberger	0
300	0-20000-0-03379	0	301	['03379']	1	WADDINGTON			0	-0.52	53.18				1	0	63			Sleaford									[104, 105, 106, 107, 117]							L.Haimberger	0
301	0-20000-0-61043	0	302	['61061']	1	TAHOUA			0	5.25	14.9				1	0	63			Tahoua									[104, 105, 106, 107, 117]							L.Haimberger	0
302	0-20000-0-41164	0	303	['41164']	1	ALGUWAYRIYAH			0	51.27	25.83				1	0	63			Khor									[104, 105, 106, 107, 117]							L.Haimberger	0
303	0-20000-0-16076	0	304	['16076']	1	BERGAMO ORIO AL SERIO			0	9.7	45.67				1	0	63			Bergamo									[104, 105, 106, 107, 117]							L.Haimberger	0
304	0-20000-0-40701	0	305	['40701']	1	MAKKO			0	44.39	39.38				1	0	63			Maku									[36, 38, 39, 85, 104, 105, 106, 107, 117]							L.Haimberger	0
305	0-20000-0-60630	0	306	['60842']	1	IN-SALAH			0	2.51	27.25				1	0	63			Adrar									[104, 105, 106, 107, 117]							L.Haimberger	0
306	0-20000-0-42387	0	307	['42390']	1	MUZAFFARPUR			0	85.4	26.12				1	0	63			Muzaffarpur									[36, 38, 39, 85, 104, 105, 106, 107, 117]							L.Haimberger	0
307	0-20000-0-65015	0	308	['65015']	1	GUSAU			0	6.7	12.17				1	0	63			Gusau									[104, 105, 106, 107, 117]							L.Haimberger	0
308	0-20000-0-23678	0	309	['23678']	1	VERHNEIMBATSK			0	87.97	63.16				1	0	63			Yeniseysk									[36, 38, 39, 85, 104, 105, 106, 107, 117]							L.Haimberger	0
309	0-20000-0-23711	0	310	['23711']	1	TROICKO-PECHERSKOE			0	56.18	62.7				1	0	63			Nizhniy Odes									[36, 38, 39, 85, 104, 105, 106, 107, 117]							L.Haimberger	0
310	0-20000-0-37545	0	311	['37541']	1	TBILISI			0	44.77	41.75				1	0	63			Kaspi									[36, 38, 39, 85, 104, 105, 106, 107, 117]							L.Haimberger	0
311	0-20000-0-94231	0	312	['94231']	1	LAJAMANU			0	130.64	-18.33				1	0	63			Katherine									[104, 105, 106, 107, 117]							L.Haimberger	0
312		0	313	['58774']	1				0						1	0	63			Birin									[104, 105, 106, 107, 117]							L.Haimberger	0
313	0-20000-0-40889	0	314	['40889']	1	SIRI ISLAND			0	54.55	25.9				1	0	63			Bandar-E Lengeh									[36, 38, 39, 85, 104, 105, 106, 107, 117]							L.Haimberger	0
314	0-20000-0-61995	0	315	['59374']	1	VACOAS (MAURITIUS)			0	57.49	-20.3				1	0	63			Curepipe									[104, 105, 106, 107, 117]							L.Haimberger	0
315	0-20000-0-43259	0	316	['43259']	1	BALEHONUR			0	75.45	13.37				1	0	63			Chikmagalur									[104, 105, 106, 107, 117]							L.Haimberger	0
316	0-20000-0-60764	0	317	['60764']	1	KEBILI			0	8.97	33.7				1	0	63			Qibili									[104, 105, 106, 107, 117]							L.Haimberger	0
317	0-20000-0-10506	0	318	['10507']	1	NUERBURG-BARWEILER			0	6.87	50.36				1	0	63			Schleiden									[104, 105, 106, 107, 117]							L.Haimberger	0
318	0-20000-0-94963	0	319	['94963']	1	MAYDENA POST OFFICE			0	146.62	-42.76				1	0	63			Hobart									[104, 105, 106, 107, 117]							L.Haimberger	0
319	0-20000-0-41573	0	320	['41573']	1	MURREE			0	73.38	33.92				1	0	63			Murree									[104, 105, 106, 107, 117]							L.Haimberger	0
320	0-20000-0-16734	0	321	['16734']	1	METHONI			0	21.7	36.83				1	0	63			Kalamata									[36, 38, 39, 85, 104, 105, 106, 107, 117]							L.Haimberger	0
321	0-20000-0-27799	0	322	['27799']	1	DIMITROVGRAD (27799-0)			0	49.6	54.23				1	0	63			Dimitrovgrad									[39, 106, 107, 117]							L.Haimberger	0
322	0-20000-0-83745	0	323	['83745']	1	NOVA FRIBURGO (83745-0)			0	-42.53	-22.28				1	0	63			Nova Friburgo									[104, 105, 106, 107, 117]							L.Haimberger	0
323	0-20000-0-60734	0	324	['60734']	1	SILIANA			0	9.37	36.07				1	0	63			Silyanah									[104, 105, 106, 107, 117]							L.Haimberger	0
324	0-20000-0-67695	0	325	['67695']	1	MANGOCHI			0	35.25	-14.43				1	0	63			Mangochi									[104, 105, 106, 107, 117]							L.Haimberger	0
325	0-20000-0-47512	0	326	['47512']	1	OFUNATO			0	141.71	39.06				1	0	63			Ofunato									[36, 38, 39, 85, 104, 105, 106, 107, 117]							L.Haimberger	0
326	0-20000-0-95111	0	327	['94111']	1	PORT KEATS AIRPORT			0	129.53	-14.25				1	0	63			Darwin									[104, 105, 106, 107, 117]							L.Haimberger	0
327	0-20000-0-47860	0	328	['47860']	1	FUKUOKA			0	130.38	33.58				1	0	63			Kanzaki									[36, 38, 39, 85, 104, 105, 106, 107, 117]							L.Haimberger	0
328	0-20000-0-65516	0	329	['65516']	1	BOROMO			0	-2.92	11.73				1	0	63			Boromo									[104, 105, 106, 107, 117]							L.Haimberger	0
329	0-20000-0-41536	0	330	['41536']	1	BALAKOT			0	73.35	34.38				1	0	63			Muzaffarabad									[104, 105, 106, 107, 117]							L.Haimberger	0
330	0-20000-0-28064	0	331	['28064']	1	LEUSI			0	65.72	59.63				1	0	63			Mezhdurechenskiy									[104, 105, 106, 107, 117]							L.Haimberger	0
331	0-20000-0-15320	0	332	['15320']	1	PARANG			0	23.46	45.39				1	0	63			Petrosani									[36, 38, 39, 85, 104, 105, 106, 107, 117]							L.Haimberger	0
332	0-20000-0-41293	0	333	['41293']	1	BIDIYA			0	58.85	22.46				1	0	63			Ibra									[104, 105, 106, 107, 117]							L.Haimberger	0
333	0-20000-0-68591	0	334	['68584']	1	MARGATE			0	30.34	-30.86				1	0	63			Port Shepstone									[36, 38, 39, 85, 104, 105, 106, 107, 117]							L.Haimberger	0
334	0-20000-0-87322	0	335	['87322']	1	CHEPES			0	-66.59	-31.33				1	0	63			San Juan									[104, 105, 106, 107, 117]							L.Haimberger	0
335	0-20000-0-43111	0	336	['43111']	1	MAHABALESHWAR			0	73.67	17.93				1	0	63			Mahabaleshwar									[36, 38, 39, 85, 104, 105, 106, 107, 117]							L.Haimberger	0
336	0-20000-0-08181	0	337	['08181']	1	BARCELONA SERVEI			0	2.12	41.38				1	0	63			El Prat De Llobregat									[36, 38, 39, 85, 104, 105, 106, 107, 117]							L.Haimberger	0
337	0-20000-0-67295	0	338	['67295']	1	CHIMOIO			0	33.47	-19.12				1	0	63			Chimoio									[104, 105, 106, 107, 117]							L.Haimberger	0
338	0-20000-0-41080	0	339	['41080']	1	AL-QUNFUDAH			0	41.08	19.12				1	0	63			Abha									[104, 105, 106, 107, 117]							L.Haimberger	0
339	0-20000-0-48555	0	340	['48555']	1	SURAT THANI AGROMET			0	99.64	9.14				1	0	63			Don Sak									[104, 105, 106, 107, 117]							L.Haimberger	0
340	0-20000-0-16263	0	341	['16263']	1	TREVICO			0	15.23	41.05				1	0	63			Ariano Irpino									[36, 38, 39, 85, 104, 105, 106, 107, 117]							L.Haimberger	0
341		0	342	['61002']	1				0						1	0	63			Nalut									[104, 105, 106, 107, 117]							L.Haimberger	0
342	0-20000-0-10007	0	343	['10007']	1	UFS DEUTSCHE BUCHT			0	7.46	54.18				1	0	63			Norden									[36, 38, 39, 85, 104, 105, 106, 107, 117]							L.Haimberger	0
343	0-20000-0-63500	0	344	['63500']	1	ARBA MINCH			0	37.63	6.08				1	0	63			Gidole									[104, 105, 106, 107, 117]							L.Haimberger	0
344	0-20000-0-74365	0	345	['74365']	1	GAYLORD, MI.			0	-84.72	44.91				1	0	63			Traverse City									[36, 38, 39, 85, 104, 105, 106, 107, 117]							L.Haimberger	0
345	0-20000-0-12510	0	346	['12510']	1	SNIEZKA			0	15.74	50.74				1	0	63			Kowary									[36, 38, 39, 85, 104, 105, 106, 107, 117]							L.Haimberger	0
346	0-20000-0-47005	0	347	['47005']	1	SAMJIYON			0	128.3	41.82				1	0	63			Songjianghe									[36, 38, 39, 85, 104, 105, 106, 107, 117]							L.Haimberger	0
347	0-20000-0-16718	0	348	['16718']	1	ATHINAI HELLINIKON			0	23.74	37.89				1	0	63			Aspropirgos									[104, 105, 106, 107, 117]							L.Haimberger	0
348	0-20000-0-65380	0	349	['65380']	1	TABLIGBO			0	1.5	6.58				1	0	63			Tabligbo									[104, 105, 106, 107, 117]							L.Haimberger	0
349	0-20000-0-40101	0	350	['40101']	1	HOUCHE-AL-OUMARA			0	35.85	33.82				1	0	63			Riyaq									[36, 38, 39, 85, 104, 105, 106, 107, 117]							L.Haimberger	0
350	0-20000-0-48037	0	351	['48037']	1	MONYWA			0	95.13	22.1				1	0	63			Monywa									[36, 38, 39, 85, 104, 105, 106, 107, 117]							L.Haimberger	0
351	0-20000-0-01025	0	352	['01025']	1	TROMSO/LANGNES			0	18.91	69.68				1	0	63			Tromso									[36, 38, 39, 85, 104, 105, 106, 107, 117]							L.Haimberger	0
352	0-20000-0-28573	0	353	['28573']	1	ISHIM			0	69.43	56.1				1	0	63			Ishim									[36, 38, 39, 85, 104, 105, 106, 107, 117]							L.Haimberger	0
353	0-20000-0-72591	0	354	['72591']	1	RED BLUFF/MUN., CA.			0	-122.25	40.15				1	0	63			Red Bluff									[36, 38, 39, 85, 104, 105, 106, 107, 117]							L.Haimberger	0
354	0-20000-0-67580	0	355	['67580']	1	MSEKERA			0	32.57	-13.65				1	0	63			Chipata									[104, 105, 106, 107, 117]							L.Haimberger	0
355	0-20000-0-31931	0	356	['31931']	1	SVIJAGINO			0	133.08	44.8				1	0	63			Spassk-Dalniy									[36, 38, 39, 85, 104, 105, 106, 107, 117]							L.Haimberger	0
356	0-20000-0-91520	0	357	['91520']	1	HONIARA			0	159.97	-9.42				1	0	63			Honiara									[104, 105, 106, 107, 117]							L.Haimberger	0
357	0-20000-0-03482	0	358	['03482']	1	MARHAM			0	0.57	52.65				1	0	63			Bury Saint Edmunds									[104, 105, 106, 107, 117]							L.Haimberger	0
358	0-20000-0-91234	0	359	['91234']	1	MAUG AWS,  MARIANA IS.			0	145.22	20.05				1	0	63			None									[36, 38, 39, 85, 104, 105, 106, 107, 117]							L.Haimberger	0
359	0-20000-0-22563	0	360	['22563']	1	PINEGA			0	43.38	64.7				1	0	63			Pervomayskiy									[36, 38, 39, 85, 104, 105, 106, 107, 117]							L.Haimberger	0
360	0-20000-0-64880	0	361	['64880']	1	BANYO			0	11.82	6.78				1	0	63			Banyo									[104, 105, 106, 107, 117]							L.Haimberger	0
361	0-20000-0-63402	0	362	['63402']	1	JIMMA			0	36.83	7.67				1	0	63			Jimma									[104, 105, 106, 107, 117]							L.Haimberger	0
362	0-20000-0-04196	0	363	['04096']	1	KAMBANES			0	-13.84	64.8				1	0	63			Akureyri									[104, 105, 106, 107, 117]							L.Haimberger	0
363	0-20000-0-25715	0	364	['25715']	1	OMSUKCHAN			0	155.8	62.52				1	0	63			Magadan									[36, 38, 39, 85, 104, 105, 106, 107, 117]							L.Haimberger	0
364	0-20000-0-72259	0	365	['72259']	1	FORT WORTH, TX.			0	-97.3	32.84				1	0	63			Grapevine									[104, 105, 106, 107, 117]							L.Haimberger	0
365	0-20000-0-96035	0	366	['95374']	1	KUALANAMU MEDAN			0	98.88	3.64				1	0	63			Medan									[104, 105, 106, 107, 117]							L.Haimberger	0
366	0-20000-0-14544	0	367	['13244']	1	BUGOJNO			0	17.45	44.06				1	0	63			Bugojno									[36, 38, 39, 85, 104, 105, 106, 107, 117]							L.Haimberger	0
367	0-20000-0-48604	0	368	['48604']	1	CHUPING			0	100.27	6.48				1	0	63			Kangar									[36, 38, 39, 85, 104, 105, 106, 107, 117]							L.Haimberger	0
368	0-20000-0-11101	0	369	['11101']	1	BREGENZ			0	9.75	47.5				1	0	63			Bregenz									[36, 38, 39, 85, 104, 105, 106, 107, 117]							L.Haimberger	0
369	0-20000-0-03488	0	370	['03493']	1	WEYBOURNE			0	1.12	52.95				1	0	63			Norwich									[36, 38, 39, 85, 104, 105, 106, 107, 117]							L.Haimberger	0
370	0-20000-0-30731	0	371	['30731']	1	GORJACINSK			0	108.29	52.99				1	0	63			Onokhoy									[36, 38, 39, 85, 104, 105, 106, 107, 117]							L.Haimberger	0
371	0-20000-0-83920	0	372	['83920']	1	SAO JOAQUIM (83920-0)			0	-49.92	-28.28				1	0	63			Sao Joaquim									[36, 38, 39, 85, 104, 105, 106, 107, 117]							L.Haimberger	0
372	0-20000-0-41246	0	373	['41246']	1	SOHAR MAJIS			0	56.64	24.47				1	0	63			Sharjah									[104, 105, 106, 107, 117]							L.Haimberger	0
373	0-20000-0-16550	0	374	['16550']	1	CAPO BELLAVISTA			0	9.71	39.93				1	0	63			Tortoli									[36, 38, 39, 85, 104, 105, 106, 107, 117]							L.Haimberger	0
374	0-20000-0-23205	0	375	['23160']	1	NAR'JAN-MAR			0	53.02	67.62				1	0	63			Naryan-Mar									[104, 105, 106, 107, 117]							L.Haimberger	0
375	0-20000-0-47796	0	376	['47796']	1	DAR ES SALAAM INT			0	39.21	-6.88				1	0	63			Magomeni									[104, 105, 106, 107, 117]							L.Haimberger	0
376	0-20000-0-38611	0	377	['38611']	1	NAMANGAN			0	71.58	41.0				1	0	63			Namangan									[36, 38, 39, 85, 104, 105, 106, 107, 117]							L.Haimberger	0
377	0-20000-0-16158	0	378	['16158']	1	PISA S. GIUSTO			0	10.4	43.68				1	0	63			Pisa									[36, 38, 39, 85, 104, 105, 106, 107, 117]							L.Haimberger	0
378	0-20000-0-43349	0	379	['43349']	1	VEDARANNIYAM			0	79.85	10.37				1	0	63			Vedaranniyam									[36, 38, 39, 85, 104, 105, 106, 107, 117]							L.Haimberger	0
379	0-20000-0-71927	0	380	['71927']	1	NORTH COWICHAN, BC			0	-123.72	48.82				1	0	63			None									[36, 38, 39, 85, 104, 105, 106, 107, 117]							L.Haimberger	0
380	0-20000-0-60230	0	381	['58046']	1	MARRAKECH			0	-8.03	31.62				1	0	63			Marrakesh									[104, 105, 106, 107, 117]							L.Haimberger	0
381	0-20000-0-08184	0	382	['08184']	1	GIRONA/COSTA BRAVA			0	2.76	41.91				1	0	63			Salt									[104, 105, 106, 107, 117]							L.Haimberger	0
382	0-20000-0-62795	0	383	['62795']	1	ABU NA'AMA			0	34.13	12.73				1	0	63			Sinjah									[36, 38, 39, 85, 104, 105, 106, 107, 117]							L.Haimberger	0
383	0-20000-0-82789	0	384	['82789']	1	TRIUNFO (82789-0)			0	-38.13	-7.85				1	0	63			Flores									[36, 38, 39, 85, 104, 105, 106, 107, 117]							L.Haimberger	0
384	0-20000-0-07486	0	385	['07486']	1	GRENOBLE-ST-GEOIRS			0	5.31	45.36				1	0	63			Voiron									[104, 105, 106, 107, 117]							L.Haimberger	0
385	0-20000-0-29866	0	386	['29866']	1	ABAKAN			0	91.32	53.77				1	0	63			Minusinsk									[36, 38, 39, 85, 104, 105, 106, 107, 117]							L.Haimberger	0
386	0-20000-0-38815	0	387	['38815']	1	GUZAR			0	66.27	38.62				1	0	63			Koson									[36, 38, 39, 85, 104, 105, 106, 107, 117]							L.Haimberger	0
387	0-20000-0-01408	0	388	['01408']	1	HAUGESUND AP			0	5.2	59.35				1	0	63			Leirvik									[36, 38, 39, 85, 104, 105, 106, 107, 117]							L.Haimberger	0
388	0-20000-0-41640	0	389	['41376']	1	LAHORE CITY			0	74.33	31.55				1	0	63			Lahore									[104, 105, 106, 107, 117]							L.Haimberger	0
389	0-20000-0-68826	0	390	['68826']	1	OUDTSHOORN			0	22.19	-33.6				1	0	63			Oudtshoorn									[36, 38, 39, 85, 104, 105, 106, 107, 117]							L.Haimberger	0
390	0-20000-0-97048	0	391	['91493']	1	GORONTALO/JALALUDDIN			0	122.85	0.64				1	0	63			Gorontalo									[104, 105, 106, 107, 117]							L.Haimberger	0
391	0-20000-0-24894	0	392	['24891']	1	KOLYMSKAYA (24894-0)			0	147.67	61.85				1	0	63			Magadan									[36, 38, 39, 85, 104, 105, 106, 107, 117]							L.Haimberger	0
392	0-20000-0-94633	0	393	['94633']	1	CORRIGIN			0	117.87	-32.33				1	0	63			Perth									[104, 105, 106, 107, 117]							L.Haimberger	0
393	0-20000-0-94171	0	394	['94171']	1	WEIPA AERO			0	141.92	-12.68				1	0	63			Daru									[104, 105, 106, 107, 117]							L.Haimberger	0
394	0-20000-0-38759	0	395	['38759']	1	GYZYLETREK			0	54.78	37.62				1	0	63			Gonbad-E Qabus									[36, 38, 39, 85, 104, 105, 106, 107, 117]							L.Haimberger	0
395	0-20000-0-81080	0	396	['81080']	1	KAIETEUR FALLS			0	-59.48	5.18				1	0	63			Linden									[104, 105, 106, 107, 117]							L.Haimberger	0
396	0-20000-0-64660	0	397	['64660']	1	BAMBARI			0	20.65	5.85				1	0	63			Bambari									[104, 105, 106, 107, 117]							L.Haimberger	0
397	0-20000-0-56586	0	398	['56586']	1	ZHAOTONG			0	103.75	27.33				1	0	63			Zhaotong									[104, 105, 106, 107, 117]							L.Haimberger	0
398	0-20000-0-51818	0	399	['52888']	1	PISHAN			0	78.28	37.62				1	0	63			Shache									[36, 38, 39, 85, 104, 105, 106, 107, 117]							L.Haimberger	0
399		0	400	['71128']	1				0						1	0	63			Medicine Hat									[36, 38, 39, 85, 104, 105, 106, 107, 117]							L.Haimberger	0
400	0-20000-0-94377	0	401	['94377']	1	MONTO TOWNSHIP			0	151.12	-24.86				1	0	63			Gladstone									[104, 105, 106, 107, 117]							L.Haimberger	0
401	0-20000-0-74775	0	402	['74775']	1	TYNDALL AFB, FL.			0	-85.58	30.07				1	0	63			Callaway									[36, 38, 39, 85, 104, 105, 106, 107, 117]							L.Haimberger	0
402	0-20000-0-56182	0	403	['56182']	1	SONGPAN			0	103.6	32.67				1	0	63			Jiangyou									[36, 38, 39, 85, 104, 105, 106, 107, 117]							L.Haimberger	0
403	0-20000-0-40360	0	404	['40360']	1	GURIAT			0	37.28	31.4				1	0	63			Turayf									[36, 38, 39, 85, 104, 105, 106, 107, 117]							L.Haimberger	0
404	0-20000-0-94668	0	405	['94668']	1	KIMBA			0	136.41	-33.14				1	0	63			Whyalla									[104, 105, 106, 107, 117]							L.Haimberger	0
405	0-20000-0-60739	0	406	['60739']	1	KASSERINE			0	8.83	35.17				1	0	63			Talah									[104, 105, 106, 107, 117]							L.Haimberger	0
406	0-20000-0-15505	0	407	['15505']	1	VRATZA			0	23.53	43.2				1	0	63			Vraca									[36, 38, 39, 85, 104, 105, 106, 107, 117]							L.Haimberger	0
407	0-20000-0-41564	0	408	['41564']	1	KOHAT			0	71.43	33.57				1	0	63			Kohat									[104, 105, 106, 107, 117]							L.Haimberger	0
408	0-20000-0-87078	0	409	['87078']	1	LAS LOMITAS			0	-60.59	-24.7				1	0	63			Presidencia Roque Saenz Pena									[36, 38, 39, 85, 104, 105, 106, 107, 117]							L.Haimberger	0
409	0-20000-0-60425	0	410	['60425']	1	CHLEF			0	1.33	36.22				1	0	63			Sidi Ali									[36, 38, 39, 85, 104, 105, 106, 107, 117]							L.Haimberger	0
410	0-20000-0-23226	0	411	['23226']	1	VORKUTA			0	63.97	67.49				1	0	63			Vorkuta									[36, 38, 39, 85, 104, 105, 106, 107, 117]							L.Haimberger	0
411	0-20000-0-41856	0	412	['41856']	1	RAJARHAT, KURIGRAM			0	89.55	25.8				1	0	63			Murshidabad									[104, 105, 106, 107, 117]							L.Haimberger	0
412	0-20000-0-10129	0	413	['10129']	1	BREMERHAVEN			0	8.58	53.53				1	0	63			Bremerhaven									[36, 38, 39, 85, 104, 105, 106, 107, 117]							L.Haimberger	0
413	0-20000-0-92084	0	414	['94084']	1	FENI (92084-0)			0	153.67	-4.02				1	0	63			Kokopo									[104, 105, 106, 107, 117]							L.Haimberger	0
414	0-20000-0-11060	0	415	['11016']	1	LINZ-STADT			0	14.29	48.3				1	0	63			Linz									[104, 105, 106, 107, 117]							L.Haimberger	0
415	0-20000-0-16470	0	416	['16470']	1	PANTELLERIA			0	11.97	36.81				1	0	63			Manzil Tamim									[36, 38, 39, 85, 104, 105, 106, 107, 117]							L.Haimberger	0
416	0-20000-0-33907	0	417	['33907']	1	Behtery			0	32.28	46.24				1	0	63			Kherson									[36, 38, 39, 85, 104, 105, 106, 107, 117]							L.Haimberger	0
417	0-20000-0-48090	0	418	['48090']	1	PAPUN			0	97.45	18.07				1	0	63			Nyaunglebin									[104, 105, 106, 107, 117]							L.Haimberger	0
418	0-20000-0-68257	0	419	['68250']	1	PILANESBERG			0	27.22	-25.26				1	0	63			Mogwase									[104, 105, 106, 107, 117]							L.Haimberger	0
419	0-20000-0-44285	0	420	['44285']	1	HUJIRT			0	102.78	46.9				1	0	63			Bulgan									[104, 105, 106, 107, 117]							L.Haimberger	0
420	0-20000-0-96087	0	421	['96087']	1	BATAM/HANG NADIM			0	104.11	1.12				1	0	63			Singapore									[104, 105, 106, 107, 117]							L.Haimberger	0
421	0-20000-0-68362	0	422	['68362']	1	FRANKFORT-TNK			0	28.49	-27.27				1	0	63			Frankfort									[104, 105, 106, 107, 117]							L.Haimberger	0
422	0-20000-0-43266	0	423	['43266']	1	M.O. AGATHI AIRPORT			0	72.47	10.85				1	0	63			Kavaratti									[104, 105, 106, 107, 117]							L.Haimberger	0
423	0-20000-0-30622	0	424	['30622']	1	KACHUG			0	105.9	53.97				1	0	63			Ust-Ordynskiy									[36, 38, 39, 85, 104, 105, 106, 107, 117]							L.Haimberger	0
424	0-20000-0-74491	0	425	['74491']	1	CHICOPEE FALLS/WESTOVER AFB, MA.			0	-72.53	42.2				1	0	63			Ludlow									[36, 38, 39, 85, 104, 105, 106, 107, 117]							L.Haimberger	0
425	0-20000-0-63333	0	426	['63333']	1	COMBOLCHA			0	39.73	11.12				1	0	63			Kembolcha									[36, 38, 39, 85, 104, 105, 106, 107, 117]							L.Haimberger	0
426		0	427	['35021']	1				0						1	0	63			Tyulgan									[36, 38, 39, 85, 104, 105, 106, 107, 117]							L.Haimberger	0
427	0-20000-0-33834	0	428	['33834']	1	Rozdilna			0	30.07	46.85				1	0	63			Dnestrovsc									[104, 105, 106, 107, 117]							L.Haimberger	0
428	0-20000-0-31442	0	429	['31442']	1	SIMANOVSK			0	127.65	51.98				1	0	63			Shimanovsk									[104, 105, 106, 107, 117]							L.Haimberger	0
429	0-20000-0-88963	0	430	['88963']	1	BASE ESPERANZA			0	-57.0	-63.4				1	0	63			None									[36, 38, 39, 85, 104, 105, 106, 107, 117]							L.Haimberger	0
430	0-20000-0-01144	0	431	['01138']	1	HELLIGVAER II			0	13.9	67.4				1	0	63			Bodo									[36, 38, 39, 85, 104, 105, 106, 107, 117]							L.Haimberger	0
431	0-20000-0-97748	0	432	['97041']	1	GESER			0	130.9	-3.89				1	0	63			Amahai									[104, 105, 106, 107, 117]							L.Haimberger	0
432	0-20000-0-63340	0	433	['63340']	1	LEKEMTE			0	36.45	9.08				1	0	63			Bedele									[104, 105, 106, 107, 117]							L.Haimberger	0
433	0-20000-0-10655	0	434	['10655']	1	WUERZBURG			0	9.96	49.77				1	0	63			Wurzburg									[104, 105, 106, 107, 117]							L.Haimberger	0
434	0-20000-0-02518	0	435	['02519']	1	NIDINGEN			0	11.91	57.3				1	0	63			Varberg									[104, 105, 106, 107, 117]							L.Haimberger	0
435	0-20000-0-54157	0	436	['54157']	1	SIPING			0	124.33	43.18				1	0	63			Lishu									[104, 105, 106, 107, 117]							L.Haimberger	0
436	0-20000-0-94182	0	437	['94182']	1	COCONUT ISLAND			0	143.07	-10.05				1	0	63			Daru									[36, 38, 39, 85, 104, 105, 106, 107, 117]							L.Haimberger	0
437	0-20000-0-94480	0	438	['94480']	1	MARREE COMPARISON			0	138.06	-29.65				1	0	63			Port Augusta									[36, 38, 39, 85, 104, 105, 106, 107, 117]							L.Haimberger	0
438	0-20000-0-31371	0	439	['31371']	1	CHERNJAEVO			0	126.0	52.78				1	0	63			Magdagachi									[36, 38, 39, 85, 104, 105, 106, 107, 117]							L.Haimberger	0
439	0-20000-0-47756	0	440	['47756']	1	TSUYAMA			0	134.01	35.06				1	0	63			Tsuyama									[36, 38, 39, 85, 104, 105, 106, 107, 117]							L.Haimberger	0
440	0-20000-0-65510	0	441	['62890']	1	BOBO-DIOULASSO			0	-4.3	11.17				1	0	63			Bobo Dioulasso									[104, 105, 106, 107, 117]							L.Haimberger	0
441	0-20000-0-16020	0	442	['16020']	1	BOLZANO			0	11.33	46.46				1	0	63			Laives									[36, 38, 39, 85, 104, 105, 106, 107, 117]							L.Haimberger	0
442	0-20000-0-34929	0	443	['34929']	1	KRASNODAR			0	39.15	45.03				1	0	63			Pashkovskiy									[36, 38, 39, 85, 104, 105, 106, 107, 117]							L.Haimberger	0
443	0-20000-0-04351	0	444	['04350']	1	APUTITEEQ			0	-32.3	67.78				1	0	63			None									[36, 38, 39, 85, 104, 105, 106, 107, 117]							L.Haimberger	0
444	0-20000-0-83700	0	445	['83700']	1	SAO TOME (83700-0)			0	-41.05	-22.05				1	0	63			Campos									[36, 38, 39, 85, 104, 105, 106, 107, 117]							L.Haimberger	0
445	0-20000-0-40977	0	446	['40977']	1	TIRIN KOT			0	65.87	32.62				1	0	63			Deh Rawud									[104, 105, 106, 107, 117]							L.Haimberger	0
446	0-20000-0-94977	0	447	['94977']	1	HARTZ MOUNTAINS (KEOGHS PIMPLE)			0	146.77	-43.2				1	0	63			Hobart									[36, 38, 39, 85, 104, 105, 106, 107, 117]							L.Haimberger	0
447	0-20000-0-28952	0	448	['31427']	1	KOSTANAY			0	63.74	53.24				1	0	63			Qostanay									[36, 38, 39, 85, 104, 105, 106, 107, 117]							L.Haimberger	0
448	0-20000-0-26059	0	449	['26059']	1	KINGISEPP			0	28.6	59.37				1	0	63			Kingisepp									[104, 105, 106, 107, 117]							L.Haimberger	0
449	0-20000-0-43058	0	450	['43058']	1	ALIBAG			0	72.87	18.63				1	0	63			Alibag									[36, 38, 39, 85, 104, 105, 106, 107, 117]							L.Haimberger	0
450	0-20000-0-42631	0	451	['42631']	1	NALIYA			0	68.85	23.25				1	0	63			Naliya									[36, 38, 39, 85, 104, 105, 106, 107, 117]							L.Haimberger	0
451	0-20000-0-03344	0	452	['03339']	1	BINGLEY NO 2			0	-1.87	53.81				1	0	63			Keighley									[36, 38, 39, 85, 104, 105, 106, 107, 117]							L.Haimberger	0
452	0-20000-0-71809	0	453	['71809']	1	DEER LAKE A, NFLD			0	-57.4	49.22				1	0	63			Corner Brook									[36, 38, 39, 85, 104, 105, 106, 107, 117]							L.Haimberger	0
453		0	454	['98136']	1				0						1	0	63			Claveria									[104, 105, 106, 107, 117]							L.Haimberger	0
454	0-20000-0-66130	0	455	['66130']	1	N'ZETO (AMBRIZETE)			0	12.87	-7.23				1	0	63			Soyo									[36, 38, 39, 85, 104, 105, 106, 107, 117]							L.Haimberger	0
455	0-20000-0-42799	0	456	['42799']	1	JAMSHEDPUR (42799-0)			0	86.18	22.82				1	0	63			Jamshedpur									[36, 38, 39, 85, 104, 105, 106, 107, 117]							L.Haimberger	0
456	0-20000-0-86440	0	457	['86440']	1	MELO			0	-54.19	-32.35				1	0	63			Melo									[104, 105, 106, 107, 117]							L.Haimberger	0
457	0-20000-0-32053	0	458	['32053']	1	NOGLIKI			0	143.13	51.92				1	0	63			Nogliki									[36, 38, 39, 85, 104, 105, 106, 107, 117]							L.Haimberger	0
458	0-20000-0-72289	0	459	['74704']	1	MOUNT WILSON, CA.			0	-118.07	34.23				1	0	63			El Monte									[36, 38, 39, 85, 104, 105, 106, 107, 117]							L.Haimberger	0
459	0-20000-0-63330	0	460	['63330']	1	MAKALE			0	39.48	13.5				1	0	63			Abiy Adi									[104, 105, 106, 107, 117]							L.Haimberger	0
460	0-20000-0-02917	0	461	['02917']	1	SIILINJARVI KUOPIO AIRPORT			0	27.81	63.0				1	0	63			Siilinjarvi									[36, 38, 39, 85, 104, 105, 106, 107, 117]							L.Haimberger	0
461	0-20000-0-42107	0	462	['42107']	1	DHARMPUR			0	77.02	30.9				1	0	63			Kalka									[104, 105, 106, 107, 117]							L.Haimberger	0
462	0-20000-0-17042	0	463	['17042']	1	HOPA			0	41.43	41.41				1	0	63			Artvin									[36, 38, 39, 85, 104, 105, 106, 107, 117]							L.Haimberger	0
463	0-20000-0-57071	0	464	['57073']	1	MENGJIN			0	112.47	34.8				1	0	63			Luoyang									[36, 38, 39, 85, 104, 105, 106, 107, 117]							L.Haimberger	0
464	0-20000-0-17120	0	465	['17120']	1	BILECIK			0	29.97	40.15				1	0	63			Bilecik									[36, 38, 39, 85, 104, 105, 106, 107, 117]							L.Haimberger	0
465	0-20000-0-56257	0	466	['56257']	1	LITANG			0	100.27	30.0				1	0	63			Yaan									[36, 38, 39, 85, 104, 105, 106, 107, 117]							L.Haimberger	0
466	0-20000-0-63245	0	467	['63245']	1	HUDDUR			0	43.87	4.18				1	0	63			Xuddur									[104, 105, 106, 107, 117]							L.Haimberger	0
467	0-20000-0-37473	0	468	['37473']	1	IZBERG			0	47.92	42.53				1	0	63			Izberbash									[36, 38, 39, 85, 104, 105, 106, 107, 117]							L.Haimberger	0
468	0-20000-0-43347	0	469	['43347']	1	KARAIKAL			0	79.83	10.92				1	0	63			Nagapattinam									[36, 38, 39, 85, 104, 105, 106, 107, 117]							L.Haimberger	0
469	0-20000-0-01035	0	470	['01035']	1	LYNGEN GJERDVASSBU			0	20.09	69.56				1	0	63			Tromso									[36, 38, 39, 85, 104, 105, 106, 107, 117]							L.Haimberger	0
470	0-20000-0-65376	0	471	['65376']	1	ATAKPAME			0	1.12	7.58				1	0	63			Atakpame									[104, 105, 106, 107, 117]							L.Haimberger	0
471	0-20000-0-48372	0	472	['48372']	1	SUKHOTHAI			0	99.8	17.11				1	0	63			Sukhothai									[104, 105, 106, 107, 117]							L.Haimberger	0
472	0-20000-0-83497	0	473	['83497']	1	CARAVELAS (83498-0)			0	-39.25	-17.73				1	0	63			Caravelas									[36, 38, 39, 85, 104, 105, 106, 107, 117]							L.Haimberger	0
473	0-20000-0-96837	0	474	['96837']	1	SEMARANG			0	110.42	-6.97				1	0	63			Semarang									[104, 105, 106, 107, 117]							L.Haimberger	0
474	0-20000-0-41494	0	475	['41499']	1	SOCOTRA			0	53.9	12.63				1	0	63			Bereda									[104, 105, 106, 107, 117]							L.Haimberger	0
475	0-20000-0-28645	0	476	['28642']	1	CHELYABINSK-GOROD			0	61.3	55.15				1	0	63			Chelyabinsk									[36, 38, 39, 85, 104, 105, 106, 107, 117]							L.Haimberger	0
476	0-20000-0-91184	0	477	['91184']	1	WAIMANALO, OAHU			0	-157.72	21.33				1	0	63			Kailua									[104, 105, 106, 107, 117]							L.Haimberger	0
477	0-20000-0-40550	0	478	['40550']	1	ABDALY			0	47.69	30.07				1	0	63			Khorramshahr									[104, 105, 106, 107, 117]							L.Haimberger	0
478	0-20000-0-47052	0	479	['47052']	1	YANGDOK			0	126.65	39.22				1	0	63			Seoul									[36, 38, 39, 85, 104, 105, 106, 107, 117]							L.Haimberger	0
479	0-20000-0-38856	0	480	['40900']	1	DARVAZ			0	70.88	38.47				1	0	63			Garm									[36, 38, 39, 85, 104, 105, 106, 107, 117]							L.Haimberger	0
480	0-20000-0-61096	0	481	['61096']	1	MAINE-SOROA			0	11.98	13.23				1	0	63			Maine-Soroa									[36, 38, 39, 85, 104, 105, 106, 107, 117]							L.Haimberger	0
481	0-20000-0-41267	0	482	['41267']	1	QALHAT			0	59.4	22.67				1	0	63			Sur									[104, 105, 106, 107, 117]							L.Haimberger	0
482	0-20000-0-41946	0	483	['41946']	1	SATKHIRA			0	89.08	22.72				1	0	63			Satkhira									[104, 105, 106, 107, 117]							L.Haimberger	0
483	0-20000-0-47576	0	484	['47577']	1	MUTSU			0	141.21	41.28				1	0	63			Mutsu									[36, 38, 39, 85, 104, 105, 106, 107, 117]							L.Haimberger	0
484	0-20000-0-31655	0	485	['31655']	1	TROICKOE			0	136.57	49.45				1	0	63			Elban									[36, 38, 39, 85, 104, 105, 106, 107, 117]							L.Haimberger	0
485	0-20000-0-38816	0	486	['38816']	1	MINCHUKUR			0	66.93	38.65				1	0	63			Harper									[36, 38, 39, 85, 104, 105, 106, 107, 117]							L.Haimberger	0
486	0-20000-0-70296	0	487	['70296']	1	CORDOVA/MILE 13			0	-145.5	60.5				1	0	63			Anchorage									[104, 105, 106, 107, 117]							L.Haimberger	0
487	0-20000-0-16332	0	488	['16332']	1	LECCE (16332-0)			0	18.14	40.24				1	0	63			Galatina									[36, 38, 39, 85, 104, 105, 106, 107, 117]							L.Haimberger	0
488	0-20000-0-16442	0	489	['16442']	1	GIBILMANNA			0	14.03	37.99				1	0	63			Cefalu									[104, 105, 106, 107, 117]							L.Haimberger	0
489	0-20000-0-67771	0	490	['67771']	1	CHINHOYI			0	30.2	-17.37				1	0	63			Chinhoyi									[104, 105, 106, 107, 117]							L.Haimberger	0
490	0-20000-0-43182	0	491	['43182']	1	NANDIGAMA			0	80.28	16.78				1	0	63			Nandigama									[104, 105, 106, 107, 117]							L.Haimberger	0
491	0-20000-0-03305	0	492	['03406']	1	CAPEL CURIG NO 3			0	-3.94	53.09				1	0	63			Colwyn Bay									[104, 105, 106, 107, 117]							L.Haimberger	0
492	0-20000-0-06391	0	493	['10404']	1	ARCEN AWS			0	6.2	51.5				1	0	63			Goch									[36, 38, 39, 85, 104, 105, 106, 107, 117]							L.Haimberger	0
493	0-20000-0-17170	0	494	['17170']	1	VAN/FERITMELEN			0	43.34	38.47				1	0	63			Van									[36, 38, 39, 85, 104, 105, 106, 107, 117]							L.Haimberger	0
494	0-20000-0-16362	0	495	['80362']	1	LAMEZIA TERME			0	16.24	38.91				1	0	63			Catanzaro									[104, 105, 106, 107, 117]							L.Haimberger	0
495	0-20000-0-17292	0	496	['17292']	1	MUGLA			0	28.37	37.21				1	0	63			Mugla									[36, 38, 39, 85, 104, 105, 106, 107, 117]							L.Haimberger	0
496	0-20000-0-26509	0	497	['26509']	1	KLAIPEDA			0	21.09	55.73				1	0	63			Klaipeda									[36, 38, 39, 85, 104, 105, 106, 107, 117]							L.Haimberger	0
497	0-20000-0-48067	0	498	['48067']	1	YAMETHIN			0	96.15	20.42				1	0	63			Yamethin									[104, 105, 106, 107, 117]							L.Haimberger	0
498	0-20000-0-94336	0	499	['94336']	1	THE MONUMENT AIRPORT			0	139.93	-21.81				1	0	63			Mount Isa									[104, 105, 106, 107, 117]							L.Haimberger	0
499	0-20000-0-94641	0	500	['94641']	1	KATANNING			0	117.61	-33.69				1	0	63			None									[36, 38, 39, 85, 104, 105, 106, 107, 117]							L.Haimberger	0
500	0-20000-0-95146	0	501	['94146']	1	NGAYAWILI			0	135.57	-12.0				1	0	63			Katherine									[104, 105, 106, 107, 117]							L.Haimberger	0
501	0-20000-0-62121	0	502	['62121']	1	EL HAMADA			0	12.93	29.52				1	0	63			Mizdah									[104, 105, 106, 107, 117]							L.Haimberger	0
502	0-20000-0-31713	0	503	['31713']	1	BIROBIDZHAN			0	132.95	48.73				1	0	63			Birobidzhan									[36, 38, 39, 85, 104, 105, 106, 107, 117]							L.Haimberger	0
503	0-20000-0-63180	0	504	['63180']	1	ERIGAVO			0	47.37	10.63				1	0	63			Bosaso									[36, 38, 39, 85, 104, 105, 106, 107, 117]							L.Haimberger	0
504	0-20000-0-67421	0	505	['67421']	1	CHITIPA			0	33.27	-9.7				1	0	63			Itumba									[104, 105, 106, 107, 117]							L.Haimberger	0
505	0-20000-0-48095	0	506	['48095']	1	MAUBIN			0	95.65	16.73				1	0	63			Maubin									[104, 105, 106, 107, 117]							L.Haimberger	0
506	0-20000-0-61437	0	507	['61437']	1	AKJOUJT			0	-14.37	19.75				1	0	63			Atar									[104, 105, 106, 107, 117]							L.Haimberger	0
507	0-20000-0-23518	0	508	['23518']	1	UST'-SUGOR			0	57.62	64.27				1	0	63			Vuktyl									[104, 105, 106, 107, 117]							L.Haimberger	0
508	0-20000-0-78311	0	509	['78311']	1	LA BAJADA, PINAR DEL RIO			0	-84.47	21.92				1	0	63			Mantua									[36, 38, 39, 85, 104, 105, 106, 107, 117]							L.Haimberger	0
509	0-20000-0-41264	0	510	['41264']	1	ADAM AIRPORT			0	57.37	22.5				1	0	63			Nizwa									[104, 105, 106, 107, 117]							L.Haimberger	0
510	0-20000-0-42419	0	511	['42419']	1	GOHPUR			0	93.58	26.83				1	0	63			Itanagar									[104, 105, 106, 107, 117]							L.Haimberger	0
511	0-20000-0-47022	0	512	['47022']	1	PUNGSAN			0	128.15	40.82				1	0	63			Linjiang									[36, 38, 39, 85, 104, 105, 106, 107, 117]							L.Haimberger	0
512	0-20000-0-94872	0	513	['94872']	1	FERNY CREEK			0	145.35	-37.87				1	0	63			Cranbourne									[36, 38, 39, 85, 104, 105, 106, 107, 117]							L.Haimberger	0
513	0-20000-0-89575	0	514	['89575']	1	DRUZHNAYA-4			0	73.71	-69.74				1	0	63			None									[36, 38, 39, 85, 104, 105, 106, 107, 117]							L.Haimberger	0
514	0-20000-0-67767	0	515	['67767']	1	KANYEMBA			0	30.42	-15.63				1	0	63			Karoi									[104, 105, 106, 107, 117]							L.Haimberger	0
515	0-20000-0-94213	0	516	['94213']	1	WARMUN			0	128.22	-17.02				1	0	63			Katherine									[104, 105, 106, 107, 117]							L.Haimberger	0
516	0-20000-0-38944	0	517	['40928']	1	PARKHAR			0	69.38	37.48				1	0	63			Cah Ab									[104, 105, 106, 107, 117]							L.Haimberger	0
517	0-20000-0-40419	0	518	['40419']	1	DAMMAM-A.W.S.			0	50.13	26.4				1	0	63			Sayhat									[104, 105, 106, 107, 117]							L.Haimberger	0
518	0-20000-0-60430	0	519	['58570']	1	MILIANA			0	2.23	36.3				1	0	63			Medea									[104, 105, 106, 107, 117]							L.Haimberger	0
519	0-20000-0-42131	0	520	['42131']	1	HISSAR			0	75.73	29.17				1	0	63			Hisar									[106, 107, 117]							L.Haimberger	0
520	0-20000-0-07610	0	521	['07610']	1	PAU-UZEIN			0	-0.42	43.38				1	0	63			Lons									[36, 38, 39, 85, 104, 105, 106, 107, 117]							L.Haimberger	0
521	0-20000-0-43315	0	522	['43315']	1	KANNUR			0	75.33	11.83				1	0	63			Dharmadam									[39, 106, 107, 117]							L.Haimberger	0
522	0-20000-0-37958	0	523	['37958']	1	MEGHRI			0	46.24	38.9				1	0	63			Kapan									[104, 105, 106, 107, 117]							L.Haimberger	0
523	0-20000-0-38198	0	524	['38198']	1	TURKESTAN			0	68.19	43.27				1	0	63			Turkistan									[36, 38, 39, 85, 104, 105, 106, 107, 117]							L.Haimberger	0
524	0-20000-0-33663	0	525	['33663']	1	Mohyliv-Podilskyi			0	27.78	48.45				1	0	63			Briceni									[36, 38, 39, 85, 104, 105, 106, 107, 117]							L.Haimberger	0
525	0-20000-0-61489	0	526	['61489']	1	ROSSO			0	-15.82	16.5				1	0	63			Richard Toll									[104, 105, 106, 107, 117]							L.Haimberger	0
526	0-20000-0-83781	0	527	['83781']	1	MARTE (AERO)			0	-46.63	-23.5				1	0	63			Sao Paulo									[104, 105, 106, 107, 117]							L.Haimberger	0
527	0-20000-0-94276	0	528	['94276']	1	PALMERVILLE			0	144.08	-16.0				1	0	63			Cairns									[104, 105, 106, 107, 117]							L.Haimberger	0
528	0-20000-0-34003	0	529	['34003']	1	PONYRI			0	36.3	52.32				1	0	63			Zheleznogorsk									[36, 38, 39, 85, 104, 105, 106, 107, 117]							L.Haimberger	0
529	0-20000-0-08558	0	530	['08557']	1	EVORA / C.C.			0	-7.89	38.54				1	0	63			Evora									[36, 38, 39, 85, 104, 105, 106, 107, 117]							L.Haimberger	0
530	0-20000-0-03321	0	531	['03321']	1	HAWARDEN AIRPORT			0	-2.99	53.17				1	0	63			Chester									[36, 38, 39, 85, 104, 105, 106, 107, 117]							L.Haimberger	0
531	0-20000-0-61679	0	532	['61679']	1	KAOLACK			0	-16.07	14.13				1	0	63			Kaolack									[36, 38, 39, 85, 104, 105, 106, 107, 117]							L.Haimberger	0
532	0-20000-0-10609	0	533	['06597']	1	TRIER-PETRISBERG			0	6.66	49.75				1	0	63			Trier									[104, 105, 106, 107, 117]							L.Haimberger	0
533	0-20000-0-43310	0	534	['43310']	1	LONG ISLAND			0	92.93	12.42				1	0	63			Port Blair									[39, 106, 107, 117]							L.Haimberger	0
534	0-20000-0-64405	0	535	['64405']	1	SIBITI			0	13.35	-3.68				1	0	63			Sibiti									[104, 105, 106, 107, 117]							L.Haimberger	0
535	0-20000-0-26069	0	536	['26069']	1	BELOGORKA			0	30.13	59.35				1	0	63			Siverskiy									[36, 38, 39, 85, 104, 105, 106, 107, 117]							L.Haimberger	0
536	0-20000-0-47670	0	537	['47670']	1	YOKOHAMA			0	139.65	35.44				1	0	63			Chigasaki									[36, 38, 39, 85, 104, 105, 106, 107, 117]							L.Haimberger	0
537	0-20000-0-44225	0	538	['44225']	1	TOSONTSENGEL			0	98.27	48.76				1	0	63			Moron									[36, 38, 39, 85, 104, 105, 106, 107, 117]							L.Haimberger	0
538	0-20000-0-42708	0	539	['42708']	1	SHANTI NIKETAN			0	87.7	23.65				1	0	63			Bolpur									[36, 38, 39, 85, 104, 105, 106, 107, 117]							L.Haimberger	0
539	0-20000-0-03749	0	540	['03749']	1	LARKHILL			0	-1.81	51.2				1	0	63			Andover									[104, 105, 106, 107, 117]							L.Haimberger	0
540	0-20000-0-94234	0	541	['94234']	1	DALY WATERS AWS			0	133.38	-16.26				1	0	63			Katherine									[36, 38, 39, 85, 104, 105, 106, 107, 117]							L.Haimberger	0
541	0-20000-0-48358	0	542	['48358']	1	NAKHON PHANOM AGROMET			0	104.78	17.43				1	0	63			Nakhon Phanom									[104, 105, 106, 107, 117]							L.Haimberger	0
542	0-20000-0-02181	0	543	['02182']	1	OVERKALIX-SVARTBYN			0	22.85	66.26				1	0	63			Boden									[104, 105, 106, 107, 117]							L.Haimberger	0
543	0-20000-0-94774	0	544	['94774']	1	WILLIAMTOWN RAAF			0	151.84	-32.79				1	0	63			Newcastle									[104, 105, 106, 107, 117]							L.Haimberger	0
544	0-20000-0-35953	0	545	['35953']	1	ZHOSALY			0	64.09	45.51				1	0	63			Dzhusaly									[36, 38, 39, 85, 104, 105, 106, 107, 117]							L.Haimberger	0
545	0-20000-0-66152	0	546	['66152']	1	DUNDO			0	20.82	-7.4				1	0	63			Tshikapa									[36, 38, 39, 85, 104, 105, 106, 107, 117]							L.Haimberger	0
546	0-20000-0-11214	0	547	['11214']	1	PREITENEGG			0	14.92	46.94				1	0	63			Wolfsberg									[104, 105, 106, 107, 117]							L.Haimberger	0
547	0-20000-0-83895	0	548	['83895']	1	ARVOREDO			0	-48.35	-27.3				1	0	63			Porto Belo									[36, 38, 39, 85, 104, 105, 106, 107, 117]							L.Haimberger	0
548	0-20000-0-10557	0	549	['10558']	1	NEUHAUS A.R.			0	11.13	50.5				1	0	63			Sonneberg									[36, 38, 39, 85, 104, 105, 106, 107, 117]							L.Haimberger	0
549	0-20000-0-84593	0	550	['84593']	1	ATALAYA			0	-73.77	-10.72				1	0	63			Satipo									[36, 38, 39, 85, 104, 105, 106, 107, 117]							L.Haimberger	0
550	0-20000-0-62733	0	551	['62931']	1	HALFA EL GAIDIDA			0	35.6	15.32				1	0	63			Kassala									[104, 105, 106, 107, 117]							L.Haimberger	0
551	0-20000-0-70235	0	552	['70235']	1	SPARREVOHN AFS			0	-155.57	61.1				1	0	63			None									[104, 105, 106, 107, 117]							L.Haimberger	0
552	0-20000-0-47423	0	553	['47423']	1	MURORAN (47423-0)			0	140.98	42.31				1	0	63			Muroran									[104, 105, 106, 107, 117]							L.Haimberger	0
553	0-20000-0-82689	0	554	['82689']	1	SAO GONCALO (82689-0)			0	-38.22	-6.75				1	0	63			Sousa									[36, 38, 39, 85, 104, 105, 106, 107, 117]							L.Haimberger	0
554	0-20000-0-91555	0	555	['91555']	1	LAMAP (MALEKULA)			0	167.8	-16.42				1	0	63			Luganville									[104, 105, 106, 107, 117]							L.Haimberger	0
555	0-20000-0-22573	0	556	['22573']	1	LESUKONSKOE			0	45.77	64.9				1	0	63			Pervomayskiy									[36, 38, 39, 85, 104, 105, 106, 107, 117]							L.Haimberger	0
556	0-20000-0-67563	0	557	['67563']	1	KAFIRONDA			0	28.12	-12.6				1	0	63			Chambishi									[104, 105, 106, 107, 117]							L.Haimberger	0
557	0-20000-0-04101	0	558	['04001']	1	BJARGTANGAR			0	-24.53	65.5				1	0	63			Reykjavik									[36, 38, 39, 85, 104, 105, 106, 107, 117]							L.Haimberger	0
558	0-20000-0-92058	0	559	['94058']	1	TUFI			0	149.32	-9.08				1	0	63			Popondetta									[36, 38, 39, 85, 104, 105, 106, 107, 117]							L.Haimberger	0
559	0-20000-0-65545	0	560	['65545']	1	BONDOUKOU			0	-2.78	8.05				1	0	63			Bondoukou									[104, 105, 106, 107, 117]							L.Haimberger	0
560	0-20000-0-72404	0	561	['72404']	1	PATUXENT RIVER/NAS, MD.			0	-76.4	38.28				1	0	63			Lexington Park									[36, 38, 39, 85, 104, 105, 106, 107, 117]							L.Haimberger	0
561	0-20000-0-76750	0	562	['76750']	1	CHETUMAL, Q.R.			0	-88.33	18.5				1	0	63			Chetumal									[104, 105, 106, 107, 117]							L.Haimberger	0
562	0-20000-0-78267	0	563	['78267']	1	GUANTANAMO, ORIENTE (78367-0)			0	-75.13	19.9				1	0	63			Guantanamo									[36, 38, 39, 85, 104, 105, 106, 107, 117]							L.Haimberger	0
563	0-20000-0-40918	0	564	['40918']	1	ISKACHEM			0	71.57	36.7				1	0	63			Eskasem									[36, 38, 39, 85, 104, 105, 106, 107, 117]							L.Haimberger	0
564	0-20000-0-67575	0	565	['67575']	1	MKUSHI			0	29.43	-13.63				1	0	63			Mkushi									[104, 105, 106, 107, 117]							L.Haimberger	0
565		0	566	['94050']	1				0						1	0	63			Lae									[36, 38, 39, 85, 104, 105, 106, 107, 117]							L.Haimberger	0
566	0-20000-0-87585	0	567	['87585']	1	EZEIZA AERO			0	-58.54	-34.82				1	0	63			San Vicente									[104, 105, 106, 107, 117]							L.Haimberger	0
567	0-20000-0-61043	0	568	['61043']	1	TAHOUA			0	5.25	14.9				1	0	63			Tahoua									[36, 38, 39, 85, 104, 105, 106, 107, 117]							L.Haimberger	0
568	0-20000-0-43331	0	569	['43328']	1	M.O. PONDICHERRY			0	79.82	11.97				1	0	63			Pondicherry									[36, 38, 39, 85, 104, 105, 106, 107, 117]							L.Haimberger	0
569	0-20000-0-61731	0	570	['61731']	1	BASSE			0	-14.22	13.32				1	0	63			Basse									[104, 105, 106, 107, 117]							L.Haimberger	0
570	0-20000-0-94134	0	571	['94134']	1	BLACK POINT			0	132.14	-11.15				1	0	63			Darwin									[104, 105, 106, 107, 117]							L.Haimberger	0
571	0-20000-0-64701	0	572	['64701']	1	MAO			0	15.32	14.12				1	0	63			Mao									[36, 38, 39, 85, 104, 105, 106, 107, 117]							L.Haimberger	0
572	0-20000-0-89175	0	573	['89175']	1	BROCKTON			0	-174.67	-78.8				1	0	63			None									[36, 38, 39, 85, 104, 105, 106, 107, 117]							L.Haimberger	0
573	0-20000-0-02520	0	574	['02520']	1	SATENAS			0	12.71	58.43				1	0	63			Vanersborg									[104, 105, 106, 107, 117]							L.Haimberger	0
574	0-20000-0-94274	0	575	['94275']	1	GEORGETOWN AIRPORT			0	143.53	-18.3				1	0	63			Innisfail									[104, 105, 106, 107, 117]							L.Haimberger	0
575	0-20000-0-06180	0	576	['06180']	1	KOEBENHAVNS LUFTHAVN			0	12.65	55.61				1	0	63			Dragor									[104, 105, 106, 107, 117]							L.Haimberger	0
576	0-20000-0-28615	0	577	['28615']	1	BAKALY			0	53.79	55.18				1	0	63			Chekmagush									[36, 38, 39, 85, 104, 105, 106, 107, 117]							L.Haimberger	0
577	0-20000-0-84001	0	578	['84001']	1	BALTRA AEROPUERTO (GALAPAGOS)			0	-90.27	-0.45				1	0	63			None									[36, 38, 39, 85, 104, 105, 106, 107, 117]							L.Haimberger	0
578	0-20000-0-98323	0	579	['98323']	1	NAULA POINT			0	119.97	15.7				1	0	63			Santa Cruz									[36, 38, 39, 85, 104, 105, 106, 107, 117]							L.Haimberger	0
579	0-20000-0-62750	0	580	['62750']	1	ED DUEIM			0	32.33	14.0				1	0	63			Kinanah									[104, 105, 106, 107, 117]							L.Haimberger	0
580	0-20000-0-14253	0	581	['13138']	1	BJELOVAR			0	16.87	45.91				1	0	63			Bjelovar									[36, 38, 39, 85, 104, 105, 106, 107, 117]							L.Haimberger	0
581	0-20000-0-78547	0	582	['78547']	1	CHRISTIANSTED/ALEX. HAMILTON FIELD,  ST. CROIX			0	-64.8	17.7				1	0	63			Fajardo									[36, 38, 39, 85, 104, 105, 106, 107, 117]							L.Haimberger	0
582	0-20000-0-37017	0	583	['37017']	1	TUAPSE (37011-1)			0	39.03	44.1				1	0	63			Tuapse									[104, 105, 106, 107, 117]							L.Haimberger	0
583	0-20000-0-65275	0	584	['65272']	1	OGOJA			0	8.8	6.67				1	0	63			Otukpo									[36, 38, 39, 85, 104, 105, 106, 107, 117]							L.Haimberger	0
584	0-20000-0-92082	0	585	['94082']	1	NUGURIA			0	154.67	-3.32				1	0	63			Kokopo									[36, 38, 39, 85, 104, 105, 106, 107, 117]							L.Haimberger	0
585	0-20000-0-96749	0	586		1	JAKARTA/SOEKARNO-HATTA			0	106.65	-6.12				1	0	63			Teluknaga									[36, 38, 39, 85, 104, 105, 106, 107, 117]							L.Haimberger	0
586	0-20000-0-06080	0	587	['06080']	1	ESBJERG LUFTHAVN			0	8.56	55.53				1	0	63			Esbjerg									[104, 105, 106, 107, 117]							L.Haimberger	0
587	0-152-0-85471	0	588	['85470']	1	Copiapó Universidad de Atacama			0	-70.35	-27.36				1	0	63			Copiapo									[36, 38, 39, 85, 104, 105, 106, 107, 117]							L.Haimberger	0
588	0-20000-0-61891	0	589	['61891']	1	DARU			0	-10.85	7.98				1	0	63			Segbwema									[104, 105, 106, 107, 117]							L.Haimberger	0
589	0-20000-0-61090	0	590	['59470']	1	ZINDER			0	8.98	13.78				1	0	63			Zinder									[104, 105, 106, 107, 117]							L.Haimberger	0
590	0-20000-0-94214	0	591	['94214']	1	WYNDHAM			0	128.12	-15.49				1	0	63			Darwin									[104, 105, 106, 107, 117]							L.Haimberger	0
591	0-20000-0-94620	0	592	['94620']	1	DWELLINGUP			0	116.06	-32.71				1	0	63			Mandurah									[36, 38, 39, 85, 104, 105, 106, 107, 117]							L.Haimberger	0
592	0-20000-0-36639	0	593	['36639']	1	URZHAR			0	81.62	47.12				1	0	63			Urdzhar									[104, 105, 106, 107, 117]							L.Haimberger	0
593	0-20000-0-62425	0	594	['62425']	1	SHARK-EL-OUINAT			0	28.72	22.58				1	0	63			Aswan									[104, 105, 106, 107, 117]							L.Haimberger	0
594	0-20000-0-06010	0	595	['06010']	1	TORSHAVN			0	-6.76	62.02				1	0	63			Torshavn									[104, 105, 106, 107, 117]							L.Haimberger	0
595	0-20000-0-72211	0	596	['72211']	1	TAMPA/INT., FL.			0	-82.53	27.97				1	0	63			Egypt Lake-Leto									[36, 38, 39, 85, 104, 105, 106, 107, 117]							L.Haimberger	0
596	0-20000-0-98336	0	597	['98336']	1	CASIGURAN			0	122.12	16.25				1	0	63			Santiago									[104, 105, 106, 107, 117]							L.Haimberger	0
597	0-20000-0-40883	0	598	['40883']	1	BANDAR LENGEH			0	54.83	26.53				1	0	63			Bandar-E Lengeh									[104, 105, 106, 107, 117]							L.Haimberger	0
598	0-20000-0-38683	0	599	['38683']	1	BUHARA			0	64.62	39.72				1	0	63			Kogon									[36, 38, 39, 85, 104, 105, 106, 107, 117]							L.Haimberger	0
599	0-20000-0-83767	0	600	['83767']	1	MARINGA (83767-0)			0	-51.95	-23.42				1	0	63			Maringa									[36, 38, 39, 85, 104, 105, 106, 107, 117]							L.Haimberger	0
600	0-20000-0-68916	0	601	['68916']	1	CAPE POINT (68916-0)			0	18.49	-34.35				1	0	63			Somerset West									[36, 38, 39, 85, 104, 105, 106, 107, 117]							L.Haimberger	0
601	0-20000-0-43113	0	602	['43113']	1	SATARA			0	74.05	17.52				1	0	63			Rahimatpur									[104, 105, 106, 107, 117]							L.Haimberger	0
602	0-20000-0-22641	0	603	['22641']	1	ONEGA			0	38.12	63.9				1	0	63			Onega									[104, 105, 106, 107, 117]							L.Haimberger	0
603	0-20000-0-96557	0	604	['96557']	1	NANGAPINOH			0	111.78	-0.35				1	0	63			Sri Aman									[104, 105, 106, 107, 117]							L.Haimberger	0
604	0-20000-0-10519	0	605	['10518']	1	KOENIGSWINTER-HEIDERHOF			0	7.2	50.73				1	0	63			Alfter									[104, 105, 106, 107, 117]							L.Haimberger	0
605	0-20000-0-96505	0	606	['96505']	1	LONG BAWAN/JUVAI SEMARING			0	115.68	3.73				1	0	63			Limbang									[104, 105, 106, 107, 117]							L.Haimberger	0
606	0-20000-0-71768	0	607	['71768']	1	SUMMERLAND CS, BC			0	-119.63	49.55				1	0	63			Penticton									[104, 105, 106, 107, 117]							L.Haimberger	0
607	0-20000-0-43197	0	608	['43197']	1	BELGAUM			0	74.53	15.85				1	0	63			Belgaum									[104, 105, 106, 107, 117]							L.Haimberger	0
608	0-20000-0-92070	0	609	['94075']	1	SIDEIA			0	150.67	-10.62				1	0	63			Alotau									[104, 105, 106, 107, 117]							L.Haimberger	0
609	0-20000-0-15482	0	610	['15482']	1	CALAFAT			0	22.95	43.98				1	0	63			Calafat									[36, 38, 39, 85, 104, 105, 106, 107, 117]							L.Haimberger	0
610	0-20000-0-01253	0	611	['01252']	1	SOKNEDAL			0	10.18	62.95				1	0	63			Trondheim									[36, 38, 39, 85, 104, 105, 106, 107, 117]							L.Haimberger	0
611	0-20000-0-40371	0	612	['40371']	1	TOBAGE			0	38.72	29.67				1	0	63			Sakakah									[36, 38, 39, 85, 104, 105, 106, 107, 117]							L.Haimberger	0
612	0-20000-0-94655	0	613	['94655']	1	TARCOOLA AERO			0	134.58	-30.7				1	0	63			Flinders									[104, 105, 106, 107, 117]							L.Haimberger	0
613	0-20000-0-23274	0	614	['23274']	1	IGARKA			0	86.57	67.47				1	0	63			Dudinka									[36, 38, 39, 85, 104, 105, 106, 107, 117]							L.Haimberger	0
614	0-20000-0-61833	0	615	['61007']	1	FARANAH/BADALA			0	-10.75	10.03				1	0	63			Dabola									[104, 105, 106, 107, 117]							L.Haimberger	0
615	0-20000-0-02020	0	616	['02020']	1	KATTERJAKK			0	18.17	68.42				1	0	63			Narvik									[36, 38, 39, 85, 104, 105, 106, 107, 117]							L.Haimberger	0
616	0-20000-0-98231	0	617	['98231']	1	APARRI RADAR			0	121.12	18.02				1	0	63			Claveria									[104, 105, 106, 107, 117]							L.Haimberger	0
617	0-20000-0-60560	0	618	['60560']	1	AIN-SEFRA			0	-0.6	32.77				1	0	63			Aflu									[104, 105, 106, 107, 117]							L.Haimberger	0
618	0-20000-0-83618	0	619	['83618']	1	TRES LAGOAS (83618-0)			0	-51.7	-20.78				1	0	63			Tres Lagoas									[36, 38, 39, 85, 104, 105, 106, 107, 117]							L.Haimberger	0
619	0-20000-0-11075	0	620	['11075']	1	LANGENLOIS			0	15.7	48.47				1	0	63			Krems									[104, 105, 106, 107, 117]							L.Haimberger	0
620	0-20000-0-12210	0	621	['12210']	1	RESKO-SMOLSKO			0	15.39	53.76				1	0	63			Lobez									[36, 38, 39, 85, 104, 105, 106, 107, 117]							L.Haimberger	0
621		0	622	['94037']	1				0						1	0	63			Port Moresby									[104, 105, 106, 107, 117]							L.Haimberger	0
622	0-20000-0-65028	0	623	['65028']	1	KATSINA			0	7.68	13.02				1	0	63			Katsina									[104, 105, 106, 107, 117]							L.Haimberger	0
623	0-20000-0-03002	0	624	['02001']	1	BALTASOUND NO 2			0	-0.86	60.75				1	0	63			Fraserburgh									[36, 38, 39, 85, 104, 105, 106, 107, 117]							L.Haimberger	0
624	0-20000-0-72289	0	625	['72289']	1	MOUNT WILSON, CA.			0	-118.07	34.23				1	0	63			Altadena									[36, 38, 39, 85, 104, 105, 106, 107, 117]							L.Haimberger	0
625	0-20000-0-11082	0	626	['11181']	1	GUMPOLDSKIRCHEN			0	16.28	48.04				1	0	63			Bad Voslau									[104, 105, 106, 107, 117]							L.Haimberger	0
626	0-20000-0-27957	0	627	['27957']	1	KIRSANOV			0	42.72	52.67				1	0	63			Kirsanov									[36, 38, 39, 85, 104, 105, 106, 107, 117]							L.Haimberger	0
627	0-20000-0-38383	0	628	['38383']	1	SHASENEM			0	58.72	41.58				1	0	63			Akdepe									[36, 38, 39, 85, 104, 105, 106, 107, 117]							L.Haimberger	0
628	0-20000-0-96315	0	629	['95418']	1	BRUNEI AIRPORT			0	114.93	4.93				1	0	63			Limbang									[104, 105, 106, 107, 117]							L.Haimberger	0
629	0-20000-0-04069	0	630	['04069']	1	STADARHOLL			0	-17.2	65.82				1	0	63			Akureyri									[36, 38, 39, 85, 104, 105, 106, 107, 117]							L.Haimberger	0
630	0-20000-0-87568	0	631	['87568']	1	DON TORCUATO AERO			0	-58.62	-34.48				1	0	63			Lujan									[36, 38, 39, 85, 104, 105, 106, 107, 117]							L.Haimberger	0
631	0-20000-0-42147	0	632	['42147']	1	MUKTESHWAR KUMAON			0	79.65	29.47				1	0	63			Naini Tal									[36, 38, 39, 85, 104, 105, 106, 107, 117]							L.Haimberger	0
632	0-20000-0-65503	0	633	['65521']	1	OUAGADOUGOU			0	-1.52	12.35				1	0	63			Ouagadougou									[104, 105, 106, 107, 117]							L.Haimberger	0
633	0-20000-0-48103	0	634	['48103']	1	MAWLAMYINE			0	97.62	16.5				1	0	63			Mawlamyine									[104, 105, 106, 107, 117]							L.Haimberger	0
634	0-20000-0-17270	0	635	['17270']	1	SANLIURFA			0	38.79	37.16				1	0	63			Urfa									[36, 38, 39, 85, 104, 105, 106, 107, 117]							L.Haimberger	0
635	0-20000-0-97900	0	636	['91380']	1	SAUMLAKI/OLILIT			0	131.3	-7.98				1	0	63			Tual									[104, 105, 106, 107, 117]							L.Haimberger	0
636	0-20000-0-82780	0	637	['82780']	1	PICOS (82780-0)			0	-41.48	-7.07				1	0	63			Picos									[36, 38, 39, 85, 104, 105, 106, 107, 117]							L.Haimberger	0
637	0-20000-0-72779	0	638	['72779']	1	KALISPELL/GLACIER PARK INT., MT.			0	-114.27	48.3				1	0	63			Kalispell									[36, 38, 39, 85, 104, 105, 106, 107, 117]							L.Haimberger	0
638	0-20000-0-70162	0	639	['70162']	1	UMIAT			0	-152.13	69.37				1	0	63			College									[36, 38, 39, 85, 104, 105, 106, 107, 117]							L.Haimberger	0
639	0-20000-0-64201	0	640	['64201']	1	MOANDA			0	12.42	-6.0				1	0	63			Soyo									[36, 38, 39, 85, 104, 105, 106, 107, 117]							L.Haimberger	0
640	0-20000-0-94901	0	641	['94901']	1	HUME RESERVOIR			0	147.03	-36.1				1	0	63			Albury									[104, 105, 106, 107, 117]							L.Haimberger	0
641	0-20000-0-41785	0	642	['41785']	1	BADIN			0	68.9	24.63				1	0	63			Badin									[104, 105, 106, 107, 117]							L.Haimberger	0
642	0-20000-0-01393	0	643	['01393']	1	DREVSJO			0	12.03	61.89				1	0	63			Elverum									[36, 38, 39, 85, 104, 105, 106, 107, 117]							L.Haimberger	0
643	0-20000-0-06044	0	644	['06044']	1	HALS			0	10.31	56.99				1	0	63			Frederikshavn									[36, 38, 39, 85, 104, 105, 106, 107, 117]							L.Haimberger	0
644	0-20000-0-22559	0	645	['22559']	1	HOLMOGORY			0	41.66	64.22				1	0	63			Pervomayskiy									[36, 38, 39, 85, 104, 105, 106, 107, 117]							L.Haimberger	0
645	0-20000-0-48405	0	646	['48405']	1	ROI ET			0	103.66	16.05				1	0	63			Roi Et									[36, 38, 39, 85, 104, 105, 106, 107, 117]							L.Haimberger	0
646	0-20000-0-01224	0	647	['01224']	1	AALESUND			0	6.21	62.47				1	0	63			Kristiansund									[36, 38, 39, 85, 104, 105, 106, 107, 117]							L.Haimberger	0
647	0-20000-0-33805	0	648	['33805']	1	Nikopol			0	34.4	47.59				1	0	63			Ordzhonikidze									[36, 38, 39, 85, 104, 105, 106, 107, 117]							L.Haimberger	0
648	0-20000-0-43137	0	649	['43137']	1	KHAMMAM			0	80.15	17.25				1	0	63			Khammam									[104, 105, 106, 107, 117]							L.Haimberger	0
649	0-20000-0-10513	0	650	['10513']	1	KOELN/BONN			0	7.16	50.86				1	0	63			Rosrath									[36, 38, 39, 85, 104, 105, 106, 107, 117]							L.Haimberger	0
650		0	651	['43327']	1				0						1	0	63			Karaikkudi									[104, 105, 106, 107, 117]							L.Haimberger	0
651	0-20000-0-44259	0	652	['44251']	1	CHOIBALSAN			0	114.54	48.08				1	0	63			Baruun-Urt									[36, 38, 39, 85, 104, 105, 106, 107, 117]							L.Haimberger	0
652	0-20000-0-16716	0	653	['16714']	1	ATHINAI HELLINIKON			0	23.74	37.89				1	0	63			Athens									[104, 105, 106, 107, 117]							L.Haimberger	0
653	0-20000-0-48315	0	654	['48315']	1	THA WANG PHA			0	100.81	19.12				1	0	63			Chiang Klang									[104, 105, 106, 107, 117]							L.Haimberger	0
654		0	655	['10001']	1				0						1	0	63			Esbjerg									[36, 38, 39, 85, 104, 105, 106, 107, 117]							L.Haimberger	0
655	0-20000-0-68029	0	656	['68051']	1	KASANE			0	25.15	-17.82				1	0	63			Victoria Falls									[104, 105, 106, 107, 117]							L.Haimberger	0
656	0-20000-0-85874	0	657	['85874']	1	BALMACEDA			0	-71.69	-45.91				1	0	63			Coihaique									[36, 38, 39, 85, 104, 105, 106, 107, 117]							L.Haimberger	0
657	0-20000-0-40780	0	658	['40780']	1	ILAM			0	46.4	33.59				1	0	63			Ilam									[36, 38, 39, 85, 104, 105, 106, 107, 117]							L.Haimberger	0
658	0-20000-0-14246	0	659	['13033']	1	VARAZDIN			0	16.36	46.28				1	0	63			Varazdin									[104, 105, 106, 107, 117]							L.Haimberger	0
659	0-20000-0-38944	0	660	['38944']	1	PARKHAR			0	69.38	37.48				1	0	63			Farkhor									[36, 38, 39, 85, 104, 105, 106, 107, 117]							L.Haimberger	0
660	0-20000-0-71831	0	661	['71831']	1	KAPUSKASING A, ONT			0	-82.47	49.41				1	0	63			Owen Sound									[104, 105, 106, 107, 117]							L.Haimberger	0
661	0-20000-0-60723	0	662	['60723']	1	BEJA (60723-0)			0	9.18	36.73				1	0	63			Bajah									[104, 105, 106, 107, 117]							L.Haimberger	0
662	0-20000-0-25034	0	663	['24034']	1	BUHTA AMBARCIK			0	162.3	69.62				1	0	63			None									[104, 105, 106, 107, 117]							L.Haimberger	0
663	0-20000-0-03882	0	664	['03532']	1	HERSTMONCEUX, WEST END			0	0.32	50.9				1	0	63			Rottingdean									[104, 105, 106, 107, 117]							L.Haimberger	0
664	0-20000-0-17350	0	665	['17350']	1	ADANA/BOLGE			0	35.34	37.0				1	0	63			Adana									[36, 38, 39, 85, 104, 105, 106, 107, 117]							L.Haimberger	0
665	0-20000-0-60035	0	666	['60035']	1	FUERTEVENTURA/AEROPUERTO			0	-13.86	28.44				1	0	63			Puerto Del Rosario									[104, 105, 106, 107, 117]							L.Haimberger	0
666	0-20000-0-34861	0	667	['34861']	1	ELISTA			0	44.18	46.3				1	0	63			Elista									[36, 38, 39, 85, 104, 105, 106, 107, 117]							L.Haimberger	0
667	0-20000-0-60640	0	668	['58376']	1	ILLIZI			0	8.42	26.5				1	0	63			Gat									[104, 105, 106, 107, 117]							L.Haimberger	0
