	primary_id	primary_id_scheme	record_number	secondary_id	secondary_id_scheme	station_name	station_abbreviation	alternative_name	station_crs	longitude	latitude	local_gravity	start_date	end_date	station_type	platform_type	platform_sub_type	operating_institute	operating_territory	city	contact	role	observing_frequency	reporting_time	telecommunication_method	station_automation	measuring_system_model	measuring_system_id	observed_variables	comment	optional_data	bbox_min_longitude	bbox_max_longitude	bbox_min_latitude	bbox_max_latitude	metadata_contact	metadata_contact_role
0	0-20000-0-71892	0	1	[71892]	1	VANCOUVER INT'L A, BC			0	-123.18	49.19				1	0	63			None									['38', '85', '106', '107']							L.Haimberger	0
1	0-20000-0-91385	0	2	[91385]	1	PALMYRA ISLAND			0	-162.05	5.88				1	0	63			None									['38', '85', '106', '107']							L.Haimberger	0
2	0-20000-0-80421	0	3	[80421]	1	PORLAMAR (AEROPUERTO INT. DEL CARIBE)			0	-63.97	10.92				1	0	63			None									['38', '85', '106', '107']							L.Haimberger	0
3	0-20000-0-74531	0	4	[74531]	1	AIR FORCE ACADEMY,  CO.			0	-104.82	38.97				1	0	63			None									['38', '85', '106', '107']							L.Haimberger	0
4	0-20000-0-97530	0	5	[97530]	1	MANOKWARI/RENDANI			0	134.05	-0.89				1	0	63			Manokwari									['38', '85', '106', '107']							L.Haimberger	0
5	0-20000-0-70381	0	6	[70381]	1	JUNEAU			0	-134.58	58.37				1	0	63			None									['38', '85', '106', '107']							L.Haimberger	0
6	0-20000-0-62760	0	7	[62760]	1	EL FASHER			0	25.33	13.62				1	0	63			Umm Kaddadah									['38', '85', '106', '107']							L.Haimberger	0
7	0-20000-0-43367	0	8	[43367]	1	CAR NICOBAR			0	92.83	9.17				1	0	63			Port Blair									['38', '85', '106', '107']							L.Haimberger	0
8	0-20000-0-30823	0	9	[30823]	1	ULAN-UDE			0	107.6	51.83				1	0	63			Ulan-Ude									['38', '85', '106', '107']							L.Haimberger	0
9	0-20000-0-87270	0	10	[87270]	1	RECONQUISTA AERO			0	-59.69	-29.2				1	0	63			None									['38', '85', '106', '107']							L.Haimberger	0
10	0-20000-0-91902	0	11	[91902]	1	MALDEN ISLAND (NORPAX)			0	-155.0	-4.05				1	0	63			None									['38', '85', '106', '107']							L.Haimberger	0
11	0-20000-0-85245	0	12	[85245]	1	SANTA CRUZ/EL TROMPILLO			0	-63.18	-17.8				1	0	63			None									['38', '85', '106', '107']							L.Haimberger	0
12	0-20000-0-81250	0	13	[81250]	1	TAFELBERG			0	-56.15	3.78				1	0	63			None									['38', '85', '106', '107']							L.Haimberger	0
13	0-20000-0-74530	0	14	[74530]	1	GRANADA, CO.			0	-102.18	37.77				1	0	63			None									['38', '85', '106', '107']							L.Haimberger	0
14	0-20000-0-91385	0	15	[91385]	1	PALMYRA ISLAND			0	-162.05	5.88				1	0	63			None									['38', '85', '106', '107']							L.Haimberger	0
15	0-20000-0-60141	0	16	[60141]	1	FES-SAIS			0	-4.98	33.93				1	0	63			None									['38', '85', '106', '107']							L.Haimberger	0
16	0-20000-0-70291	0	17	[70291]	1	NORTHWAY			0	-141.93	62.97				1	0	63			None									['38', '85', '106', '107']							L.Haimberger	0
17	0-20000-0-72423	0	18	[72423]	1	LOUISVILLE/STANDIFORD, KY.			0	-85.73	38.18				1	0	63			None									['38', '85', '106', '107']							L.Haimberger	0
18	0-20000-0-91176	0	19	[91176]	1	KANEOHE BAY (MCAS),  OAHU, HAWAII			0	-157.77	21.45				1	0	63			None									['38', '85', '106', '107']							L.Haimberger	0
19		0	20	[97450]	1				0						1	0	63			Manokwari									['38', '85', '106', '107']							L.Haimberger	0
20	0-20000-0-91541	0	21	[91541]	1	SANTA CRUZ (91541-0)			0	165.8	-10.7				1	0	63			Luganville									['38', '85', '106', '107']							L.Haimberger	0
21	0-20000-0-82586	0	22	[82586]	1	QUIXERAMOBIM (82586-0)			0	-39.3	-5.2				1	0	63			None									['38', '85', '106', '107']							L.Haimberger	0
22	0-20000-0-66450	0	23	[66450]	1	BAIA DOS TIGRES			0	11.72	-16.6				1	0	63			Namibe									['38', '85', '106', '107']							L.Haimberger	0
23	0-20000-0-60445	0	24	[60445]	1	SETIF/AIN ARNAT			0	5.32	36.17				1	0	63			Tazmalt									['38', '85', '106', '107']							L.Haimberger	0
24		0	25	[52856]	1				0						1	0	63			Xining									['38', '85', '106', '107']							L.Haimberger	0
25	0-20000-0-54027	0	26	[54027]	1	LINDONG			0	119.32	43.95				1	0	63			Chifeng									['38', '85', '106', '107']							L.Haimberger	0
26	0-20000-0-63533	0	27	[63533]	1	NEGHELLE			0	39.57	5.33				1	0	63			Shakiso									['38', '85', '106', '107']							L.Haimberger	0
27	0-20000-0-97120	0	28	[97120]	1	MAJENE			0	118.98	-3.55				1	0	63			Polewali									['38', '85', '106', '107']							L.Haimberger	0
28	0-20000-0-72536	0	29	[72536]	1	TOLEDO/EXPRESS, OH.			0	-83.8	41.6				1	0	63			None									['38', '85', '106', '107']							L.Haimberger	0
29	0-20000-0-96171	0	30	[96171]	1	RENGAT/JAPURA			0	102.33	-0.35				1	0	63			Mendahara									['38', '85', '106', '107']							L.Haimberger	0
30	0-20000-0-56586	0	31	[56586]	1	ZHAOTONG			0	103.75	27.33				1	0	63			Zhaotong									['38', '85', '106', '107']							L.Haimberger	0
31		0	32	[87827]	1				0						1	0	63			None									['38', '85', '106', '107']							L.Haimberger	0
32	0-12-20000-60490	0	33	[60490]	1	ORAN-SENIA			0	0.36	35.38				1	0	63			None									['38', '85', '106', '107']							L.Haimberger	0
33		0	34	[20357]	1				0						1	0	63			None									['38', '85', '106', '107']							L.Haimberger	0
34	0-20000-0-91541	0	35	[91541]	1	SANTA CRUZ (91541-0)			0	165.8	-10.7				1	0	63			Luganville									['38', '85', '106', '107']							L.Haimberger	0
35	0-20000-0-96655	0	36	[96655]	1	PALANGKA RAYA/TJILIK RIWUT			0	113.95	-2.23				1	0	63			Sampit									['38', '85', '106', '107']							L.Haimberger	0
36	0-20000-0-56951	0	37	[56951]	1	LINCANG			0	100.17	23.95				1	0	63			Simao									['38', '85', '106', '107']							L.Haimberger	0
37		0	38	[54723]	1				0						1	0	63			Binzhou									['38', '85', '106', '107']							L.Haimberger	0
38	0-20000-0-96323	0	39	[96323]	1	KUALA BELAIT			0	114.2	4.58				1	0	63			Miri									['38', '85', '106', '107']							L.Haimberger	0
39	0-20000-0-96295	0	40	[96295]	1	TANJUNG KARANG/RADIN INTEN II			0	105.18	-5.1				1	0	63			Metro									['38', '85', '106', '107']							L.Haimberger	0
40	0-20000-0-59134	0	41	[59137]	1	XIAMEN			0	118.08	24.48				1	0	63			Xiamen									['38', '85', '106', '107']							L.Haimberger	0
41	0-20000-0-40045	0	42	[40045]	1	DEIR EZZOR			0	40.15	35.32				1	0	63			Abu Kamal									['38', '85', '106', '107']							L.Haimberger	0
42	0-20000-0-54836	0	43	[54836]	1	YIYUAN			0	118.15	36.18				1	0	63			Linqu									['38', '85', '106', '107']							L.Haimberger	0
43	0-20000-0-62016	0	44	[62016]	1	MISURATA			0	15.02	32.24				1	0	63			Misratah									['38', '85', '106', '107']							L.Haimberger	0
44	0-20000-0-61856	0	45	[61856]	1	LUNGI			0	-13.2	8.62				1	0	63			None									['38', '85', '106', '107']							L.Haimberger	0
45	0-20000-0-67113	0	46	[67113]	1	MAHANORO			0	48.8	-19.83				1	0	63			Mahanoro									['38', '85', '106', '107']							L.Haimberger	0
46		0	47	[46902]	1				0						1	0	63			Panacan									['38', '85', '106', '107']							L.Haimberger	0
47	0-20000-0-72524	0	48	[72524]	1	CLEVELAND/CLEVELAND-HOPKINS, OH.			0	-81.87	41.42				1	0	63			None									['38', '85', '106', '107']							L.Haimberger	0
48	0-20000-0-71861	0	49	[71861]	1	BROADVIEW, SASK			0	-102.57	50.37				1	0	63			None									['38', '85', '106', '107']							L.Haimberger	0
49	0-20000-0-72698	0	50	[72698]	1	PORTLAND/INT., OR.			0	-122.6	45.6				1	0	63			None									['38', '85', '106', '107']							L.Haimberger	0
50	0-20000-0-96973	0	51	[96973]	1	KALIANGET (MADURA IS)			0	113.92	-7.04				1	0	63			Kalianget									['38', '85', '106', '107']							L.Haimberger	0
51	0-20000-0-57662	0	52	[57662]	1	CHANGDE			0	111.68	29.05				1	0	63			Changde									['38', '85', '106', '107']							L.Haimberger	0
52	0-20000-0-96491	0	53	[96491]	1	SANDAKAN			0	118.07	5.9				1	0	63			Sandakan									['38', '85', '106', '107']							L.Haimberger	0
53	0-20000-0-32583	0	54	[32583]	1	PETROPAVLOVSK-KAMCHATSKIJ (32540-0)			0	158.58	53.08				1	0	63			Petropavlovsk-Kamchatskiy									['38', '85', '106', '107']							L.Haimberger	0
54	0-20000-0-72414	0	55	[72414]	1	CHARLESTON/KANAWHA., WV.			0	-81.6	38.37				1	0	63			None									['38', '85', '106', '107']							L.Haimberger	0
55	0-20000-0-94997	0	56	[94997]	1	HEARD ISLAND (THE SPIT)			0	73.72	-53.11				1	0	63			None									['38', '85', '106', '107']							L.Haimberger	0
56	0-20000-0-97600	0	57	[97600]	1	SANANA			0	125.98	-2.07				1	0	63			Ambon									['38', '85', '106', '107']							L.Haimberger	0
57	0-20000-0-53276	0	58	[53276]	1	JURH			0	112.9	42.4				1	0	63			Erenhot									['38', '85', '106', '107']							L.Haimberger	0
58	0-20000-0-64705	0	59	[64705]	1	BOUSSO			0	16.72	10.48				1	0	63			Bousso									['38', '85', '106', '107']							L.Haimberger	0
59	0-20000-0-48378	0	60	[48378]	1	PHITSANULOK			0	100.28	16.8				1	0	63			Phitsanulok									['38', '85', '106', '107']							L.Haimberger	0
60	0-20000-0-83967	0	61	[83967]	1	PORTO ALEGRE (83967-0)			0	-51.22	-30.02				1	0	63			None									['38', '85', '106', '107']							L.Haimberger	0
61	0-20000-0-60745	0	62	[60745]	1	GAFSA			0	8.82	34.42				1	0	63			Qafsah									['38', '85', '106', '107']							L.Haimberger	0
62	0-20000-0-30822	0	63	[30822]	1	BABUSKIN			0	105.85	51.71				1	0	63			Selenginsk									['38', '85', '106', '107']							L.Haimberger	0
63	0-20000-0-71831	0	64	[71831]	1	KAPUSKASING A, ONT			0	-82.47	49.41				1	0	63			None									['38', '85', '106', '107']							L.Haimberger	0
64	0-20000-0-63695	0	65	[63695]	1	MERU			0	37.65	0.05				1	0	63			Meru									['38', '85', '106', '107']							L.Haimberger	0
65	0-20000-0-92076	0	66	[94076]	1	KAVIENG W.O.			0	150.82	-2.57				1	0	63			Kavieng									['38', '85', '106', '107']							L.Haimberger	0
66	0-20000-0-96925	0	67	[96925]	1	SANGKAPURA (BAWEAN IS.)			0	112.66	-5.85				1	0	63			Paciran									['38', '85', '106', '107']							L.Haimberger	0
67	0-20000-2-29842	0	68	[29843]	1	Novokuznetsk			0	87.1	53.9				1	0	63			Novokuznetsk									['38', '85', '106', '107']							L.Haimberger	0
68	0-20000-0-31416	0	69	[31416]	1	IM POLINY OSIPENKO			0	136.5	52.42				1	0	63			Solnechnyy									['38', '85', '106', '107']							L.Haimberger	0
69	0-20000-0-61600	0	70	[61600]	1	SAINT-LOUIS			0	-16.45	16.05				1	0	63			None									['38', '85', '106', '107']							L.Haimberger	0
70	0-20000-0-50353	0	71	[50353]	1	HUMA			0	126.63	51.73				1	0	63			Shimanovsk									['38', '85', '106', '107']							L.Haimberger	0
71	0-20000-0-80410	0	72	[80410]	1	BARQUISIMETO			0	-69.32	10.07				1	0	63			None									['38', '85', '106', '107']							L.Haimberger	0
72	0-20000-0-54909	0	73	[54906]	1	DINGTAO			0	115.52	35.08				1	0	63			Heze									['38', '85', '106', '107']							L.Haimberger	0
73	0-20000-0-91170	0	74	[91170]	1	WAHIAWA (WHEELER/SCHOFIELD), OAHU,  HAWAII			0	-158.03	21.48				1	0	63			None									['38', '85', '106', '107']							L.Haimberger	0
74	0-20000-0-63702	0	75	[63702]	1	MBARARA			0	30.65	-0.62				1	0	63			Mbarara									['38', '85', '106', '107']							L.Haimberger	0
75	0-20000-0-60190	0	76	[60190]	1	KASBA-TADLA			0	-6.28	32.53				1	0	63			None									['38', '85', '106', '107']							L.Haimberger	0
76	0-20000-0-87509	0	77	[87509]	1	SAN RAFAEL AERO			0	-68.4	-34.59				1	0	63			None									['38', '85', '106', '107']							L.Haimberger	0
77		0	78	[74401]	1				0						1	0	63			None									['38', '85', '106', '107']							L.Haimberger	0
78	0-20000-0-72389	0	79	[72389]	1	FRESNO/AIR TERM.,  CA.			0	-119.72	36.77				1	0	63			None									['38', '85', '106', '107']							L.Haimberger	0
79	0-20000-0-61931	0	80	[61931]	1	S. TOME			0	6.72	0.38				1	0	63			Port-Gentil									['38', '85', '106', '107']							L.Haimberger	0
80	0-20000-0-47629	0	81	[47629]	1	MITO			0	140.47	36.38				1	0	63			Oarai									['38', '85', '106', '107']							L.Haimberger	0
81	0-20000-0-96195	0	82	[96195]	1	JAMBI/SULTAN TAHA			0	103.65	-1.63				1	0	63			Jambi									['38', '85', '106', '107']							L.Haimberger	0
82	0-20000-0-55696	0	83	[55696]	1	LHUNZE			0	92.47	28.42				1	0	63			Ziro									['38', '85', '106', '107']							L.Haimberger	0
83	0-20000-0-41515	0	84	[41515]	1	DROSH			0	71.78	35.57				1	0	63			Chitral									['38', '85', '106', '107']							L.Haimberger	0
84		0	85	[70204]	1				0						1	0	63			None									['38', '85', '106', '107']							L.Haimberger	0
85	0-20000-0-30683	0	86	[30683]	1	EROFEJ PAVLOVIC			0	121.93	53.97				1	0	63			Skovorodino									['38', '85', '106', '107']							L.Haimberger	0
86	0-20000-0-71086	0	87	[71086]	1	FT. PROVIDENCE, NWT			0	-117.25	61.67				1	0	63			None									['38', '85', '106', '107']							L.Haimberger	0
87	0-20000-0-74413	0	88	[74413]	1	SAYLOR CREEK GUNNERY RANGE, ID.			0	-115.7	42.53				1	0	63			None									['38', '85', '106', '107']							L.Haimberger	0
88	0-20000-0-70267	0	89	[70267]	1	FORT GREELY/ALLEN AAF, AK			0	-145.73	64.0				1	0	63			None									['38', '85', '106', '107']							L.Haimberger	0
89	0-20000-0-76491	0	90	[76491]	1	CIUDAD VICTORIA, TAMPS.			0	-99.17	23.74				1	0	63			None									['38', '85', '106', '107']							L.Haimberger	0
90	0-20000-0-15090	0	91	[15090]	1	IASI			0	27.63	47.16				1	0	63			Iasi									['38', '85', '106', '107']							L.Haimberger	0
91	0-20000-0-80453	0	92	[80453]	1	TUMEREMO			0	-61.45	7.3				1	0	63			None									['38', '85', '106', '107']							L.Haimberger	0
92	0-20000-0-71129	0	93	[71129]	1	KINDERSLEY A, SASK			0	-109.18	51.52				1	0	63			None									['38', '85', '106', '107']							L.Haimberger	0
93	0-20000-0-78925	0	94	[78925]	1	LAMENTIN-AERO			0	-61.0	14.6				1	0	63			None									['38', '85', '106', '107']							L.Haimberger	0
94	0-20000-0-58752	0	95	[58659]	1	RUIAN			0	120.65	27.78				1	0	63			Wenzhou									['38', '85', '106', '107']							L.Haimberger	0
95	0-20000-0-71869	0	96	[71869]	1	PRINCE ALBERT A, SASK			0	-105.67	53.22				1	0	63			None									['38', '85', '106', '107']							L.Haimberger	0
96	0-20000-0-87784	0	97	[87784]	1	SAN ANTONIO OESTE AERO			0	-65.03	-40.76				1	0	63			None									['38', '85', '106', '107']							L.Haimberger	0
97	0-20000-0-41992	0	98	[41992]	1	COX'S BAZAR			0	91.93	21.43				1	0	63			Teknaf									['38', '85', '106', '107']							L.Haimberger	0
98	0-20000-0-61257	0	99	[61257]	1	KAYES			0	-11.43	14.43				1	0	63			None									['38', '85', '106', '107']							L.Haimberger	0
99	0-20000-0-97690	0	100	[97690]	1	JAYAPURA/SENTANI			0	140.52	-2.58				1	0	63			Vanimo									['38', '85', '106', '107']							L.Haimberger	0
100	0-20000-0-59158	0	101	[46751]	1	TAIZHONG			0	120.68	24.15				1	0	63			Taichung									['38', '85', '106', '107']							L.Haimberger	0
101		0	102	[37189]	1				0						1	0	63			Sukhumi									['38', '85', '106', '107']							L.Haimberger	0
102	0-20000-0-48379	0	103	[48379]	1	PHETCHABUN			0	101.15	16.43				1	0	63			Phetchabun									['38', '85', '106', '107']							L.Haimberger	0
103	0-20000-0-64459	0	104	[64459]	1	IMPFONDO			0	18.07	1.62				1	0	63			Impfondo									['38', '85', '106', '107']							L.Haimberger	0
104	0-20000-0-96987	0	105	[96987]	1	BANYUWANGI			0	114.36	-8.22				1	0	63			Banyuwangi									['38', '85', '106', '107']							L.Haimberger	0
105	0-20000-0-96179	0	106	[96179]	1	SINGKEP/DABO			0	104.58	-0.48				1	0	63			Simpang									['38', '85', '106', '107']							L.Haimberger	0
106	0-20000-0-71940	0	107	[71940]	1	GRANDE PRAIRIE A, ALTA			0	-118.89	55.18				1	0	63			None									['38', '85', '106', '107']							L.Haimberger	0
107	0-20000-0-67152	0	108	[67152]	1	RANOHIRA			0	45.4	-22.55				1	0	63			Ihosy									['38', '85', '106', '107']							L.Haimberger	0
108	0-20000-0-54753	0	109	[54753]	1	LONGKOU			0	120.32	37.62				1	0	63			Longkou									['38', '85', '106', '107']							L.Haimberger	0
109	0-20000-0-63260	0	110	[63260]	1	MOGADISCIO			0	45.35	2.03				1	0	63			Mogadishu									['38', '85', '106', '107']							L.Haimberger	0
110	0-20000-0-61075	0	111	[61075]	1	BIRNI-N'KONNI			0	5.25	13.8				1	0	63			Illela									['38', '85', '106', '107']							L.Haimberger	0
111	0-20000-0-67137	0	112	[67137]	1	FIANARANTSOA			0	47.1	-21.45				1	0	63			Fianarantsoa									['38', '85', '106', '107']							L.Haimberger	0
112	0-20000-0-60430	0	113	[60430]	1	MILIANA			0	2.23	36.3				1	0	63			Medea									['38', '85', '106', '107']							L.Haimberger	0
113	0-20000-0-98425	0	114	[98425]	1	MANILA			0	120.98	14.59				1	0	63			Manila									['38', '85', '106', '107']							L.Haimberger	0
114		0	115	[48867]	1				0						1	0	63			Qui Nhon									['38', '85', '106', '107']							L.Haimberger	0
115		0	116	[1020]	1				0						1	0	63			None									['38', '85', '106', '107']							L.Haimberger	0
116	0-20000-0-57766	0	117	[57766]	1	SHAOYANG			0	111.45	27.18				1	0	63			Shaoyang									['38', '85', '106', '107']							L.Haimberger	0
117	0-20000-0-25705	0	118	[25705]	1	SREDNIKAN			0	152.32	62.45				1	0	63			Magadan									['38', '85', '106', '107']							L.Haimberger	0
118		0	119	[74505]	1				0						1	0	63			None									['38', '85', '106', '107']							L.Haimberger	0
119		0	120	[48849]	1				0						1	0	63			Hue									['38', '85', '106', '107']							L.Haimberger	0
120	0-20000-0-63630	0	121	[63630]	1	GULU			0	32.33	2.75				1	0	63			Gulu									['38', '85', '106', '107']							L.Haimberger	0
121	0-20000-0-81251	0	122	[81251]	1	SIPALIWINI			0	-56.12	2.03				1	0	63			None									['38', '85', '106', '107']							L.Haimberger	0
122	0-20000-0-30802	0	123	[30802]	1	MONDY			0	100.98	51.68				1	0	63			Slyudyanka									['38', '85', '106', '107']							L.Haimberger	0
123	0-20000-0-70268	0	124	[70268]	1	GLENNALLEN, AK			0	-145.97	62.1				1	0	63			None									['38', '85', '106', '107']							L.Haimberger	0
124	0-20000-0-63791	0	125	[63791]	1	KILIMANJARO INT			0	37.06	-3.42				1	0	63			Kingori									['38', '85', '106', '107']							L.Haimberger	0
125		0	126	[54774]	1				0						1	0	63			Weihai									['38', '85', '106', '107']							L.Haimberger	0
126	0-20000-0-96839	0	127	[96839]	1	SEMARANG/AHMAD YANI			0	110.38	-6.98				1	0	63			Semarang									['38', '85', '106', '107']							L.Haimberger	0
127	0-20000-0-74618	0	128	[74618]	1	CUDDLEBACK GUNNERY RANGE, CA.			0	-117.43	35.27				1	0	63			None									['38', '85', '106', '107']							L.Haimberger	0
128	0-20000-0-56172	0	129	[56172]	1	BARKAM			0	102.23	31.9				1	0	63			Tianpeng									['38', '85', '106', '107']							L.Haimberger	0
129	0-20000-0-40689	0	130	[40688]	1	BASRAH INT. AIRPORT			0	47.78	30.52				1	0	63			Khorramshahr									['38', '85', '106', '107']							L.Haimberger	0
130	0-20000-0-70267	0	131	[70267]	1	FORT GREELY/ALLEN AAF, AK			0	-145.73	64.0				1	0	63			None									['38', '85', '106', '107']							L.Haimberger	0
131	0-20000-0-40039	0	132	[40039]	1	RAQQA			0	39.02	35.93				1	0	63			Manbij									['38', '85', '106', '107']							L.Haimberger	0
132	0-20000-0-72412	0	133	[72412]	1	BECKLEY (RALEIGH CTY. MEMORIAL AIRPORT), WV.			0	-81.12	37.78				1	0	63			None									['38', '85', '106', '107']							L.Haimberger	0
133	0-20000-0-59358	0	134	[46742]	1	TAINAN			0	120.22	23.0				1	0	63			Tainan									['38', '85', '106', '107']							L.Haimberger	0
134	0-20000-0-40180	0	135	[40180]	1	BET DAGAN			0	34.82	32.0				1	0	63			Qiryat Ono									['38', '85', '106', '107']							L.Haimberger	0
135	0-20000-0-65510	0	136	[65510]	1	BOBO-DIOULASSO			0	-4.3	11.17				1	0	63			None									['38', '85', '106', '107']							L.Haimberger	0
136	0-20000-0-91176	0	137	[91176]	1	KANEOHE BAY (MCAS),  OAHU, HAWAII			0	-157.77	21.45				1	0	63			None									['38', '85', '106', '107']							L.Haimberger	0
137	0-20000-0-71488	0	138	[71488]	1	CARWAY, ALTA			0	-113.38	49.0				1	0	63			None									['38', '85', '106', '107']							L.Haimberger	0
138	0-20000-0-96581	0	139	[96583]	1	PONTIANAK/SUPADIO			0	109.4	-0.15				1	0	63			Pontianak									['38', '85', '106', '107']							L.Haimberger	0
139		0	140	[53420]	1				0						1	0	63			Haibowan									['38', '85', '106', '107']							L.Haimberger	0
140	0-20000-0-57902	0	141	[57902]	1	XINGREN			0	105.18	25.43				1	0	63			Xingyi									['38', '85', '106', '107']							L.Haimberger	0
141	0-20000-0-94212	0	142	[94212]	1	HALLS CREEK AIRPORT			0	127.66	-18.23				1	0	63			Katherine									['38', '85', '106', '107']							L.Haimberger	0
142	0-20000-0-68328	0	143	[68328]	1	TSABONG			0	22.45	-26.05				1	0	63			Vryburg									['38', '85', '106', '107']							L.Haimberger	0
143	0-20000-0-12580	0	144	[12580]	1	RZESZOW-JASIONKA			0	22.02	50.11				1	0	63			Rzeszow									['38', '85', '106', '107']							L.Haimberger	0
144		0	145	[51701]	1				0						1	0	63			At-Bashi									['38', '85', '106', '107']							L.Haimberger	0
145	0-20000-0-15230	0	146	[15230]	1	DEVA			0	22.9	45.87				1	0	63			Deva									['38', '85', '106', '107']							L.Haimberger	0
146	0-20000-0-71488	0	147	[71488]	1	CARWAY, ALTA			0	-113.38	49.0				1	0	63			None									['38', '85', '106', '107']							L.Haimberger	0
147	0-20000-0-86580	0	148	[86580]	1	CARRASCO			0	-56.01	-34.83				1	0	63			None									['38', '85', '106', '107']							L.Haimberger	0
148	0-20000-0-41529	0	149	[41529]	1	PESHAWAR			0	71.93	34.03				1	0	63			Amangarh									['38', '85', '106', '107']							L.Haimberger	0
149	0-20000-0-74693	0	150	[74693]	1	FORT BRAGG / SIMMONS AAF, NC.			0	-78.93	35.13				1	0	63			None									['38', '85', '106', '107']							L.Haimberger	0
150		0	151	[54723]	1				0						1	0	63			Binzhou									['38', '85', '106', '107']							L.Haimberger	0
151	0-20000-0-32150	0	152	[32152]	1	JUZHNO-SAHALINSK			0	142.72	46.95				1	0	63			Korsakov									['38', '85', '106', '107']							L.Haimberger	0
152	0-20000-0-54534	0	153	[54534]	1	TANGSHAN			0	118.1	39.65				1	0	63			Fengrun									['38', '85', '106', '107']							L.Haimberger	0
153	0-20000-0-87178	0	154	[87178]	1	POSADAS AERO			0	-55.97	-27.39				1	0	63			None									['38', '85', '106', '107']							L.Haimberger	0
154		0	155	[56533]	1				0						1	0	63			Tezu									['38', '85', '106', '107']							L.Haimberger	0
155	0-20000-0-60560	0	156	[60560]	1	AIN-SEFRA			0	-0.6	32.77				1	0	63			None									['38', '85', '106', '107']							L.Haimberger	0
156	0-20000-0-37717	0	157	[37709]	1	SEVAN OZERO			0	45.01	40.57				1	0	63			Sevan									['38', '85', '106', '107']							L.Haimberger	0
157	0-20000-0-81253	0	158	[81253]	1	COEROENI			0	-57.33	3.37				1	0	63			None									['38', '85', '106', '107']							L.Haimberger	0
158	0-20000-0-66447	0	159	[66447]	1	MAVINGA			0	20.35	-15.83				1	0	63			Rundu									['38', '85', '106', '107']							L.Haimberger	0
159	0-20000-0-16687	0	160	[16689]	1	ARAXOS (AIRPORT)			0	21.42	38.15				1	0	63			Patrai									['38', '85', '106', '107']							L.Haimberger	0
160	0-20000-0-44454	0	161	[44454]	1	KATHMANDU AIRPORT			0	85.37	27.7				1	0	63			Lalitpur									['38', '85', '106', '107']							L.Haimberger	0
161	0-20000-0-51156	0	162	[51156]	1	HOBOKSAR			0	85.75	46.81				1	0	63			Baijiantan									['38', '85', '106', '107']							L.Haimberger	0
162	0-20000-0-70296	0	163	[70296]	1	CORDOVA/MILE 13			0	-145.5	60.5				1	0	63			None									['38', '85', '106', '107']							L.Haimberger	0
163	0-20000-0-61701	0	164	[61701]	1	BANJUL/YUNDUM			0	-16.65	13.34				1	0	63			None									['38', '85', '106', '107']							L.Haimberger	0
164	0-20000-0-91554	0	165	[91554]	1	PEKOA AIRPORT (SANTO)			0	167.22	-15.52				1	0	63			Luganville									['38', '85', '106', '107']							L.Haimberger	0
165		0	166	[53853]	1				0						1	0	63			Xinzhi									['38', '85', '106', '107']							L.Haimberger	0
166	0-20000-0-62641	0	167	[62641]	1	PORT SUDAN			0	37.22	19.58				1	0	63			Sawakin									['38', '85', '106', '107']							L.Haimberger	0
167	0-20000-0-87395	0	168	[87395]	1	CONCORDIA AERO			0	-58.0	-31.3				1	0	63			None									['38', '85', '106', '107']							L.Haimberger	0
168	0-20000-0-64210	0	169	[64210]	1	KINSHASA/N'DJILI			0	15.43	-4.38				1	0	63			Kinshasa									['38', '85', '106', '107']							L.Haimberger	0
169	0-20000-0-93891	0	170	[93890]	1	DUNEDIN AERO AWS			0	170.2	-45.93				1	0	63			Dunedin									['38', '85', '106', '107']							L.Haimberger	0
170	0-20000-0-72312	0	171	[72312]	1	GREENVILLE/GREENVILLE SPARTANBURG, SC.			0	-82.22	34.9				1	0	63			None									['38', '85', '106', '107']							L.Haimberger	0
171		0	172	[46746]	1				0						1	0	63			Taipao									['38', '85', '106', '107']							L.Haimberger	0
172	0-20000-0-87078	0	173	[87078]	1	LAS LOMITAS			0	-60.59	-24.7				1	0	63			None									['38', '85', '106', '107']							L.Haimberger	0
173	0-20000-0-64750	0	174	[64750]	1	SARH			0	18.38	9.15				1	0	63			Sarh									['38', '85', '106', '107']							L.Haimberger	0
174		0	175	[71855]	1				0						1	0	63			None									['38', '85', '106', '107']							L.Haimberger	0
175	0-20000-0-67283	0	176	[67283]	1	QUELIMANE			0	36.88	-17.88				1	0	63			Quelimane									['38', '85', '106', '107']							L.Haimberger	0
176	0-20000-0-94907	0	177	[94907]	1	EAST SALE AIRPORT			0	147.13	-38.12				1	0	63			Sale									['38', '85', '106', '107']							L.Haimberger	0
177	0-20000-0-43424	0	178	[43424]	1	PUTTALAM			0	79.83	8.03				1	0	63			Anuradhapura									['38', '85', '106', '107']							L.Haimberger	0
178	0-20000-0-58754	0	179	[58754]	1	FUDING			0	120.2	27.33				1	0	63			Jinxiang									['38', '85', '106', '107']							L.Haimberger	0
179	0-20000-0-15023	0	180	[15023]	1	SUCEAVA			0	26.24	47.63				1	0	63			Suceava									['38', '85', '106', '107']							L.Haimberger	0
180	0-20000-0-60135	0	181	[60135]	1	RABAT-SALE			0	-6.76	34.05				1	0	63			None									['38', '85', '106', '107']							L.Haimberger	0
181	0-20000-0-63688	0	182	[63686]	1	ELDORET INTERNATIONAL AIRPORT			0	35.23	0.41				1	0	63			Eldoret									['38', '85', '106', '107']							L.Haimberger	0
182	0-20000-0-27595	0	183	[27596]	1	KAZAN' (27595-0)			0	49.2	55.74				1	0	63			Kazan									['38', '85', '106', '107']							L.Haimberger	0
183		0	184	[48875]	1				0						1	0	63			Buon Me Thuot									['38', '85', '106', '107']							L.Haimberger	0
184	0-20000-0-38232	0	185	[38232]	1	AKKUDUK			0	54.09	42.97				1	0	63			Zhanaozen									['38', '85', '106', '107']							L.Haimberger	0
185	0-20000-0-67665	0	186	[67665]	1	LUSAKA CITY AIRPORT			0	28.47	-15.42				1	0	63			Lusaka									['38', '85', '106', '107']							L.Haimberger	0
186	0-20000-0-41571	0	187	[41571]	1	ISLAMABAD AIRPORT			0	73.1	33.62				1	0	63			Rawalpindi									['38', '85', '106', '107']							L.Haimberger	0
187	0-20000-0-56287	0	188	[56287]	1	YA'AN			0	103.0	29.98				1	0	63			Yaan									['38', '85', '106', '107']							L.Haimberger	0
188	0-20000-0-93247	0	189	[93246]	1	ROTORUA AERO AWS			0	176.31	-38.11				1	0	63			Tokoroa									['38', '85', '106', '107']							L.Haimberger	0
189	0-20000-0-47772	0	190	[47772]	1	OSAKA			0	135.52	34.68				1	0	63			Moriguchi									['38', '85', '106', '107']							L.Haimberger	0
190	0-20000-0-42539	0	191	[42539]	1	DEESA			0	72.2	24.2				1	0	63			Disa									['38', '85', '106', '107']							L.Haimberger	0
191	0-20000-0-59134	0	192	[59137]	1	XIAMEN			0	118.08	24.48				1	0	63			Xiamen									['38', '85', '106', '107']							L.Haimberger	0
192	0-20000-0-37409	0	193	[37409]	1	MTA-SABUETI			0	43.48	42.03				1	0	63			Tkibuli									['38', '85', '106', '107']							L.Haimberger	0
193	0-20000-0-96015	0	194	[96015]	1	MEULABOH/CUT NYAK DHIEN			0	96.25	4.05				1	0	63			Meulaboh									['38', '85', '106', '107']							L.Haimberger	0
194	0-20000-0-47807	0	195	[47802]	1	FUKUOKA			0	130.38	33.58				1	0	63			Shingu									['38', '85', '106', '107']							L.Haimberger	0
195	0-20000-0-66215	0	196	[66215]	1	MALANGE			0	16.37	-9.55				1	0	63			Malanje									['38', '85', '106', '107']							L.Haimberger	0
196	0-20000-0-87534	0	197	[87534]	1	LABOULAYE AERO			0	-63.37	-34.13				1	0	63			None									['38', '85', '106', '107']							L.Haimberger	0
197	0-20000-0-63789	0	198	[63789]	1	ARUSHA			0	36.63	-3.37				1	0	63			Arusha									['38', '85', '106', '107']							L.Haimberger	0
198		0	199	[96881]	1				0						1	0	63			Madiun									['38', '85', '106', '107']							L.Haimberger	0
199		0	200	[63818]	1				0						1	0	63			Mazinde									['38', '85', '106', '107']							L.Haimberger	0
200	0-20000-0-80425	0	201	[80425]	1	MENE GRANDE			0	-70.93	9.82				1	0	63			None									['38', '85', '106', '107']							L.Haimberger	0
201		0	202	[72497]	1				0						1	0	63			None									['38', '85', '106', '107']							L.Haimberger	0
202	0-20000-0-71627	0	203	[71627]	1	MONTREAL/PIERRE ELLIOTT TRUDEAU INT'L A, QUE			0	-73.75	45.47				1	0	63			None									['38', '85', '106', '107']							L.Haimberger	0
203	0-20000-0-37897	0	204	[37897]	1	SISIAN			0	46.03	39.52				1	0	63			Sisian									['38', '85', '106', '107']							L.Haimberger	0
204	0-20000-0-51495	0	205	[51495]	1	SHISANJIANFANG			0	91.73	43.22				1	0	63			Hami									['38', '85', '106', '107']							L.Haimberger	0
205		0	206	[1020]	1				0						1	0	63			None									['38', '85', '106', '107']							L.Haimberger	0
206	0-20000-0-68727	0	207	[68728]	1	BEAUFORT WEST			0	22.57	-32.35				1	0	63			Oudtshoorn									['38', '85', '106', '107']							L.Haimberger	0
207	0-20000-0-47655	0	208	[47655]	1	OMAEZAKI			0	138.21	34.6				1	0	63			Oyama									['38', '85', '106', '107']							L.Haimberger	0
208		0	209	[89557]	1				0						1	0	63			None									['38', '85', '106', '107']							L.Haimberger	0
209	0-20000-0-61233	0	210	[61233]	1	NARA (61233-0)			0	-7.28	15.17				1	0	63			None									['38', '85', '106', '107']							L.Haimberger	0
210	0-20000-0-07661	0	211	[7660]	1	CAP CEPET			0	5.94	43.08				1	0	63			Toulon									['38', '85', '106', '107']							L.Haimberger	0
211	0-20000-0-54843	0	212	[54843]	1	WEIFANG			0	119.18	36.77				1	0	63			Weifang									['38', '85', '106', '107']							L.Haimberger	0
212	0-20000-0-57046	0	213	[57046]	1	HUA SHAN			0	110.08	34.48				1	0	63			Weinan									['38', '85', '106', '107']							L.Haimberger	0
213	0-20000-0-33587	0	214	[33587]	1	Uman			0	30.23	48.77				1	0	63			Zhashkiv									['38', '85', '106', '107']							L.Haimberger	0
214	0-20000-0-15014	0	215	[15014]	1	BAIA MARE			0	23.47	47.66				1	0	63			Baia Mare									['38', '85', '106', '107']							L.Haimberger	0
215	0-20000-0-96001	0	216	[96001]	1	SABANG/CUT BAU			0	95.32	5.87				1	0	63			Sabang									['38', '85', '106', '107']							L.Haimberger	0
216		0	217	[60678]	1				0						1	0	63			Gat									['38', '85', '106', '107']							L.Haimberger	0
217	0-20000-0-60607	0	218	[60606]	1	TIMIMOUN			0	0.28	29.25				1	0	63			Adrar									['38', '85', '106', '107']							L.Haimberger	0
218		0	219	[54339]	1				0						1	0	63			Jiupu									['38', '85', '106', '107']							L.Haimberger	0
219	0-20000-0-63125	0	220	[69004]	1	DJIBOUTI			0	43.15	11.55				1	0	63			Jibuti									['38', '85', '106', '107']							L.Haimberger	0
220	0-20000-0-41744	0	221	[41744]	1	KHUZDAR			0	66.63	27.83				1	0	63			Khuzdar									['38', '85', '106', '107']							L.Haimberger	0
221	0-20000-0-28900	0	222	[28901]	1	SAMARA (OGMS)			0	50.22	53.25				1	0	63			Samara									['38', '85', '106', '107']							L.Haimberger	0
222	0-20000-0-67012	0	223	[67012]	1	FASCENE (NOSSI-BE)			0	48.32	-13.32				1	0	63			Ambanja									['38', '85', '106', '107']							L.Haimberger	0
223	0-20000-0-30688	0	224	[30688]	1	POKROVKA			0	121.55	53.35				1	0	63			Mogocha									['38', '85', '106', '107']							L.Haimberger	0
224	0-20000-0-40621	0	225	[69792]	1	KIRKUK			0	44.4	35.47				1	0	63			Kirkuk									['38', '85', '106', '107']							L.Haimberger	0
225		0	226	[48901]	1				0						1	0	63			Bien Hoa									['38', '85', '106', '107']							L.Haimberger	0
226	0-20000-0-35925	0	227	[35925]	1	SAM			0	55.75	45.02				1	0	63			Beyneu									['38', '85', '106', '107']							L.Haimberger	0
227	0-20000-0-96595	0	228	[96595]	1	MUARA TEWEH/BERINGIN			0	114.9	-0.94				1	0	63			Amuntai									['38', '85', '106', '107']							L.Haimberger	0
228	0-20000-0-41764	0	229	[41764]	1	HYDERABAD			0	68.42	25.38				1	0	63			Hyderabad									['38', '85', '106', '107']							L.Haimberger	0
229	0-20000-0-63478	0	230	[63478]	1	GODE			0	43.58	5.9				1	0	63			Xuddur									['38', '85', '106', '107']							L.Haimberger	0
230	0-20000-0-64600	0	231	[64600]	1	BERBERATI			0	15.8	4.25				1	0	63			Berberati									['38', '85', '106', '107']							L.Haimberger	0
231	0-20000-0-72383	0	232	[72383]	1	SANDBERG, CA.			0	-118.73	34.75				1	0	63			None									['38', '85', '106', '107']							L.Haimberger	0
232		0	233	[67194]	1				0						1	0	63			Tsihombe									['38', '85', '106', '107']							L.Haimberger	0
233	0-20000-0-28676	0	234	[28679]	1	PETROPAVLOVSK (28676-0)			0	69.12	54.79				1	0	63			Petropavl									['38', '85', '106', '107']							L.Haimberger	0
234	0-20000-0-59417	0	235	[59417]	1	LONGZHOU			0	106.75	22.37				1	0	63			Lang Son									['38', '85', '106', '107']							L.Haimberger	0
235	0-20000-0-76499	0	236	[76499]	1	SOTO LA MARINA,  TAMPS.			0	-98.21	23.76				1	0	63			None									['38', '85', '106', '107']							L.Haimberger	0
236	0-20000-0-40608	0	237	[40608]	1	MOSUL			0	43.15	36.32				1	0	63			Tall Kayf									['38', '85', '106', '107']							L.Haimberger	0
237	0-20000-0-41768	0	238	[41768]	1	CHHOR			0	69.78	25.52				1	0	63			Chor									['38', '85', '106', '107']							L.Haimberger	0
238	0-20000-0-67853	0	239	[67853]	1	HWANGE NATIONAL PARK			0	27.0	-18.63				1	0	63			Hwange									['38', '85', '106', '107']							L.Haimberger	0
239	0-20000-0-65592	0	240	[65592]	1	TABOU			0	-7.37	4.42				1	0	63			None									['38', '85', '106', '107']							L.Haimberger	0
240	0-20000-0-54471	0	241	[54471]	1	YINGKOU			0	122.17	40.67				1	0	63			Dashiqiao									['38', '85', '106', '107']							L.Haimberger	0
241	0-20000-0-53564	0	242	[53564]	1	HEQU			0	111.21	39.37				1	0	63			Dongsheng									['38', '85', '106', '107']							L.Haimberger	0
242	0-20000-0-63478	0	243	[63478]	1	GODE			0	43.58	5.9				1	0	63			Xuddur									['38', '85', '106', '107']							L.Haimberger	0
243	0-20000-0-85406	0	244	[85406]	1	ARICA			0	-70.34	-18.35				1	0	63			None									['38', '85', '106', '107']							L.Haimberger	0
244	0-20000-0-30650	0	245	[30650]	1	ROMANOVKA			0	112.78	53.2				1	0	63			Chita									['38', '85', '106', '107']							L.Haimberger	0
245	0-20000-0-63674	0	246	[63674]	1	KASESE			0	30.1	0.18				1	0	63			Kasese									['38', '85', '106', '107']							L.Haimberger	0
246	0-20000-0-42591	0	247	[42591]	1	GAYA (42591-0)			0	84.95	24.75				1	0	63			Gaya									['38', '85', '106', '107']							L.Haimberger	0
247	0-20000-0-40621	0	248	[69792]	1	KIRKUK			0	44.4	35.47				1	0	63			Kirkuk									['38', '85', '106', '107']							L.Haimberger	0
248	0-20000-0-63125	0	249	[69004]	1	DJIBOUTI			0	43.15	11.55				1	0	63			Jibuti									['38', '85', '106', '107']							L.Haimberger	0
249		0	250	[32195]	1				0						1	0	63			None									['38', '85', '106', '107']							L.Haimberger	0
250	0-20000-0-31989	0	251	[31989]	1	PREOBRAZHENIE			0	133.9	42.9				1	0	63			Partizansk									['38', '85', '106', '107']							L.Haimberger	0
251	0-20000-0-60135	0	252	[60135]	1	RABAT-SALE			0	-6.76	34.05				1	0	63			None									['38', '85', '106', '107']							L.Haimberger	0
252	0-20000-0-41907	0	253	[41907]	1	ISHWARDI			0	89.05	24.13				1	0	63			Ishurdi									['38', '85', '106', '107']							L.Haimberger	0
253	0-20000-0-42105	0	254	[42105]	1	CHANDIGARH			0	76.88	30.73				1	0	63			Chandigarh									['38', '85', '106', '107']							L.Haimberger	0
254	0-20000-0-64450	0	255	[64450]	1	BRAZZAVILLE /MAYA-MAYA			0	15.25	-4.25				1	0	63			Brazzaville									['38', '85', '106', '107']							L.Haimberger	0
255	0-20000-0-47648	0	256	[47648]	1	CHOSHI			0	140.86	35.74				1	0	63			Choshi									['38', '85', '106', '107']							L.Haimberger	0
256	0-20000-0-80448	0	257	[80448]	1	GUASDUALITO			0	-70.8	7.23				1	0	63			None									['38', '85', '106', '107']							L.Haimberger	0
257	0-20000-0-83182	0	258	[83182]	1	IRECE (83182-0)			0	-41.87	-11.3				1	0	63			None									['38', '85', '106', '107']							L.Haimberger	0
258	0-20000-0-17124	0	259	[17124]	1	ESKISEHIR HAVALIMANI			0	30.58	39.78				1	0	63			Eskisehir									['38', '85', '106', '107']							L.Haimberger	0
259	0-20000-0-58040	0	260	[58040]	1	GANYU			0	119.13	34.85				1	0	63			Xinpu									['38', '85', '106', '107']							L.Haimberger	0
260	0-20000-0-74530	0	261	[74530]	1	GRANADA, CO.			0	-102.18	37.77				1	0	63			None									['38', '85', '106', '107']							L.Haimberger	0
261	0-20000-0-63230	0	262	[63230]	1	GALCAYO			0	47.27	6.85				1	0	63			Hobyo									['38', '85', '106', '107']							L.Haimberger	0
262		0	263	[63710]	1				0						1	0	63			Kericho									['38', '85', '106', '107']							L.Haimberger	0
263	0-20000-0-54094	0	264	[54094]	1	MUDANJIANG			0	129.67	44.5				1	0	63			Mudanjiang									['38', '85', '106', '107']							L.Haimberger	0
264	0-20000-0-47140	0	265	[47141]	1	GUNSAN			0	126.76	36.01				1	0	63			Seoul									['38', '85', '106', '107']							L.Haimberger	0
265	0-20000-0-52737	0	266	[52737]	1	DELINGHA			0	97.37	37.37				1	0	63			Yumen									['38', '85', '106', '107']							L.Haimberger	0
266	0-20000-0-61226	0	267	[61226]	1	GAO			0	-0.05	16.27				1	0	63			None									['38', '85', '106', '107']							L.Haimberger	0
267	0-20000-0-59007	0	268	[59007]	1	GUANGNAN			0	105.07	24.07				1	0	63			Kaihua									['38', '85', '106', '107']							L.Haimberger	0
268	0-20000-0-81202	0	269	[81202]	1	NICKERIE			0	-57.03	5.95				1	0	63			None									['38', '85', '106', '107']							L.Haimberger	0
269	0-20000-0-96249	0	270	[96249]	1	TANJUNG PANDAN/BULUH TUMBANG			0	107.75	-2.75				1	0	63			Manggar									['38', '85', '106', '107']							L.Haimberger	0
270	0-20000-0-94287	0	271	[94287]	1	CAIRNS AERO			0	145.75	-16.87				1	0	63			Cairns									['38', '85', '106', '107']							L.Haimberger	0
271	0-20000-0-80450	0	272	[80450]	1	SAN FERNANDO DE APURE			0	-67.42	7.9				1	0	63			None									['38', '85', '106', '107']							L.Haimberger	0
272		0	273	[59135]	1				0						1	0	63			Xiamen									['38', '85', '106', '107']							L.Haimberger	0
273	0-20000-0-96075	0	274	[96075]	1	GUNUNG SITOLI/BINAKA			0	97.7	1.16				1	0	63			Sibolga									['38', '85', '106', '107']							L.Haimberger	0
274	0-20000-0-65082	0	275	[65082]	1	MAIDUGURI			0	13.08	11.85				1	0	63			Maiduguri									['38', '85', '106', '107']							L.Haimberger	0
275	0-20000-0-67441	0	276	[67441]	1	MWINILUNGA			0	24.43	-11.75				1	0	63			Mwinilunga									['38', '85', '106', '107']							L.Haimberger	0
276	0-20000-0-56778	0	277	[56779]	1	KUNMING			0	102.68	25.02				1	0	63			Kunming									['38', '85', '106', '107']							L.Haimberger	0
277	0-20000-0-63720	0	278	[63720]	1	EMBU			0	37.5	-0.5				1	0	63			Embu									['38', '85', '106', '107']							L.Haimberger	0
278	0-20000-0-47891	0	279	[47891]	1	TAKAMATSU			0	134.05	34.32				1	0	63			Shido									['38', '85', '106', '107']							L.Haimberger	0
279	0-20000-0-85268	0	280	[85268]	1	ROBORE			0	-59.77	-18.32				1	0	63			None									['38', '85', '106', '107']							L.Haimberger	0
280		0	281	[67017]	1				0						1	0	63			Sambava									['38', '85', '106', '107']							L.Haimberger	0
281	0-20000-0-47605	0	282	[47605]	1	KANAZAWA			0	136.63	36.59				1	0	63			Nonoichi									['38', '85', '106', '107']							L.Haimberger	0
282	0-20000-0-81209	0	283	[81209]	1	STOELMANSEILAND			0	-54.42	4.35				1	0	63			None									['38', '85', '106', '107']							L.Haimberger	0
283	0-20000-0-65123	0	284	[65123]	1	MINNA			0	6.53	9.62				1	0	63			Minna									['38', '85', '106', '107']							L.Haimberger	0
284	0-20000-0-96751	0	285	[96755]	1	BOGOR/CITEKO			0	106.95	-6.7				1	0	63			Sukaraja									['38', '85', '106', '107']							L.Haimberger	0
285	0-20000-0-74631	0	286	[74631]	1	White Sands Rhodes Canyon			0	-106.49	33.16				1	0	63			None									['38', '85', '106', '107']							L.Haimberger	0
286	0-20000-0-71920	0	287	[71920]	1	BACCARO PT, NS			0	-65.47	43.45				1	0	63			None									['38', '85', '106', '107']							L.Haimberger	0
287		0	288	[81403]	1				0						1	0	63			None									['38', '85', '106', '107']							L.Haimberger	0
288	0-20000-0-97460	0	289	[97460]	1	LABUHA/OESMAN SADIK			0	127.5	-0.63				1	0	63			Luwuk									['38', '85', '106', '107']							L.Haimberger	0
289	0-20000-0-65306	0	290	[65306]	1	KANDI			0	2.93	11.13				1	0	63			Kandi									['38', '85', '106', '107']							L.Haimberger	0
290	0-20000-0-53083	0	291	[53083]	1	NARAN BULAG			0	114.15	44.62				1	0	63			Erenhot									['38', '85', '106', '107']							L.Haimberger	0
291	0-20000-0-08314	0	292	[8314]	1	MENORCA/AEROPUERTO			0	4.22	39.85				1	0	63			Mahon									['38', '85', '106', '107']							L.Haimberger	0
292	0-20000-0-41696	0	293	[41696]	1	KALAT			0	66.58	29.03				1	0	63			Kalat									['38', '85', '106', '107']							L.Haimberger	0
293	0-20000-0-41936	0	294	[41936]	1	JESSORE			0	89.17	23.18				1	0	63			Jhikargachha									['38', '85', '106', '107']							L.Haimberger	0
294		0	295	[63619]	1				0						1	0	63			Moyale									['38', '85', '106', '107']							L.Haimberger	0
295	0-20000-0-14648	0	296	[13349]	1	MOSTAR			0	17.79	43.35				1	0	63			Mostar									['38', '85', '106', '107']							L.Haimberger	0
296	0-20000-0-40270	0	297	[40270]	1	AMMAN AIRPORT			0	35.98	31.98				1	0	63			Jawa									['38', '85', '106', '107']							L.Haimberger	0
297	0-20000-0-57067	0	298	[57067]	1	LUSHI			0	111.07	34.08				1	0	63			Sanmenxia									['38', '85', '106', '107']							L.Haimberger	0
298	0-20000-0-42170	0	299	[42170]	1	CHURU			0	74.92	28.25				1	0	63			Churu									['38', '85', '106', '107']							L.Haimberger	0
299	0-20000-0-48887	0	300	[48887]	1	PHAN THIET			0	108.1	10.93				1	0	63			Phan Thiet									['38', '85', '106', '107']							L.Haimberger	0
300	0-20000-0-61766	0	301	[61766]	1	BISSAU AEROPORTO			0	-15.65	11.88				1	0	63			None									['38', '85', '106', '107']							L.Haimberger	0
301	0-20000-0-91218	0	302	[91218]	1	WEATHER FORECAST OFFICE, GUAM, MARIANA IS.			0	144.79	13.48				1	0	63			None									['38', '85', '106', '107']							L.Haimberger	0
302	0-20000-0-54715	0	303	[54714]	1	LINGXIAN			0	116.57	37.33				1	0	63			Dezhou									['38', '85', '106', '107']							L.Haimberger	0
303	0-20000-0-68479	0	304	[68476]	1	LADYSMITH			0	29.75	-28.58				1	0	63			Ekuvukeni									['38', '85', '106', '107']							L.Haimberger	0
304	0-20000-0-15145	0	305	[15145]	1	TARGU-MURES			0	24.52	46.53				1	0	63			Targu-Mures									['38', '85', '106', '107']							L.Haimberger	0
305	0-20000-0-15247	0	306	[15247]	1	TIMISOARA			0	21.26	45.77				1	0	63			Timisoara									['38', '85', '106', '107']							L.Haimberger	0
306	0-20000-0-14445	0	307	[13333]	1	SPLIT/MARJAN			0	16.43	43.51				1	0	63			Split									['38', '85', '106', '107']							L.Haimberger	0
307	0-20000-0-71842	0	308	[71842]	1	SIOUX LOOKOUT A, ONT			0	-91.9	50.12				1	0	63			None									['38', '85', '106', '107']							L.Haimberger	0
308	0-20000-0-96091	0	309	[96091]	1	TANJUNG PINANG/KIJANG			0	104.53	0.92				1	0	63			Kijang									['38', '85', '106', '107']							L.Haimberger	0
309	0-20000-0-72223	0	310	[72223]	1	MOBILE/BATES FIELD,  AL.			0	-88.25	30.68				1	0	63			None									['38', '85', '106', '107']							L.Haimberger	0
310	0-20000-0-60738	0	311	[60738]	1	THALA			0	8.68	35.55				1	0	63			Talah									['38', '85', '106', '107']							L.Haimberger	0
311	0-20000-0-31989	0	312	[31989]	1	PREOBRAZHENIE			0	133.9	42.9				1	0	63			Partizansk									['38', '85', '106', '107']							L.Haimberger	0
312	0-20000-0-91371	0	313	[91371]	1	WOTJE ATOLL, MARSHALL IS.			0	170.25	9.47				1	0	63			None									['38', '85', '106', '107']							L.Haimberger	0
313	0-20000-0-17200	0	314	[17200]	1	MALATYA/ERHAC			0	38.09	38.43				1	0	63			Malatya									['38', '85', '106', '107']							L.Haimberger	0
314		0	315	[88967]	1				0						1	0	63			None									['38', '85', '106', '107']							L.Haimberger	0
315	0-20000-0-94677	0	316	[94677]	1	HINDMARSH ISLAND AWS			0	138.82	-35.52				1	0	63			Gawler									['38', '85', '106', '107']							L.Haimberger	0
316	0-20000-0-58911	0	317	[58912]	1	CHANGTING			0	116.37	25.85				1	0	63			Yongan									['38', '85', '106', '107']							L.Haimberger	0
317	0-20000-0-58527	0	318	[58527]	1	JINGDEZHEN			0	117.17	29.31				1	0	63			Jingdezhen									['38', '85', '106', '107']							L.Haimberger	0
318	0-20000-0-47971	0	319	[91030]	1	CHICHIJIMA			0	142.19	27.09				1	0	63			None									['38', '85', '106', '107']							L.Haimberger	0
319	0-20000-0-72344	0	320	[72344]	1	FORT SMITH/MUN., AR.			0	-94.37	35.33				1	0	63			None									['38', '85', '106', '107']							L.Haimberger	0
320	0-20000-0-76750	0	321	[76750]	1	CHETUMAL, Q.R.			0	-88.33	18.5				1	0	63			None									['38', '85', '106', '107']							L.Haimberger	0
321	0-20000-0-66152	0	322	[66152]	1	DUNDO			0	20.82	-7.4				1	0	63			Tshikapa									['38', '85', '106', '107']							L.Haimberger	0
322	0-20000-0-57237	0	323	[57237]	1	WANYUAN			0	108.03	32.07				1	0	63			Daxian									['38', '85', '106', '107']							L.Haimberger	0
323	0-20000-0-97192	0	324	[97192]	1	BAU-BAU/BETO AMBARI			0	122.57	-5.49				1	0	63			Katobu									['38', '85', '106', '107']							L.Haimberger	0
324	0-20000-0-33506	0	325	[33506]	1	Poltava			0	34.54	49.61				1	0	63			Poltava									['38', '85', '106', '107']							L.Haimberger	0
325	0-20000-0-63612	0	326	[63612]	1	LODWAR			0	35.59	3.12				1	0	63			Lodwar									['38', '85', '106', '107']							L.Haimberger	0
326	0-20000-0-72344	0	327	[72344]	1	FORT SMITH/MUN., AR.			0	-94.37	35.33				1	0	63			None									['38', '85', '106', '107']							L.Haimberger	0
327		0	328	[20047]	1				0						1	0	63			None									['38', '85', '106', '107']							L.Haimberger	0
328		0	329	[46767]	1				0						1	0	63			Potzu									['38', '85', '106', '107']							L.Haimberger	0
329	0-20000-0-71145	0	330	[71145]	1	ISLAND LAKE A, MAN			0	-94.65	53.85				1	0	63			None									['38', '85', '106', '107']							L.Haimberger	0
330	0-20000-0-16239	0	331	[16240]	1	PRATICA DI MARE RDS			0	12.45	41.67				1	0	63			Ciampino									['38', '85', '106', '107']							L.Haimberger	0
331	0-20000-0-38599	0	332	[38599]	1	KHUDJANT			0	69.73	40.22				1	0	63			Gafurov									['38', '85', '106', '107']							L.Haimberger	0
332	0-20000-0-72450	0	333	[72450]	1	WICHITA/MID-CONTINENT, KS.			0	-97.43	37.65				1	0	63			None									['38', '85', '106', '107']							L.Haimberger	0
333	0-20000-0-53487	0	334	[53487]	1	DATONG			0	113.42	40.08				1	0	63			Datong									['38', '85', '106', '107']							L.Haimberger	0
334	0-20000-0-42675	0	335	[42675]	1	JABALPUR			0	79.95	23.2				1	0	63			Jabalpur									['38', '85', '106', '107']							L.Haimberger	0
335	0-20000-0-56106	0	336	[56106]	1	SOG XIAN			0	93.78	31.88				1	0	63			Lasa									['38', '85', '106', '107']							L.Haimberger	0
336	0-20000-0-71916	0	337	[71916]	1	THOMSEN RIVER, NWT			0	-119.54	73.23				1	0	63			None									['38', '85', '106', '107']							L.Haimberger	0
337	0-20000-0-72503	0	338	[72503]	1	NEW YORK/LA GUARDIA, NY.			0	-73.9	40.77				1	0	63			None									['38', '85', '106', '107']							L.Haimberger	0
338	0-20000-0-48991	0	339	[48991]	1	PHNOM-PENH (KHMOUGH)			0	104.87	11.6				1	0	63			Phnum Penh									['38', '85', '106', '107']							L.Haimberger	0
339	0-20000-0-48477	0	340	[48477]	1	SATTAHIP			0	100.99	12.69				1	0	63			Sattahip									['38', '85', '106', '107']							L.Haimberger	0
340	0-20000-0-97096	0	341	[97096]	1	POSO/KASIGUNCU			0	120.66	-1.42				1	0	63			Poso									['38', '85', '106', '107']							L.Haimberger	0
341	0-20000-0-48870	0	342	[48870]	1	QUY NHON			0	109.22	13.77				1	0	63			Qui Nhon									['38', '85', '106', '107']							L.Haimberger	0
342	0-20000-0-44272	0	343	[44272]	1	ULIASTAI (44272-0)			0	96.85	47.73				1	0	63			Moron									['38', '85', '106', '107']							L.Haimberger	0
343	0-20000-0-47813	0	344	[47813]	1	SAGA			0	130.31	33.27				1	0	63			Saga									['38', '85', '106', '107']							L.Haimberger	0
344	0-20000-0-78535	0	345	[78535]	1	ROOSEVELT ROADS/NS,  PUERTO RICO			0	-65.63	18.25				1	0	63			None									['38', '85', '106', '107']							L.Haimberger	0
345	0-20000-0-37895	0	346	[37895]	1	KHANKANDY			0	46.75	39.98				1	0	63			Susa									['38', '85', '106', '107']							L.Haimberger	0
346	0-20000-0-56778	0	347	[56779]	1	KUNMING			0	102.68	25.02				1	0	63			Kunming									['38', '85', '106', '107']							L.Haimberger	0
347	0-20000-0-74631	0	348	[74631]	1	White Sands Rhodes Canyon			0	-106.49	33.16				1	0	63			None									['38', '85', '106', '107']							L.Haimberger	0
348	0-20000-0-10655	0	349	[10659]	1	WUERZBURG			0	9.96	49.77				1	0	63			Kitzingen									['38', '85', '106', '107']							L.Haimberger	0
349		0	350	[70489]	1				0						1	0	63			None									['38', '85', '106', '107']							L.Haimberger	0
350	0-20000-0-67217	0	351	[67217]	1	LICHINGA			0	35.23	-13.3				1	0	63			Lichinga									['38', '85', '106', '107']							L.Haimberger	0
351	0-20000-0-52713	0	352	[52713]	1	DA-QAIDAM			0	95.37	37.85				1	0	63			Yumen									['38', '85', '106', '107']							L.Haimberger	0
352	0-20000-0-48687	0	353	[48687]	1	SINGAPORE/CHANGI AIRPORT			0	103.98	1.37				1	0	63			Johor Bahru									['38', '85', '106', '107']							L.Haimberger	0
353	0-20000-0-60590	0	354	[60590]	1	EL-GOLEA			0	2.87	30.57				1	0	63			Warqla									['38', '85', '106', '107']							L.Haimberger	0
354		0	355	[78949]	1				0						1	0	63			None									['38', '85', '106', '107']							L.Haimberger	0
355	0-20000-0-72231	0	356	[72231]	1	NEW ORLEANS/MOISANT INT., LA.			0	-90.25	29.98				1	0	63			None									['38', '85', '106', '107']							L.Haimberger	0
356	0-20000-0-47727	0	357	[47727]	1	SHIMOFUSA AB			0	140.01	35.8				1	0	63			Kamagaya									['38', '85', '106', '107']							L.Haimberger	0
357	0-20000-0-37395	0	358	[37395]	1	KUTAISI			0	42.63	42.25				1	0	63			Tskaltubo									['38', '85', '106', '107']							L.Haimberger	0
358	0-20000-0-48966	0	359	[48966]	1	SIEMREAP			0	103.85	13.37				1	0	63			Pousat									['38', '85', '106', '107']							L.Haimberger	0
359	0-20000-0-74790	0	360	[74790]	1	SHAW AFB, SC.			0	-80.48	33.97				1	0	63			None									['38', '85', '106', '107']							L.Haimberger	0
360	0-20000-0-57799	0	361	[57799]	1	JI'AN (57799-0)			0	114.97	27.12				1	0	63			Jian									['38', '85', '106', '107']							L.Haimberger	0
361	0-20000-0-55279	0	362	[55279]	1	BAINGOIN			0	90.02	31.37				1	0	63			Lasa									['38', '85', '106', '107']							L.Haimberger	0
362	0-20000-0-28552	0	363	[28552]	1	SADRINSK			0	63.65	56.07				1	0	63			Shadrinsk									['38', '85', '106', '107']							L.Haimberger	0
363	0-20000-0-85154	0	364	[85154]	1	TRINIDAD			0	-64.92	-14.82				1	0	63			None									['38', '85', '106', '107']							L.Haimberger	0
364	0-20000-0-35188	0	365	[35188]	1	ASTANA			0	71.39	51.17				1	0	63			Astana									['38', '85', '106', '107']							L.Haimberger	0
365		0	366	[78949]	1				0						1	0	63			None									['38', '85', '106', '107']							L.Haimberger	0
366	0-20000-0-80444	0	367	[80444]	1	CIUDAD BOLIVAR			0	-63.55	8.15				1	0	63			None									['38', '85', '106', '107']							L.Haimberger	0
367	0-20000-0-30731	0	368	[30731]	1	GORJACINSK			0	108.29	52.99				1	0	63			Onokhoy									['38', '85', '106', '107']							L.Haimberger	0
368	0-20000-0-72509	0	369	[72509]	1	BOSTON/LOGAN INT., MA.			0	-71.03	42.37				1	0	63			None									['38', '85', '106', '107']							L.Haimberger	0
369	0-20000-0-72514	0	370	[72514]	1	WILLIAMSPORT/LYCOMING COUNTY, PA.			0	-76.92	41.25				1	0	63			None									['38', '85', '106', '107']							L.Haimberger	0
370	0-20000-0-71946	0	371	[71946]	1	FORT SIMPSON A, NWT			0	-121.24	61.76				1	0	63			None									['38', '85', '106', '107']							L.Haimberger	0
371		0	372	[74479]	1				0						1	0	63			None									['38', '85', '106', '107']							L.Haimberger	0
372	0-20000-0-91764	0	373	[91764]	1	CAPE TAPUTAPU AWS, AMERICAN SAMOA *			0	-170.83	-14.33				1	0	63			None									['38', '85', '106', '107']							L.Haimberger	0
373	0-20000-0-72524	0	374	[72524]	1	CLEVELAND/CLEVELAND-HOPKINS, OH.			0	-81.87	41.42				1	0	63			None									['38', '85', '106', '107']							L.Haimberger	0
374	0-20000-0-80422	0	375	[80422]	1	CARUPANO, SUCRE			0	-63.25	10.67				1	0	63			None									['38', '85', '106', '107']							L.Haimberger	0
375	0-20000-0-47131	0	376	[47131]	1	CHEONGJU			0	127.44	36.64				1	0	63			Seoul									['38', '85', '106', '107']							L.Haimberger	0
376		0	377	[91946]	1				0						1	0	63			None									['38', '85', '106', '107']							L.Haimberger	0
377	0-20000-0-60360	0	378	[60360]	1	ANNABA			0	7.82	36.83				1	0	63			Tabarqah									['38', '85', '106', '107']							L.Haimberger	0
378	0-20000-0-15490	0	379	[15490]	1	TURNU-MAGURELE			0	24.88	43.76				1	0	63			Turnu Magurele									['38', '85', '106', '107']							L.Haimberger	0
379	0-20000-0-91764	0	380	[91764]	1	CAPE TAPUTAPU AWS, AMERICAN SAMOA *			0	-170.83	-14.33				1	0	63			None									['38', '85', '106', '107']							L.Haimberger	0
380	0-20000-0-64601	0	381	[64601]	1	BOUAR			0	15.63	5.97				1	0	63			Bouar									['38', '85', '106', '107']							L.Haimberger	0
381		0	382	[53821]	1				0						1	0	63			Pingliang									['38', '85', '106', '107']							L.Haimberger	0
382	0-20000-0-80422	0	383	[80422]	1	CARUPANO, SUCRE			0	-63.25	10.67				1	0	63			None									['38', '85', '106', '107']							L.Haimberger	0
383	0-20000-0-64387	0	384	[64387]	1	KIGALI			0	30.13	-1.96				1	0	63			Kigali									['38', '85', '106', '107']							L.Haimberger	0
384	0-20000-0-87374	0	385	[87374]	1	PARANA AERO			0	-60.48	-31.79				1	0	63			None									['38', '85', '106', '107']							L.Haimberger	0
385	0-20000-0-47651	0	386	[47651]	1	TSU			0	136.52	34.73				1	0	63			Hisai									['38', '85', '106', '107']							L.Haimberger	0
386	0-20000-0-83236	0	387	[83236]	1	BARREIRAS (83236-0)			0	-45.0	-12.15				1	0	63			None									['38', '85', '106', '107']							L.Haimberger	0
387	0-20000-0-94926	0	388	[94926]	1	CANBERRA AIRPORT			0	149.2	-35.31				1	0	63			Canberra									['38', '85', '106', '107']							L.Haimberger	0
388	0-20000-0-52908	0	389	[52908]	1	WUDAOLIANG			0	93.08	35.22				1	0	63			Yumen									['38', '85', '106', '107']							L.Haimberger	0
389	0-20000-0-07650	0	390	[7650]	1	MARIGNANE			0	5.22	43.44				1	0	63			Vitrolles									['38', '85', '106', '107']							L.Haimberger	0
390	0-20000-0-62120	0	391	[62120]	1	GARIAT EL-SHARGHIA			0	13.59	30.39				1	0	63			Mizdah									['38', '85', '106', '107']							L.Haimberger	0
391	0-20000-0-12465	0	392	[12465]	1	LODZ-LUBLINEK			0	19.4	51.72				1	0	63			Konstantynow Lodzki									['38', '85', '106', '107']							L.Haimberger	0
392	0-20000-0-78730	0	393	[78730]	1	PUERTO CABEZAS			0	-83.63	14.07				1	0	63			None									['38', '85', '106', '107']							L.Haimberger	0
393	0-20000-0-72231	0	394	[72231]	1	NEW ORLEANS/MOISANT INT., LA.			0	-90.25	29.98				1	0	63			None									['38', '85', '106', '107']							L.Haimberger	0
394	0-20000-0-56374	0	395	[56374]	1	KANGDING			0	101.97	30.05				1	0	63			Yaan									['38', '85', '106', '107']							L.Haimberger	0
395	0-20000-0-96109	0	396	[96109]	1	PEKAN BARU/SIMPANGTIGA			0	101.45	0.47				1	0	63			Balaipungut									['38', '85', '106', '107']							L.Haimberger	0
396	0-20000-0-63971	0	397	[63971]	1	MTWARA			0	40.18	-10.27				1	0	63			Mtwara									['38', '85', '106', '107']							L.Haimberger	0
397		0	398	[72807]	1				0						1	0	63			None									['38', '85', '106', '107']							L.Haimberger	0
398	0-20000-0-07630	0	399	[7630]	1	TOULOUSE RW			0	1.37	43.58				1	0	63			Blagnac									['38', '85', '106', '107']							L.Haimberger	0
399	0-20000-0-10860	0	400	[10862]	1	INGOLSTADT (FLUGPLATZ)			0	11.54	48.71				1	0	63			Abensberg									['38', '85', '106', '107']							L.Haimberger	0
400		0	401	[72497]	1				0						1	0	63			None									['38', '85', '106', '107']							L.Haimberger	0
401	0-20000-0-83063	0	402	[83063]	1	PORTO NACIONAL (AERO)			0	-48.4	-10.7				1	0	63			None									['38', '85', '106', '107']							L.Haimberger	0
402	0-20000-0-71127	0	403	[71127]	1	EDMONTON STONY PLAIN CS, ALTA			0	-114.11	53.55				1	0	63			None									['38', '85', '106', '107']							L.Haimberger	0
403	0-20000-0-47167	0	404	[47167]	1	YEOSU AIRPORT			0	127.62	34.83				1	0	63			Hirado									['38', '85', '106', '107']							L.Haimberger	0
404	0-20000-0-56116	0	405	[56116]	1	DENGQEN			0	95.6	31.42				1	0	63			Along									['38', '85', '106', '107']							L.Haimberger	0
405	0-20000-0-43497	0	406	[43497]	1	HAMBANTOTA			0	81.13	6.12				1	0	63			Hambantota									['38', '85', '106', '107']							L.Haimberger	0
406	0-20000-0-85577	0	407	[85577]	1	QUINTA NORMAL			0	-70.68	-33.44				1	0	63			None									['38', '85', '106', '107']							L.Haimberger	0
407	0-20000-0-10646	0	408	[10657]	1	NEUHUETTEN-SPESSART			0	9.42	50.01				1	0	63			Wertheim									['38', '85', '106', '107']							L.Haimberger	0
408	0-20000-0-60030	0	409	[60030]	1	LAS PALMAS DE GRAN CANARIA/GANDO			0	-15.39	27.92				1	0	63			None									['38', '85', '106', '107']							L.Haimberger	0
409	0-20000-0-62062	0	410	[62063]	1	TOBRUK			0	23.96	32.1				1	0	63			Tubruq									['38', '85', '106', '107']							L.Haimberger	0
410	0-20000-0-47515	0	411	[47515]	1	MISAWA AB			0	141.37	40.71				1	0	63			Hachinohe									['38', '85', '106', '107']							L.Haimberger	0
411	0-20000-0-47407	0	412	[47407]	1	ASAHIKAWA			0	142.37	43.76				1	0	63			Asahikawa									['38', '85', '106', '107']							L.Haimberger	0
412	0-20000-0-41923	0	413	[41920]	1	DHAKA			0	90.38	23.77				1	0	63			Dhaka									['38', '85', '106', '107']							L.Haimberger	0
413	0-20000-0-41624	0	414	[41624]	1	DERA ISMAIL KHAN			0	70.92	31.82				1	0	63			Dera Ismail Khan									['38', '85', '106', '107']							L.Haimberger	0
414	0-20000-0-60120	0	415	[60120]	1	KENITRA			0	-6.59	34.3				1	0	63			None									['38', '85', '106', '107']							L.Haimberger	0
415	0-20000-0-41685	0	416	[41685]	1	BARKHAN			0	69.72	29.88				1	0	63			Kohlu									['38', '85', '106', '107']							L.Haimberger	0
416	0-20000-0-74545	0	417	[74545]	1	SMOKEY HILL GUNNERY RANGE, KS.			0	-97.8	38.65				1	0	63			None									['38', '85', '106', '107']							L.Haimberger	0
417	0-20000-0-47759	0	418	[47759]	1	KYOTO			0	135.73	35.01				1	0	63			Muko									['38', '85', '106', '107']							L.Haimberger	0
418	0-20000-0-30703	0	419	[30703]	1	INGA (30703-0)			0	101.98	52.97				1	0	63			Cheremkhovo									['38', '85', '106', '107']							L.Haimberger	0
419	0-20000-0-30815	0	420	[30812]	1	HAMAR-DABAN			0	103.6	51.53				1	0	63			Slyudyanka									['38', '85', '106', '107']							L.Haimberger	0
420	0-20000-0-67215	0	421	[67215]	1	PEMBA			0	40.53	-12.98				1	0	63			Pemba									['38', '85', '106', '107']							L.Haimberger	0
421	0-20000-0-60566	0	422	[60566]	1	GHARDAIA			0	3.8	32.4				1	0	63			Warqla									['38', '85', '106', '107']							L.Haimberger	0
422	0-20000-0-48480	0	423	[48480]	1	CHANTHA BURI			0	102.1	12.61				1	0	63			Chanthaburi									['38', '85', '106', '107']							L.Haimberger	0
423	0-20000-0-47167	0	424	[47167]	1	YEOSU AIRPORT			0	127.62	34.83				1	0	63			Hirado									['38', '85', '106', '107']							L.Haimberger	0
424	0-20000-0-15260	0	425	[15260]	1	SIBIU			0	24.09	45.79				1	0	63			Sibiu									['38', '85', '106', '107']							L.Haimberger	0
425	0-20000-0-83967	0	426	[83967]	1	PORTO ALEGRE (83967-0)			0	-51.22	-30.02				1	0	63			None									['38', '85', '106', '107']							L.Haimberger	0
426	0-20000-0-37747	0	427	[37747]	1	EVLAKH AIRPORT			0	47.15	40.62				1	0	63			Yevlax									['38', '85', '106', '107']							L.Haimberger	0
427	0-20000-0-63962	0	428	[63962]	1	SONGEA			0	35.58	-10.68				1	0	63			Songea									['38', '85', '106', '107']							L.Haimberger	0
428	0-20000-0-47938	0	429	[47938]	1	IEJIMA (US BASE)			0	127.78	26.72				1	0	63			Nago									['38', '85', '106', '107']							L.Haimberger	0
429	0-20000-0-87436	0	430	[87436]	1	SAN LUIS AERO			0	-66.35	-33.27				1	0	63			None									['38', '85', '106', '107']							L.Haimberger	0
430	0-20000-0-51765	0	431	[51765]	1	TIKANLIK			0	87.7	40.63				1	0	63			Korla									['38', '85', '106', '107']							L.Haimberger	0
431	0-20000-0-70222	0	432	[70222]	1	GALENA A.			0	-156.93	64.73				1	0	63			None									['38', '85', '106', '107']							L.Haimberger	0
432	0-20000-0-37735	0	433	[37735]	1	GANDJA			0	46.42	40.72				1	0	63			Xanlar									['38', '85', '106', '107']							L.Haimberger	0
433	0-20000-0-89056	0	434	[89056]	1	CENTRO MET. ANTRTICO PRESIDENTE EDUARDO FREI			0	-58.98	-62.19				1	0	63			None									['38', '85', '106', '107']							L.Haimberger	0
434	0-20000-0-47430	0	435	[47430]	1	HAKODATE			0	140.75	41.82				1	0	63			Hakodate									['38', '85', '106', '107']							L.Haimberger	0
435	0-20000-0-83096	0	436	[83096]	1	ARACAJU (83096-0)			0	-37.05	-10.92				1	0	63			None									['38', '85', '106', '107']							L.Haimberger	0
436	0-20000-0-06621	0	437	[10934]	1	GUETTINGEN			0	9.28	47.6				1	0	63			Friedrichshafen									['38', '85', '106', '107']							L.Haimberger	0
437	0-20000-0-78700	0	438	[78700]	1	AMAPALA			0	-87.65	13.27				1	0	63			None									['38', '85', '106', '107']							L.Haimberger	0
438	0-20000-0-97300	0	439	[97300]	1	MAUMERE/WAI OTI			0	122.24	-8.64				1	0	63			Maumere									['38', '85', '106', '107']							L.Haimberger	0
439	0-20000-0-89056	0	440	[89056]	1	CENTRO MET. ANTRTICO PRESIDENTE EDUARDO FREI			0	-58.98	-62.19				1	0	63			None									['38', '85', '106', '107']							L.Haimberger	0
440	0-20000-0-91492	0	441	[91492]	1	CHRISTMAS ISLAND (91492-0)			0	-157.4	2.0				1	0	63			None									['38', '85', '106', '107']							L.Haimberger	0
441	0-20000-0-96781	0	442	[96781]	1	BANDUNG/HUSEIN			0	107.58	-6.9				1	0	63			Bandung									['38', '85', '106', '107']							L.Haimberger	0
442	0-20000-0-59658	0	443	[59658]	1	ZHANJIANG			0	110.3	21.15				1	0	63			Zhanjiang									['38', '85', '106', '107']							L.Haimberger	0
443	0-20000-0-43296	0	444	[43296]	1	BANGALORE			0	77.58	12.97				1	0	63			Bangalore									['38', '85', '106', '107']							L.Haimberger	0
444	0-20000-0-47616	0	445	[47616]	1	FUKUI			0	136.22	36.06				1	0	63			Maruoka									['38', '85', '106', '107']							L.Haimberger	0
445	0-20000-0-87257	0	446	[87257]	1	CERES AERO			0	-61.94	-29.88				1	0	63			None									['38', '85', '106', '107']							L.Haimberger	0
446	0-20000-0-40001	0	447	[40001]	1	KAMISHLI			0	41.22	37.05				1	0	63			Nusaybin									['38', '85', '106', '107']							L.Haimberger	0
447	0-20000-0-40588	0	448	[40588]	1	FAILAKAH ISLAND			0	48.33	29.45				1	0	63			Bajil									['38', '85', '106', '107']							L.Haimberger	0
448	0-20000-0-41715	0	449	[41715]	1	JACOBABAD			0	68.47	28.3				1	0	63			Jacobabad									['38', '85', '106', '107']							L.Haimberger	0
449	0-20000-0-50603	0	450	[50603]	1	XIN BARAG YOUQI			0	116.81	48.68				1	0	63			Manzhouli									['38', '85', '106', '107']							L.Haimberger	0
450	0-20000-0-66285	0	451	[66285]	1	LUENA (LUSO)			0	19.92	-11.78				1	0	63			Luena									['38', '85', '106', '107']							L.Haimberger	0
451	0-20000-0-42734	0	452	[42734]	1	JAMNAGAR			0	70.08	22.45				1	0	63			Jamnagar									['38', '85', '106', '107']							L.Haimberger	0
452	0-20000-0-31174	0	453	[31174]	1	BOL'SHOJ SHANTAR			0	137.53	54.83				1	0	63			Nikolayevsk-Na-Amure									['38', '85', '106', '107']							L.Haimberger	0
453	0-20000-0-48062	0	454	[48062]	1	SITTWE			0	92.88	20.13				1	0	63			Akyab									['38', '85', '106', '107']							L.Haimberger	0
454		0	455	[97404]	1				0						1	0	63			Ternate									['38', '85', '106', '107']							L.Haimberger	0
455	0-20000-0-62805	0	456	[62805]	1	DAMAZINE			0	34.38	11.78				1	0	63			Sinjah									['38', '85', '106', '107']							L.Haimberger	0
456	0-20000-0-63726	0	457	[63726]	1	KABALE			0	29.98	-1.25				1	0	63			Kabale									['38', '85', '106', '107']							L.Haimberger	0
457	0-20000-0-82784	0	458	[82784]	1	BARBALHA (82784-0)			0	-39.3	-7.32				1	0	63			None									['38', '85', '106', '107']							L.Haimberger	0
458		0	459	[89593]	1				0						1	0	63			None									['38', '85', '106', '107']							L.Haimberger	0
459	0-20000-0-43201	0	460	[43201]	1	GADAG			0	75.63	15.42				1	0	63			Gadag									['38', '85', '106', '107']							L.Haimberger	0
460	0-20000-0-38001	0	461	[38001]	1	FORT SHEVCHENKO			0	50.24	44.55				1	0	63			Aktau									['38', '85', '106', '107']							L.Haimberger	0
461	0-20000-0-37936	0	462	[37936]	1	NAXCIVAN			0	45.42	39.2				1	0	63			Culfa									['38', '85', '106', '107']							L.Haimberger	0
462	0-20000-0-74611	0	463	[74611]	1	BICYCLE LAKE AAF, CA			0	-116.62	35.28				1	0	63			None									['38', '85', '106', '107']							L.Haimberger	0
463	0-20000-0-07139	0	464	[7139]	1	ALENCON			0	0.11	48.45				1	0	63			Alencon									['38', '85', '106', '107']							L.Haimberger	0
464	0-20000-0-60607	0	465	[60607]	1	TIMIMOUN			0	0.28	29.25				1	0	63			Adrar									['38', '85', '106', '107']							L.Haimberger	0
465	0-20000-0-15410	0	466	[15410]	1	DROBETA-TURNU SEVERIN			0	22.63	44.63				1	0	63			Drobeta-Turnu Severin									['38', '85', '106', '107']							L.Haimberger	0
466	0-20000-0-82571	0	467	[82571]	1	BARRA DO CORDA (82571-0)			0	-45.27	-5.5				1	0	63			None									['38', '85', '106', '107']							L.Haimberger	0
467	0-20000-0-60475	0	468	[60475]	1	TEBESSA			0	8.12	35.47				1	0	63			Talah									['38', '85', '106', '107']							L.Haimberger	0
468	0-20000-0-47938	0	469	[47938]	1	IEJIMA (US BASE)			0	127.78	26.72				1	0	63			Nago									['38', '85', '106', '107']							L.Haimberger	0
469	0-20000-0-63684	0	470	[63684]	1	TORORO			0	34.17	0.68				1	0	63			Tororo									['38', '85', '106', '107']							L.Haimberger	0
470	0-20000-0-72268	0	471	[72268]	1	ROSWELL/INDUSTRIAL AIR CENTER, NM			0	-104.53	33.3				1	0	63			None									['38', '85', '106', '107']							L.Haimberger	0
471	0-20000-0-74796	0	472	[74796]	1	AVON PARK GUNNERY RANGE, FL.			0	-81.33	27.65				1	0	63			None									['38', '85', '106', '107']							L.Haimberger	0
472	0-20000-0-61831	0	473	[61831]	1	CONAKRY			0	-13.62	9.57				1	0	63			None									['38', '85', '106', '107']							L.Haimberger	0
473	0-20000-0-47631	0	474	[47631]	1	TSURUGA			0	136.06	35.65				1	0	63			Tsuruga									['38', '85', '106', '107']							L.Haimberger	0
474	0-20000-0-94367	0	475	[94367]	1	MACKAY M.O			0	149.22	-21.12				1	0	63			Mackay									['38', '85', '106', '107']							L.Haimberger	0
475	0-20000-0-48078	0	476	[48078]	1	TOUNGOO			0	96.47	18.92				1	0	63			Toungoo									['38', '85', '106', '107']							L.Haimberger	0
476	0-20000-0-41600	0	477	[41600]	1	SIALKOT			0	74.53	32.5				1	0	63			Sialkot									['38', '85', '106', '107']							L.Haimberger	0
477	0-20000-0-62336	0	478	[62336]	1	EL ARISH-AGRIMET			0	33.82	31.09				1	0	63			Ashqelon									['38', '85', '106', '107']							L.Haimberger	0
478	0-20000-0-07627	0	479	[7627]	1	SAINT GIRONS			0	1.11	43.01				1	0	63			Saint-Gaudens									['38', '85', '106', '107']							L.Haimberger	0
479	0-20000-0-63729	0	480	[63729]	1	BUKOBA			0	31.82	-1.33				1	0	63			Bukoba									['38', '85', '106', '107']							L.Haimberger	0
480	0-20000-0-48620	0	481	[48620]	1	SITIAWAN			0	100.7	4.22				1	0	63			Lumut									['38', '85', '106', '107']							L.Haimberger	0
481	0-20000-0-72405	0	482	[72405]	1	WASHINGTON/NAT., VA.			0	-77.03	38.85				1	0	63			None									['38', '85', '106', '107']							L.Haimberger	0
482	0-20000-0-55228	0	483	[55228]	1	SHIQUANHE			0	80.08	32.5				1	0	63			Joshimath									['38', '85', '106', '107']							L.Haimberger	0
483	0-20000-0-87750	0	484	[87750]	1	BAHIA BLANCA AERO			0	-62.16	-38.71				1	0	63			None									['38', '85', '106', '107']							L.Haimberger	0
484	0-20000-0-62387	0	485	[62387]	1	MINYA			0	30.73	28.08				1	0	63			Matay									['38', '85', '106', '107']							L.Haimberger	0
485	0-20000-0-30739	0	486	[30739]	1	HORINSK			0	109.78	52.17				1	0	63			Khilok									['38', '85', '106', '107']							L.Haimberger	0
486	0-20000-0-68054	0	487	[68054]	1	FRANCISTOWN			0	27.47	-21.32				1	0	63			Francistown									['38', '85', '106', '107']							L.Haimberger	0
487	0-20000-0-72636	0	488	[72636]	1	MUSKEGON/COUNTY, MI.			0	-86.25	43.17				1	0	63			None									['38', '85', '106', '107']							L.Haimberger	0
488	0-20000-0-48940	0	489	[48940]	1	VIENTIANE			0	102.57	17.95				1	0	63			Si Chiang Mai									['38', '85', '106', '107']							L.Haimberger	0
489	0-20000-0-60160	0	490	[60160]	1	IFRANE			0	-5.17	33.5				1	0	63			None									['38', '85', '106', '107']							L.Haimberger	0
490	0-20000-0-15350	0	491	[15350]	1	BUZAU			0	26.85	45.13				1	0	63			Buzau									['38', '85', '106', '107']							L.Haimberger	0
491	0-20000-0-72525	0	492	[72525]	1	YOUNGSTOWN, OH.			0	-80.67	41.27				1	0	63			None									['38', '85', '106', '107']							L.Haimberger	0
492	0-20000-0-15302	0	493	[15302]	1	PREDEAL			0	25.58	45.51				1	0	63			Rasnov									['38', '85', '106', '107']							L.Haimberger	0
493		0	494	[20047]	1				0						1	0	63			None									['38', '85', '106', '107']							L.Haimberger	0
494	0-20000-0-62405	0	495	[62405]	1	LUXOR			0	32.71	25.67				1	0	63			Luxor									['38', '85', '106', '107']							L.Haimberger	0
495	0-20000-0-89601	0	496	[89601]	1	OAZIC BANGERA			0	100.75	-66.27				1	0	63			None									['38', '85', '106', '107']							L.Haimberger	0
496	0-20000-0-63981	0	497	[63981]	1	SEYCHELLES INTER. AIRPORT (RAWINSONDE STATION)			0	55.52	-4.68				1	0	63			Victoria									['38', '85', '106', '107']							L.Haimberger	0
497	0-705-0-1950	0	498	[13027]	1	MARIBOR - VRBANSKI PLATO			0	15.63	46.57				1	0	63			Maribor									['38', '85', '106', '107']							L.Haimberger	0
498	0-20000-0-31388	0	499	[31388]	1	NORSK			0	129.92	52.35				1	0	63			Shimanovsk									['38', '85', '106', '107']							L.Haimberger	0
499	0-20000-0-87692	0	500	[87692]	1	MAR DEL PLATA AERO			0	-57.58	-37.93				1	0	63			None									['38', '85', '106', '107']							L.Haimberger	0
500	0-20000-0-11968	0	501	[11968]	1	KOSICE			0	21.22	48.67				1	0	63			Kosice									['38', '85', '106', '107']							L.Haimberger	0
501	0-20000-0-67975	0	502	[67975]	1	MASVINGO			0	30.87	-20.07				1	0	63			Masvingo									['38', '85', '106', '107']							L.Haimberger	0
502	0-20000-0-47887	0	503	[47887]	1	MATSUYAMA			0	132.78	33.84				1	0	63			Masaki									['38', '85', '106', '107']							L.Haimberger	0
503	0-20000-0-74619	0	504	[74619]	1	SUPERIOR VALLEY GUNNERY RANGE, CA			0	-117.1	36.33				1	0	63			None									['38', '85', '106', '107']							L.Haimberger	0
504		0	505	[56533]	1				0						1	0	63			Tezu									['38', '85', '106', '107']							L.Haimberger	0
505	0-20000-0-48914	0	506	[48914]	1	CA MAU			0	105.15	9.18				1	0	63			Ca Mau									['38', '85', '106', '107']							L.Haimberger	0
506	0-20000-0-17609	0	507	[17609]	1	LARNACA AIRPORT			0	33.62	34.87				1	0	63			Larnaca									['38', '85', '106', '107']							L.Haimberger	0
507	0-20000-0-67775	0	508	[67775]	1	HARARE (BELVEDERE)			0	31.02	-17.83				1	0	63			Chitungwiza									['38', '85', '106', '107']							L.Haimberger	0
508	0-20000-0-91190	0	509	[91190]	1	KAHULUI AIRPORT, MAUI, HAWAII			0	-156.43	20.9				1	0	63			None									['38', '85', '106', '107']							L.Haimberger	0
509	0-20000-0-47688	0	510	[47688]	1	TATEYAMA AB			0	139.83	34.99				1	0	63			Tateyama									['38', '85', '106', '107']							L.Haimberger	0
510	0-20000-0-87938	0	511	[87938]	1	USHUAIA AERO			0	-68.3	-54.84				1	0	63			None									['38', '85', '106', '107']							L.Haimberger	0
511	0-20000-0-11030	0	512	[11030]	1	WIEN/HOHE WARTE (11035-1)			0	16.36	48.25				1	0	63			Tulln									['38', '85', '106', '107']							L.Haimberger	0
512	0-20000-0-91162	0	513	[91162]	1	BARKING SANDS (BONHAM AUX.LDNG.FLD), KAUAI HAWAII			0	-159.78	22.07				1	0	63			None									['38', '85', '106', '107']							L.Haimberger	0
513	0-20000-0-72783	0	514	[72783]	1	LEWISTON/LEWISTON-NEZ PERCE CO., ID.			0	-117.02	46.38				1	0	63			None									['38', '85', '106', '107']							L.Haimberger	0
514	0-20000-0-67561	0	515	[67561]	1	NDOLA			0	28.65	-13.0				1	0	63			Ndola									['38', '85', '106', '107']							L.Haimberger	0
515	0-20000-0-47688	0	516	[47673]	1	TATEYAMA AB			0	139.83	34.99				1	0	63			Tateyama									['38', '85', '106', '107']							L.Haimberger	0
516	0-20000-0-74778	0	517	[74778]	1	EGLIN AFB RANGE NO.52, FL.			0	-86.32	30.57				1	0	63			None									['38', '85', '106', '107']							L.Haimberger	0
517	0-20000-0-60566	0	518	[60565]	1	GHARDAIA			0	3.8	32.4				1	0	63			Warqla									['38', '85', '106', '107']							L.Haimberger	0
518	0-20000-0-68244	0	519	[68244]	1	SERETSE KHAMA INTERNATIONAL AIRPORT			0	25.92	-24.55				1	0	63			Gaborone									['38', '85', '106', '107']							L.Haimberger	0
519	0-20000-0-67881	0	520	[67881]	1	RUSAPE			0	32.13	-18.53				1	0	63			Rusape									['38', '85', '106', '107']							L.Haimberger	0
520	0-20000-0-53898	0	521	[53898]	1	ANYANG			0	114.13	36.05				1	0	63			Anyang									['38', '85', '106', '107']							L.Haimberger	0
521	0-20000-0-34866	0	522	[34866]	1	YASHKUL'			0	45.35	46.18				1	0	63			Elista									['38', '85', '106', '107']							L.Haimberger	0
522	0-20000-0-47607	0	523	[47607]	1	TOYAMA			0	137.2	36.71				1	0	63			Kosugi									['38', '85', '106', '107']							L.Haimberger	0
523	0-20000-0-97240	0	524	[97240]	1	PRAYA LOMBOK			0	116.09	-8.56				1	0	63			Mataram									['38', '85', '106', '107']							L.Haimberger	0
524	0-20000-0-63887	0	525	[63887]	1	IRINGA			0	35.75	-7.67				1	0	63			Iringa									['38', '85', '106', '107']							L.Haimberger	0
525	0-20000-0-72643	0	526	[72643]	1	LA CROSSE/MUN., WI.			0	-91.25	43.87				1	0	63			None									['38', '85', '106', '107']							L.Haimberger	0
526	0-20000-0-87774	0	527	[87774]	1	MAQUINCHAO			0	-68.71	-41.24				1	0	63			None									['38', '85', '106', '107']							L.Haimberger	0
527		0	528	[62840]	1				0						1	0	63			Malakal									['38', '85', '106', '107']							L.Haimberger	0
528	0-20000-0-07280	0	529	[7280]	1	DIJON-LONGVIC			0	5.09	47.27				1	0	63			Chenove									['38', '85', '106', '107']							L.Haimberger	0
529	0-20000-0-87925	0	530	[87925]	1	RIO GALLEGOS AERO			0	-69.31	-51.61				1	0	63			None									['38', '85', '106', '107']							L.Haimberger	0
530	0-20000-0-55472	0	531	[55472]	1	XAINZA			0	88.63	30.95				1	0	63			Lasa									['38', '85', '106', '107']							L.Haimberger	0
531	0-20000-0-58141	0	532	[58144]	1	HUAIYIN			0	118.93	33.63				1	0	63			Huaiyin									['38', '85', '106', '107']							L.Haimberger	0
532	0-20000-0-64570	0	533	[64565]	1	MVENGUE			0	13.43	-1.65				1	0	63			Moanda									['38', '85', '106', '107']							L.Haimberger	0
533	0-20000-0-63844	0	534	[63844]	1	TANGA			0	39.07	-5.08				1	0	63			Tanga									['38', '85', '106', '107']							L.Haimberger	0
534	0-20000-0-94791	0	535	[94791]	1	COFFS HARBOUR MO			0	153.12	-30.31				1	0	63			Coffs Harbour									['38', '85', '106', '107']							L.Haimberger	0
535	0-20000-0-63533	0	536	[63533]	1	NEGHELLE			0	39.57	5.33				1	0	63			Shakiso									['38', '85', '106', '107']							L.Haimberger	0
536	0-20000-0-96009	0	537	[96009]	1	LHOKSEUMAWE/MALIKUSSALEH			0	96.95	5.23				1	0	63			Lhokseumawe									['38', '85', '106', '107']							L.Haimberger	0
537		0	538	[53420]	1				0						1	0	63			Haibowan									['38', '85', '106', '107']							L.Haimberger	0
538	0-20000-0-08181	0	539	[8181]	1	BARCELONA SERVEI			0	2.12	41.38				1	0	63			El Prat De Llobregat									['38', '85', '106', '107']							L.Haimberger	0
539	0-20000-0-70381	0	540	[70381]	1	JUNEAU			0	-134.58	58.37				1	0	63			None									['38', '85', '106', '107']							L.Haimberger	0
540	0-20000-0-65467	0	541	[65467]	1	TAKORADI			0	-1.77	4.88				1	0	63			None									['38', '85', '106', '107']							L.Haimberger	0
541	0-20000-0-80022	0	542	[80022]	1	CARTAGENA/RAFAEL NUNEZ			0	-75.52	10.45				1	0	63			None									['38', '85', '106', '107']							L.Haimberger	0
542		0	543	[96273]	1				0						1	0	63			Metro									['38', '85', '106', '107']							L.Haimberger	0
543	0-20000-0-72409	0	544	[72409]	1	LAKEHURST/NAS, NJ.			0	-74.32	40.03				1	0	63			None									['38', '85', '106', '107']							L.Haimberger	0
544	0-20000-0-47606	0	545	[47606]	1	FUSHIKI			0	137.06	36.79				1	0	63			Shimminato									['38', '85', '106', '107']							L.Haimberger	0
545	0-20000-0-43181	0	546	[43181]	1	VIJAYAWADA /GANNAVARAM			0	80.8	16.53				1	0	63			Gannavaram									['38', '85', '106', '107']							L.Haimberger	0
546	0-20000-0-94346	0	547	[94346]	1	LONGREACH AERO			0	144.28	-23.44				1	0	63			Townsville									['38', '85', '106', '107']							L.Haimberger	0
547	0-20000-0-47777	0	548	[47777]	1	WAKAYAMA			0	135.16	34.23				1	0	63			Kainan									['38', '85', '106', '107']							L.Haimberger	0
548		0	549	[89557]	1				0						1	0	63			None									['38', '85', '106', '107']							L.Haimberger	0
549	0-20000-0-80457	0	550	[80457]	1	PUERTO AYACUCHO			0	-67.5	5.6				1	0	63			None									['38', '85', '106', '107']							L.Haimberger	0
550	0-20000-0-72537	0	551	[72537]	1	DETROIT/METROPOLITAN, MI.			0	-83.33	42.23				1	0	63			None									['38', '85', '106', '107']							L.Haimberger	0
551	0-20000-0-60540	0	552	[60540]	1	EL-KHEITER			0	0.07	34.15				1	0	63			Wahran									['38', '85', '106', '107']							L.Haimberger	0
552	0-20000-0-48431	0	553	[48431]	1	NAKHON RATCHASIMA			0	102.09	14.97				1	0	63			Nakhon Ratchasima									['38', '85', '106', '107']							L.Haimberger	0
553	0-20000-0-47742	0	554	[47742]	1	MATSUE			0	133.07	35.46				1	0	63			Sakaiminato									['38', '85', '106', '107']							L.Haimberger	0
554	0-20000-0-58251	0	555	[58251]	1	DONGTAI			0	120.28	32.85				1	0	63			Dongtai									['38', '85', '106', '107']							L.Haimberger	0
555	0-20000-0-40621	0	556	[40621]	1	KIRKUK			0	44.4	35.47				1	0	63			Kirkuk									['38', '85', '106', '107']							L.Haimberger	0
556	0-20000-0-62795	0	557	[62795]	1	ABU NA'AMA			0	34.13	12.73				1	0	63			Sinjah									['38', '85', '106', '107']							L.Haimberger	0
557	0-20000-0-91610	0	558	[91609]	1	TARAWA			0	172.92	1.35				1	0	63			Bairiki									['38', '85', '106', '107']							L.Haimberger	0
558	0-20000-0-54715	0	559	[54714]	1	LINGXIAN			0	116.57	37.33				1	0	63			Dezhou									['38', '85', '106', '107']							L.Haimberger	0
559	0-20000-0-07005	0	560	[7005]	1	ABBEVILLE			0	1.83	50.14				1	0	63			Abbeville									['38', '85', '106', '107']							L.Haimberger	0
560		0	561	[52313]	1				0						1	0	63			Hami									['38', '85', '106', '107']							L.Haimberger	0
561	0-20000-0-97686	0	562	[97686]	1	WAMENA			0	138.95	-4.1				1	0	63			Vanimo									['38', '85', '106', '107']							L.Haimberger	0
562		0	563	[48910]	1				0						1	0	63			Vinh Long									['38', '85', '106', '107']							L.Haimberger	0
563	0-20000-0-47675	0	564	[47675]	1	OSHIMA			0	139.36	34.75				1	0	63			Ito									['38', '85', '106', '107']							L.Haimberger	0
564	0-20000-0-63654	0	565	[63654]	1	MASINDI			0	31.72	1.68				1	0	63			Masindi									['38', '85', '106', '107']							L.Haimberger	0
565	0-20000-0-25282	0	566	[25282]	1	MYS VANKAREM			0	-175.83	67.83				1	0	63			None									['38', '85', '106', '107']							L.Haimberger	0
566	0-20000-0-07535	0	567	[7535]	1	GOURDON			0	1.4	44.74				1	0	63			Cahors									['38', '85', '106', '107']							L.Haimberger	0
567	0-20000-0-07558	0	568	[7558]	1	MILLAU			0	3.02	44.12				1	0	63			Millau									['38', '85', '106', '107']							L.Haimberger	0
568	0-20000-0-48991	0	569	[48991]	1	PHNOM-PENH (KHMOUGH)			0	104.87	11.6				1	0	63			Phnum Penh									['38', '85', '106', '107']							L.Haimberger	0
569		0	570	[70204]	1				0						1	0	63			None									['38', '85', '106', '107']							L.Haimberger	0
570	0-20000-0-64931	0	571	[64931]	1	BATOURI			0	14.37	4.47				1	0	63			Batouri									['38', '85', '106', '107']							L.Haimberger	0
571	0-20000-0-51573	0	572	[51573]	1	TURPAN			0	89.23	42.95				1	0	63			Urumqi									['38', '85', '106', '107']							L.Haimberger	0
572	0-20000-0-42416	0	573	[42416]	1	TEZPUR/BINDUKURI			0	92.8	26.72				1	0	63			Tezpur									['38', '85', '106', '107']							L.Haimberger	0
573	0-20000-0-42361	0	574	[42359]	1	GWALIOR			0	78.25	26.23				1	0	63			Morar									['38', '85', '106', '107']							L.Haimberger	0
574	0-20000-0-71851	0	575	[71851]	1	PORTAGE SOUTHPORT, MAN			0	-98.28	49.9				1	0	63			None									['38', '85', '106', '107']							L.Haimberger	0
575	0-20000-0-44218	0	576	[44218]	1	HOVD			0	91.63	48.0				1	0	63			Ulaangom									['38', '85', '106', '107']							L.Haimberger	0
576	0-20000-0-57193	0	577	[57193]	1	XIHUA			0	114.52	33.78				1	0	63			Xihua									['38', '85', '106', '107']							L.Haimberger	0
577	0-20000-0-60402	0	578	[60402]	1	BEJAIA-AEROPORT			0	5.07	36.72				1	0	63			Timizart									['38', '85', '106', '107']							L.Haimberger	0
578	0-20000-0-06451	0	579	[6451]	1	BEAUVECHAIN			0	4.76	50.75				1	0	63			Steenokkerzeel									['38', '85', '106', '107']							L.Haimberger	0
579	0-20000-0-60115	0	580	[60115]	1	OUJDA			0	-1.93	34.78				1	0	63			None									['38', '85', '106', '107']							L.Haimberger	0
580	0-20000-0-72434	0	581	[72434]	1	ST.LOUIS/LAMBERT,  ST.LOUIS INT., MO.			0	-90.37	38.75				1	0	63			None									['38', '85', '106', '107']							L.Haimberger	0
581		0	582	[94047]	1				0						1	0	63			Lae									['38', '85', '106', '107']							L.Haimberger	0
582	0-20000-0-65167	0	583	[65167]	1	YOLA			0	12.47	9.23				1	0	63			Yola									['38', '85', '106', '107']							L.Haimberger	0
583	0-20000-0-62650	0	584	[62650]	1	DONGOLA			0	30.48	19.17				1	0	63			Marawi									['38', '85', '106', '107']							L.Haimberger	0
584	0-20000-0-87765	0	585	[87765]	1	BARILOCHE AERO			0	-71.16	-41.15				1	0	63			None									['38', '85', '106', '107']							L.Haimberger	0
585	0-20000-0-40608	0	586	[40608]	1	MOSUL			0	43.15	36.32				1	0	63			Tall Kayf									['38', '85', '106', '107']							L.Haimberger	0
586	0-20000-0-47768	0	587	[47768]	1	OKAYAMA			0	133.93	34.69				1	0	63			Soja									['38', '85', '106', '107']							L.Haimberger	0
587	0-20000-0-98426	0	588	[98426]	1	SUBIC BAY WEATHER STATION			0	120.28	14.81				1	0	63			Olongapo									['38', '85', '106', '107']							L.Haimberger	0
588	0-20000-0-70266	0	589	[70266]	1	FORT GREELY, AK			0	-145.7	63.97				1	0	63			None									['38', '85', '106', '107']							L.Haimberger	0
589	0-20000-0-67743	0	590	[67743]	1	LIVINGSTONE			0	25.82	-17.82				1	0	63			Livingstone									['38', '85', '106', '107']							L.Haimberger	0
590	0-20000-0-67095	0	591	[67095]	1	TOAMASINA			0	49.4	-18.12				1	0	63			Toamasina									['38', '85', '106', '107']							L.Haimberger	0
591	0-20000-0-72519	0	592	[72519]	1	SYRACUSE/HANCOCK, NY.			0	-76.12	43.12				1	0	63			None									['38', '85', '106', '107']							L.Haimberger	0
592	0-20000-0-38328	0	593	[38328]	1	SHYMKENT			0	69.71	42.35				1	0	63			Shymkent									['38', '85', '106', '107']							L.Haimberger	0
593	0-20000-0-15450	0	594	[15450]	1	CRAIOVA			0	23.87	44.31				1	0	63			Craiova									['38', '85', '106', '107']							L.Haimberger	0
594		0	595	[67019]	1				0						1	0	63			Antsohihy									['38', '85', '106', '107']							L.Haimberger	0
595	0-20000-0-71731	0	596	[71731]	1	NORTH BAY A, ONT			0	-79.42	46.36				1	0	63			None									['38', '85', '106', '107']							L.Haimberger	0
596	0-20000-0-93546	0	597	[93545]	1	NELSON AERO AWS			0	173.22	-41.3				1	0	63			Nelson									['38', '85', '106', '107']							L.Haimberger	0
597	0-20000-0-48500	0	598	[48500]	1	PRACHUAP KHIRIKHAN			0	99.81	11.84				1	0	63			Prachuap Khiri Khan									['38', '85', '106', '107']							L.Haimberger	0
598		0	599	[24793]	1				0						1	0	63			Magadan									['38', '85', '106', '107']							L.Haimberger	0
599	0-20000-0-37575	0	600	[37575]	1	ZAKATALA			0	46.65	41.67				1	0	63			Zaqatala									['38', '85', '106', '107']							L.Haimberger	0
600	0-20000-0-54843	0	601	[54843]	1	WEIFANG			0	119.18	36.77				1	0	63			Weifang									['38', '85', '106', '107']							L.Haimberger	0
601		0	602	[48858]	1				0						1	0	63			Play Cu									['38', '85', '106', '107']							L.Haimberger	0
602	0-20000-0-42970	0	603	[42970]	1	CUTTACK			0	85.93	20.47				1	0	63			Bhuban									['38', '85', '106', '107']							L.Haimberger	0
603	0-20000-0-57297	0	604	[57297]	1	XINYANG			0	114.05	32.13				1	0	63			Xinyang									['38', '85', '106', '107']							L.Haimberger	0
604	0-20000-0-67633	0	605	[67633]	1	MONGU			0	23.15	-15.25				1	0	63			Mongu									['38', '85', '106', '107']							L.Haimberger	0
605	0-20000-0-61202	0	606	[61202]	1	TESSALIT			0	0.98	20.2				1	0	63			Kidal									['38', '85', '106', '107']							L.Haimberger	0
606	0-20000-0-85041	0	607	[85041]	1	COBIJA			0	-68.78	-11.03				1	0	63			None									['38', '85', '106', '107']							L.Haimberger	0
607		0	608	[71098]	1				0						1	0	63			None									['38', '85', '106', '107']							L.Haimberger	0
608	0-20000-0-40676	0	609	[40676]	1	NASIRIYA			0	46.23	31.02				1	0	63			Susangerd									['38', '85', '106', '107']							L.Haimberger	0
609	0-20000-0-95805	0	610	[94805]	1	CAPE BORDA			0	136.6	-35.76				1	0	63			Port Lincoln									['38', '85', '106', '107']							L.Haimberger	0
610	0-20000-0-10637	0	611	[10639]	1	FRANKFURT/MAIN			0	8.52	50.03				1	0	63			Darmstadt									['38', '85', '106', '107']							L.Haimberger	0
611	0-20000-0-91170	0	612	[91170]	1	WAHIAWA (WHEELER/SCHOFIELD), OAHU,  HAWAII			0	-158.03	21.48				1	0	63			None									['38', '85', '106', '107']							L.Haimberger	0
612	0-20000-0-41710	0	613	[41710]	1	NOKKUNDI			0	62.75	28.82				1	0	63			Rudbar									['38', '85', '106', '107']							L.Haimberger	0
613	0-20000-0-66422	0	614	[66422]	1	MOCAMEDES			0	12.15	-15.2				1	0	63			Namibe									['38', '85', '106', '107']							L.Haimberger	0
614		0	615	[54339]	1				0						1	0	63			Jiupu									['38', '85', '106', '107']							L.Haimberger	0
615	0-20000-0-07037	0	616	[7036]	1	ROUEN-BOOS			0	1.18	49.38				1	0	63			Le Grand-Quevilly									['38', '85', '106', '107']							L.Haimberger	0
616		0	617	[37189]	1				0						1	0	63			Sukhumi									['38', '85', '106', '107']							L.Haimberger	0
617	0-20000-0-61978	0	618	[61984]	1	PITON VILLERS RADAR			0	55.57	-21.19				1	0	63			Saint-Pierre									['38', '85', '106', '107']							L.Haimberger	0
618	0-20000-0-86068	0	619	[86068]	1	MARISCAL ESTIGARRIBIA			0	-60.62	-22.02				1	0	63			None									['38', '85', '106', '107']							L.Haimberger	0
619	0-20000-0-72303	0	620	[72303]	1	POPE AFB, NC.			0	-79.03	35.17				1	0	63			None									['38', '85', '106', '107']							L.Haimberger	0
620	0-20000-0-60735	0	621	[60735]	1	KAIROUAN			0	10.1	35.67				1	0	63			Masakin									['38', '85', '106', '107']							L.Haimberger	0
621	0-20000-0-72326	0	622	[72326]	1	KNOXVILLE/MUN., TN.			0	-83.98	35.82				1	0	63			None									['38', '85', '106', '107']							L.Haimberger	0
622	0-20000-0-63801	0	623	[63801]	1	KIGOMA			0	29.67	-4.89				1	0	63			Kigoma									['38', '85', '106', '107']							L.Haimberger	0
623	0-20000-0-54012	0	624	[54012]	1	XI UJIMQIN QI			0	117.6	44.58				1	0	63			Chifeng									['38', '85', '106', '107']							L.Haimberger	0
624	0-20000-0-47612	0	625	[47612]	1	TAKADA			0	138.25	37.11				1	0	63			Joetsu									['38', '85', '106', '107']							L.Haimberger	0
625	0-20000-0-88903	0	626	[88903]	1	GRYTVIKEN,  SOUTH GEORGIA			0	-36.5	-54.28				1	0	63			None									['38', '85', '106', '107']							L.Haimberger	0
626	0-20000-0-72617	0	627	[72617]	1	BURLINGTON/INT., VT.			0	-73.15	44.47				1	0	63			None									['38', '85', '106', '107']							L.Haimberger	0
627	0-20000-0-40938	0	628	[40938]	1	HERAT			0	62.22	34.22				1	0	63			Herat									['38', '85', '106', '107']							L.Haimberger	0
628	0-20000-0-41744	0	629	[41744]	1	KHUZDAR			0	66.63	27.83				1	0	63			Khuzdar									['38', '85', '106', '107']							L.Haimberger	0
629	0-20000-0-54539	0	630	[54539]	1	LETING			0	118.9	39.43				1	0	63			Changli									['38', '85', '106', '107']							L.Haimberger	0
630	0-20000-0-93615	0	631	[93614]	1	HOKITIKA AERO AWS			0	170.98	-42.71				1	0	63			Christchurch									['38', '85', '106', '107']							L.Haimberger	0
631	0-20000-0-54423	0	632	[54423]	1	CHENGDE			0	117.92	40.97				1	0	63			Chengde									['38', '85', '106', '107']							L.Haimberger	0
632	0-20000-0-27459	0	633	[27467]	1	NIZHNIJ NOVGOROD			0	44.0	56.27				1	0	63			Nizhniy Novgorod									['38', '85', '106', '107']							L.Haimberger	0
633	0-20000-0-72414	0	634	[72414]	1	CHARLESTON/KANAWHA., WV.			0	-81.6	38.37				1	0	63			None									['38', '85', '106', '107']							L.Haimberger	0
634	0-20000-0-51334	0	635	[51334]	1	JINGHE (51334-0)			0	82.82	44.57				1	0	63			Yining									['38', '85', '106', '107']							L.Haimberger	0
635	0-20000-0-72309	0	636	[72309]	1	CHERRY POINT/MCAS, NC.			0	-76.88	34.85				1	0	63			None									['38', '85', '106', '107']							L.Haimberger	0
636	0-20000-0-72508	0	637	[72508]	1	HARTFORD/BRADLEY INTNL., CT			0	-72.68	41.93				1	0	63			None									['38', '85', '106', '107']							L.Haimberger	0
637	0-20000-0-47632	0	638	[47632]	1	GIFU			0	136.76	35.4				1	0	63			Kasamatsu									['38', '85', '106', '107']							L.Haimberger	0
638	0-20000-0-80337	0	639	[80337]	1	TUMACO *			0	-78.77	1.85				1	0	63			None									['38', '85', '106', '107']							L.Haimberger	0
639	0-20000-0-91232	0	640	[91232]	1	SAIPAN (CG), MARIANA IS.			0	145.73	15.12				1	0	63			None									['38', '85', '106', '107']							L.Haimberger	0
640	0-20000-0-34737	0	641	[34737]	1	KUSHCHEVSKAJA			0	39.62	46.53				1	0	63			Kushchevskaya									['38', '85', '106', '107']							L.Haimberger	0
641	0-20000-0-83842	0	642	[83842]	1	CURITIBA (83842-0)			0	-49.27	-25.42				1	0	63			None									['38', '85', '106', '107']							L.Haimberger	0
642	0-20000-0-82640	0	643	[82640]	1	JACAREACANGA			0	-57.73	-6.27				1	0	63			None									['38', '85', '106', '107']							L.Haimberger	0
643	0-20000-0-59082	0	644	[59082]	1	SHAOGUAN			0	113.6	24.67				1	0	63			Shaoguan									['38', '85', '106', '107']							L.Haimberger	0
644	0-20000-0-57014	0	645	[57006]	1	BEIDAO			0	105.87	34.57				1	0	63			Beidao									['38', '85', '106', '107']							L.Haimberger	0
645	0-20000-0-74755	0	646	[74755]	1	CLAIBORNE RANGE, LA. (AFS)			0	-92.57	31.13				1	0	63			None									['38', '85', '106', '107']							L.Haimberger	0
646	0-20000-0-44239	0	647	[44239]	1	BULGAN			0	103.52	48.82				1	0	63			Bulgan									['38', '85', '106', '107']							L.Haimberger	0
647	0-20000-0-96145	0	648	[96145]	1	TAREMPA			0	106.22	3.22				1	0	63			Mersing									['38', '85', '106', '107']							L.Haimberger	0
648	0-20000-0-42415	0	649	[42415]	1	TEZPUR			0	92.78	26.62				1	0	63			Tezpur									['38', '85', '106', '107']							L.Haimberger	0
649	0-20000-0-91690	0	650	[91690]	1	LAUTHALA BAY			0	178.45	-18.15				1	0	63			None									['38', '85', '106', '107']							L.Haimberger	0
650	0-20000-0-67965	0	651	[67965]	1	BULAWAYO (GOETZ OBSY.)			0	28.62	-20.15				1	0	63			Bulawayo									['38', '85', '106', '107']							L.Haimberger	0
651	0-20000-0-87166	0	652	[87166]	1	CORRIENTES AERO			0	-58.76	-27.45				1	0	63			None									['38', '85', '106', '107']							L.Haimberger	0
652	0-20000-0-42895	0	653	[42895]	1	BALASORE			0	86.93	21.52				1	0	63			Baleshwar									['38', '85', '106', '107']							L.Haimberger	0
653	0-20000-0-97876	0	654	[97876]	1	TANAH MERAH			0	140.3	-6.1				1	0	63			Kiunga									['38', '85', '106', '107']							L.Haimberger	0
654	0-20000-0-11968	0	655	[11968]	1	KOSICE			0	21.22	48.67				1	0	63			Kosice									['38', '85', '106', '107']							L.Haimberger	0
655	0-20000-0-55773	0	656	[55773]	1	PAGRI			0	89.08	27.73				1	0	63			Gangtok									['38', '85', '106', '107']							L.Haimberger	0
656	0-20000-0-61695	0	657	[61695]	1	ZIGUINCHOR			0	-16.27	12.55				1	0	63			None									['38', '85', '106', '107']							L.Haimberger	0
657	0-20000-0-56033	0	658	[56033]	1	MADOI			0	98.22	34.92				1	0	63			Xining									['38', '85', '106', '107']							L.Haimberger	0
658	0-20000-0-72411	0	659	[72411]	1	ROANOKE/MUN., VA.			0	-79.97	37.32				1	0	63			None									['38', '85', '106', '107']							L.Haimberger	0
659	0-20000-0-95966	0	660	[94968]	1	LAUNCESTON AIRPORT			0	147.21	-41.55				1	0	63			Launceston									['38', '85', '106', '107']							L.Haimberger	0
660	0-20000-0-47690	0	661	[47690]	1	NIKKO			0	139.5	36.74				1	0	63			Nikko									['38', '85', '106', '107']							L.Haimberger	0
661	0-20000-0-68024	0	662	[68024]	1	GHANZI			0	21.65	-21.7				1	0	63			Ghanzi									['38', '85', '106', '107']							L.Haimberger	0
662	0-20000-0-96633	0	663	[96633]	1	BALIKPAPAN/SEPINGGAN			0	116.89	-1.26				1	0	63			Balikpapan									['38', '85', '106', '107']							L.Haimberger	0
663	0-20000-0-74777	0	664	[74777]	1	HURLBURT FIELD, FL. (AF)			0	-86.68	30.42				1	0	63			None									['38', '85', '106', '107']							L.Haimberger	0
664	0-20000-0-55578	0	665	[55578]	1	XIGAZE			0	88.88	29.25				1	0	63			Punakha									['38', '85', '106', '107']							L.Haimberger	0
665	0-20000-0-41466	0	666	[41390]	1	TAIZ			0	44.13	13.68				1	0	63			Ibb									['38', '85', '106', '107']							L.Haimberger	0
666	0-20000-0-89601	0	667	[89601]	1	OAZIC BANGERA			0	100.75	-66.27				1	0	63			None									['38', '85', '106', '107']							L.Haimberger	0
667	0-20000-0-30683	0	668	[30683]	1	EROFEJ PAVLOVIC			0	121.93	53.97				1	0	63			Skovorodino									['38', '85', '106', '107']							L.Haimberger	0
668	0-20000-0-06400	0	669	[6400]	1	KOKSIJDE			0	2.65	51.09				1	0	63			Veurne									['38', '85', '106', '107']							L.Haimberger	0
669	0-20000-0-60640	0	670	[60640]	1	ILLIZI			0	8.42	26.5				1	0	63			Gat									['38', '85', '106', '107']							L.Haimberger	0
670	0-20000-0-48455	0	671	[48456]	1	BANGNA AGROMET			0	100.61	13.67				1	0	63			Pak Kret									['38', '85', '106', '107']							L.Haimberger	0
671	0-20000-0-17248	0	672	[17248]	1	EREGLI/KONYA			0	34.05	37.53				1	0	63			Eregli									['38', '85', '106', '107']							L.Haimberger	0
672	0-20000-0-59358	0	673	[46743]	1	TAINAN			0	120.22	23.0				1	0	63			Tainan									['38', '85', '106', '107']							L.Haimberger	0
673		0	674	[27331]	1				0						1	0	63			Yaroslavl									['38', '85', '106', '107']							L.Haimberger	0
674	0-20000-0-78547	0	675	[78547]	1	CHRISTIANSTED/ALEX. HAMILTON FIELD,  ST. CROIX			0	-64.8	17.7				1	0	63			None									['38', '85', '106', '107']							L.Haimberger	0
675		0	676	[52391]	1				0						1	0	63			Haibowan									['38', '85', '106', '107']							L.Haimberger	0
676	0-20000-0-41950	0	677	[41950]	1	BARISAL			0	90.37	22.75				1	0	63			Teknaf									['38', '85', '106', '107']							L.Haimberger	0
677	0-20000-0-74693	0	678	[74693]	1	FORT BRAGG / SIMMONS AAF, NC.			0	-78.93	35.13				1	0	63			None									['38', '85', '106', '107']							L.Haimberger	0
678	0-20000-0-72428	0	679	[72428]	1	COLUMBUS/PORT COLUMBUS, OH.			0	-82.88	40.0				1	0	63			None									['38', '85', '106', '107']							L.Haimberger	0
679	0-20000-0-48930	0	680	[48930]	1	LUANG-PRABANG			0	102.13	19.88				1	0	63			Luang Prabang									['38', '85', '106', '107']							L.Haimberger	0
680	0-20000-0-47816	0	681	[47816]	1	IKITSUKIJIMA			0	129.43	33.44				1	0	63			Fukue									['38', '85', '106', '107']							L.Haimberger	0
681	0-20000-0-74370	0	682	[74370]	1	FORT DRUM/WHEELER-SACK AAF, NY			0	-75.73	44.05				1	0	63			None									['38', '85', '106', '107']							L.Haimberger	0
682	0-20000-0-91217	0	683	[91215]	1	WEATHER FORECAST OFFICE, GUAM, MARIANA IS.			0	144.79	13.48				1	0	63			None									['38', '85', '106', '107']							L.Haimberger	0
683	0-20000-0-51716	0	684	[51716]	1	BACHU			0	78.57	39.8				1	0	63			Shache									['38', '85', '106', '107']							L.Haimberger	0
684	0-20000-0-71601	0	685	[71601]	1	CFB SHEARWATER, NS			0	-63.5	44.63				1	0	63			None									['38', '85', '106', '107']							L.Haimberger	0
685	0-20000-0-74754	0	686	[74754]	1	ENGLAND AFB, LA.			0	-92.55	31.32				1	0	63			None									['38', '85', '106', '107']							L.Haimberger	0
686	0-20000-0-37686	0	687	[37686]	1	GYUMRI			0	43.86	40.76				1	0	63			Gyumri									['38', '85', '106', '107']							L.Haimberger	0
687	0-20000-0-60127	0	688	[60127]	1	TAZA			0	-4.0	34.22				1	0	63			None									['38', '85', '106', '107']							L.Haimberger	0
688	0-20000-0-94174	0	689	[94175]	1	HORN ISLAND			0	142.29	-10.58				1	0	63			Daru									['38', '85', '106', '107']							L.Haimberger	0
689	0-20000-0-15300	0	690	[15300]	1	BRASOV-GHIMBAV			0	25.53	45.7				1	0	63			Fagaras									['38', '85', '106', '107']							L.Haimberger	0
690	0-20000-0-42260	0	691	[42260]	1	AGRA (42260-0)			0	77.97	27.15				1	0	63			Agra									['38', '85', '106', '107']							L.Haimberger	0
691	0-20000-0-58321	0	692	[58321]	1	HEFEI			0	117.05	31.95				1	0	63			Hefei									['38', '85', '106', '107']							L.Haimberger	0
692	0-20000-0-67489	0	693	[67489]	1	MZUZU			0	34.02	-11.45				1	0	63			Nkhata Bay									['38', '85', '106', '107']							L.Haimberger	0
693	0-20000-0-64510	0	694	[64510]	1	BITAM			0	11.48	2.08				1	0	63			Bitam									['38', '85', '106', '107']							L.Haimberger	0
694	0-20000-0-41466	0	695	[41390]	1	TAIZ			0	44.13	13.68				1	0	63			Ibb									['38', '85', '106', '107']							L.Haimberger	0
695	0-20000-0-41859	0	696	[41859]	1	RANGPUR			0	89.23	25.73				1	0	63			Rangpur									['38', '85', '106', '107']							L.Haimberger	0
696	0-20000-0-59134	0	697	[59135]	1	XIAMEN			0	118.08	24.48				1	0	63			Xiamen									['38', '85', '106', '107']							L.Haimberger	0
697	0-20000-0-68328	0	698	[68328]	1	TSABONG			0	22.45	-26.05				1	0	63			Vryburg									['38', '85', '106', '107']							L.Haimberger	0
698	0-20000-0-94693	0	699	[94693]	1	MILDURA AIRPORT			0	142.09	-34.24				1	0	63			Mildura									['38', '85', '106', '107']							L.Haimberger	0
699	0-20000-0-67157	0	700	[67157]	1	FARAFANGANA			0	47.83	-22.8				1	0	63			Farafangana									['38', '85', '106', '107']							L.Haimberger	0
700	0-20000-0-57731	0	701	[57731]	1	SINAN			0	108.25	27.95				1	0	63			Tongren									['38', '85', '106', '107']							L.Haimberger	0
701		0	702	[50838]	1				0						1	0	63			Wulanhaote									['38', '85', '106', '107']							L.Haimberger	0
702	0-20000-0-07747	0	703	[7747]	1	PERPIGNAN			0	2.87	42.74				1	0	63			Perpignan									['38', '85', '106', '107']							L.Haimberger	0
703	0-20000-0-94995	0	704	[93995]	1	LORD HOWE ISLAND AERO			0	159.08	-31.54				1	0	63			None									['38', '85', '106', '107']							L.Haimberger	0
704	0-20000-0-10126	0	705	[10122]	1	WITTMUNDHAVEN			0	7.67	53.55				1	0	63			Schortens									['38', '85', '106', '107']							L.Haimberger	0
705	0-20000-0-91217	0	706	[91215]	1	WEATHER FORECAST OFFICE, GUAM, MARIANA IS.			0	144.79	13.48				1	0	63			None									['38', '85', '106', '107']							L.Haimberger	0
706		0	707	[53868]	1				0						1	0	63			Linfen									['38', '85', '106', '107']							L.Haimberger	0
707	0-20000-0-44341	0	708	[44341]	1	MANDALGOBI			0	106.26	45.74				1	0	63			Mandalgovi									['38', '85', '106', '107']							L.Haimberger	0
708	0-20000-0-97385	0	709	[97385]	1	OE-CUSSIE			0	124.37	-9.2				1	0	63			Kefamenanu									['38', '85', '106', '107']							L.Haimberger	0
709	0-20000-0-47815	0	710	[47815]	1	OITA			0	131.62	33.24				1	0	63			Beppu									['38', '85', '106', '107']							L.Haimberger	0
710	0-20000-0-34737	0	711	[34737]	1	KUSHCHEVSKAJA			0	39.62	46.53				1	0	63			Kushchevskaya									['38', '85', '106', '107']							L.Haimberger	0
711	0-20000-0-43194	0	712	[43194]	1	GOA/PANJIM			0	73.82	15.48				1	0	63			Mormugao									['38', '85', '106', '107']							L.Haimberger	0
712	0-20000-0-72439	0	713	[72439]	1	SPRINGFIELD/CAPITAL, IL.			0	-89.67	39.85				1	0	63			None									['38', '85', '106', '107']							L.Haimberger	0
713	0-20000-0-07434	0	714	[7435]	1	LIMOGES-BELLEGARDE			0	1.18	45.86				1	0	63			Limoges									['38', '85', '106', '107']							L.Haimberger	0
714	0-20000-0-74504	0	715	[74504]	1	PILAR POINT AFS, CA.			0	-122.5	37.5				1	0	63			None									['38', '85', '106', '107']							L.Haimberger	0
715	0-20000-0-47626	0	716	[47626]	1	KUMAGAYA			0	139.38	36.15				1	0	63			Kumagaya									['38', '85', '106', '107']							L.Haimberger	0
716	0-20000-0-60720	0	717	[60720]	1	KELIBIA			0	11.08	36.85				1	0	63			Manzil Tamim									['38', '85', '106', '107']							L.Haimberger	0
717	0-20000-0-72515	0	718	[72515]	1	BINGHAMTON/BROOME CO., NY.			0	-75.98	42.22				1	0	63			None									['38', '85', '106', '107']							L.Haimberger	0
718	0-20000-0-41431	0	719	[41360]	1	HODEIDAH			0	42.98	14.75				1	0	63			Bajil									['38', '85', '106', '107']							L.Haimberger	0
719	0-20000-0-74504	0	720	[74504]	1	PILAR POINT AFS, CA.			0	-122.5	37.5				1	0	63			None									['38', '85', '106', '107']							L.Haimberger	0
720	0-20000-0-41560	0	721	[41560]	1	PARACHINAR			0	70.08	33.87				1	0	63			Azrow									['38', '85', '106', '107']							L.Haimberger	0
721	0-20000-0-07591	0	722	[7591]	1	EMBRUN			0	6.5	44.57				1	0	63			Gap									['38', '85', '106', '107']							L.Haimberger	0
