	primary_id	primary_id_scheme	record_number	secondary_id	secondary_id_scheme	station_name	station_abbreviation	alternative_name	station_crs	longitude	latitude	local_gravity	start_date	end_date	station_type	platform_type	platform_sub_type	operating_institute	operating_territory	city	contact	role	observing_frequency	reporting_time	telecommunication_method	station_automation	measuring_system_model	measuring_system_id	observed_variables	comment	optional_data	bbox_min_longitude	bbox_max_longitude	bbox_min_latitude	bbox_max_latitude	metadata_contact	metadata_contact_role
0	0-20000-0-97530	0	1	[97530]	3	MANOKWARI/RENDANI			0	134.05	-0.89		20090417	20110104	1	0	63	NMS		Manokwari									['38', '85', '106', '107']							L.Haimberger	0
1	0-20000-0-74531	0	2	[74531]	3	AIR FORCE ACADEMY,  CO.			0	-104.82	38.97		19690222	20010106	1	0	63	NMS		None									['38', '85', '106', '107']							L.Haimberger	0
2	0-20000-0-74530	0	3	[74530]	3	GRANADA, CO.			0	-102.18	37.77		19710701	19730316	1	0	63	NMS		None									['38', '85', '106', '107']							L.Haimberger	0
3	0-20000-0-85245	0	4	[85245]	3	SANTA CRUZ/EL TROMPILLO			0	-63.18	-17.8		20020320	20040311	1	0	63	NMS		None									['38', '85', '106', '107']							L.Haimberger	0
4	0-20000-0-81250	0	5	[81250]	3	TAFELBERG			0	-56.15	3.78		19760129	19860319	1	0	63	NMS		None									['38', '85', '106', '107']							L.Haimberger	0
5	0-20000-0-66450	0	6	[66450]	3	BAIA DOS TIGRES			0	11.72	-16.6		20141023	20141023	1	0	63	NMS		Namibe									['38', '85', '106', '107']							L.Haimberger	0
6	0-20000-0-87270	0	7	[87270]	3	RECONQUISTA AERO			0	-59.69	-29.2		19570701	19581009	1	0	63	NMS		None									['38', '85', '106', '107']							L.Haimberger	0
7	0-20000-0-60141	0	8	[60141]	3	FES-SAIS			0	-4.98	33.93		19620102	19661017	1	0	63	NMS	227	None									['38', '85', '106', '107']							L.Haimberger	0
8	0-20000-0-91902	0	9	[91902]	3	MALDEN ISLAND (NORPAX)			0	-155.0	-4.05		19620320	19620711	1	0	63	NMS		None									['38', '85', '106', '107']							L.Haimberger	0
9	0-20000-0-91385	0	10	[91385]	3	PALMYRA ISLAND			0	-162.05	5.88		19510330	19621030	1	0	63	NMS		None									['38', '85', '106', '107']							L.Haimberger	0
10	0-20000-0-80421	0	11	[80421]	3	PORLAMAR (AEROPUERTO INT. DEL CARIBE)			0	-63.97	10.92		19760722	19840908	1	0	63	NMS		None									['38', '85', '106', '107']							L.Haimberger	0
11	0-20000-0-71892	0	12	[71892]	3	VANCOUVER INT'L A, BC			0	-123.18	49.19		19700316	19911003	1	0	63	NMS		None									['38', '85', '106', '107']							L.Haimberger	0
12	0-20000-0-91176	0	13	[91176]	3	KANEOHE BAY (MCAS),  OAHU, HAWAII			0	-157.77	21.45		19850207	20080709	1	0	63	NMS		None									['38', '85', '106', '107']							L.Haimberger	0
13	0-20000-0-70291	0	14	[70291]	3	NORTHWAY			0	-141.93	62.97		19500709	19520630	1	0	63	NMS		None									['38', '85', '106', '107']							L.Haimberger	0
14	0-20000-0-72423	0	15	[72423]	3	LOUISVILLE/STANDIFORD, KY.			0	-85.73	38.18		19680117	19730615	1	0	63	NMS	9	None									['38', '85', '106', '107']							L.Haimberger	0
15	0-20000-0-70381	0	16	[70381]	3	JUNEAU			0	-134.58	58.37		19490225	19520630	1	0	63	NMS		None									['38', '85', '106', '107']							L.Haimberger	0
16	0-20000-0-91541	0	17	[91541]	3	SANTA CRUZ (91541-0)			0	165.8	-10.7		19921112	19930222	1	0	63	NMS		Luganville									['38', '85', '106', '107']							L.Haimberger	0
17	0-20000-0-56586	0	18	[56586]	3	ZHAOTONG			0	103.75	27.33		19560820	19591231	1	0	63	NMS		Zhaotong									['38', '85', '106', '107']							L.Haimberger	0
18	0-20000-0-43367	0	19	[43367]	3	CAR NICOBAR			0	92.83	9.17		19550102	19621031	1	0	63	NMS		Port Blair									['38', '85', '106', '107']							L.Haimberger	0
19	0-20500-0-43015	0	20	[52856]	3	QINGHAI PROV AIR SAM			0	100.92	36.27		19660527	19990830	1	0	63	NMS		Xining									['38', '85', '106', '107']							L.Haimberger	0
20	0-20000-0-62760	0	21	[62760]	3	EL FASHER			0	25.33	13.62		19730207	20090801	1	0	63	NMS	135	Umm Kaddadah									['38', '85', '106', '107']							L.Haimberger	0
21	0-20000-0-30823	0	22	[30823]	3	ULAN-UDE			0	107.6	51.83		19620809	19680831	1	0	63	NMS		Ulan-Ude									['38', '85', '106', '107']							L.Haimberger	0
22	0-20000-0-72536	0	23	[72536]	3	TOLEDO/EXPRESS, OH.			0	-83.8	41.6		19620304	19720928	1	0	63	NMS	9	None									['38', '85', '106', '107']							L.Haimberger	0
23	0-12-20000-60490	0	24	[60490]	3	ORAN-SENIA			0	0.36	35.38		19621217	19970615	1	0	63	NMS	114	None									['38', '85', '106', '107']							L.Haimberger	0
24	0-20000-0-91385	0	25	[91385]	3	PALMYRA ISLAND			0	-162.05	5.88		19510330	19621030	1	0	63	NMS		None									['38', '85', '106', '107']							L.Haimberger	0
25	0-20500-0-40303	0	26	[97450]	3	PEGUN ISLAND			0	134.28	0.82		19570701	19621219	1	0	63	NMS		Manokwari									['38', '85', '106', '107']							L.Haimberger	0
26	0-20300-0-87827	0	27	[87827]	3	ALMIRANTE ZAR			0	-65.3	-43.2333		19740325	20010410	1	0	63	NMS		None									['38', '85', '106', '107']							L.Haimberger	0
27	0-20500-0-54723	0	28	[54723]	3	MUIR AAF			0	-75.43	40.43		19771020	20010707	1	0	63	NMS	9	Binzhou									['38', '85', '106', '107']							L.Haimberger	0
28	0-20300-0-46902	0	29	[46902]	3	NENSHA ISL			0	115.833	10.717		19971111	19980519	1	0	63	NMS		Panacan									['38', '85', '106', '107']							L.Haimberger	0
29	0-20000-0-72698	0	30	[72698]	3	PORTLAND/INT., OR.			0	-122.6	45.6		19721031	19730618	1	0	63	NMS		None									['38', '85', '106', '107']							L.Haimberger	0
30	0-20000-0-91541	0	31	[91541]	3	SANTA CRUZ (91541-0)			0	165.8	-10.7		19921112	19930222	1	0	63	NMS		Luganville									['38', '85', '106', '107']							L.Haimberger	0
31	0-20000-0-30822	0	32	[30822]	3	BABUSKIN			0	105.85	51.71		19670922	19680618	1	0	63	NMS		Selenginsk									['38', '85', '106', '107']							L.Haimberger	0
32	0-20000-0-64705	0	33	[64705]	3	BOUSSO			0	16.72	10.48		20121220	20121220	1	0	63	NMS	161	Bousso									['38', '85', '106', '107']							L.Haimberger	0
33	0-20000-0-67113	0	34	[67113]	3	MAHANORO			0	48.8	-19.83		19660510	20040820	1	0	63	NMS		Mahanoro									['38', '85', '106', '107']							L.Haimberger	0
34	0-20000-0-56951	0	35	[56951]	3	LINCANG			0	100.17	23.95		19670922	19870622	1	0	63	NMS		Simao									['38', '85', '106', '107']							L.Haimberger	0
35	0-20000-0-54027	0	36	[54027]	3	LINDONG			0	119.32	43.95		19800731	19870622	1	0	63	NMS		Chifeng									['38', '85', '106', '107']							L.Haimberger	0
36	0-20000-0-63533	0	37	[63533]	3	NEGHELLE			0	39.57	5.33		19940224	20081006	1	0	63	NMS		Shakiso									['38', '85', '106', '107']							L.Haimberger	0
37	0-20000-0-96323	0	38	[96323]	3	KUALA BELAIT			0	114.2	4.58		19990708	20210309	1	0	63	NMS		Miri									['38', '85', '106', '107']							L.Haimberger	0
38	0-20000-0-71831	0	39	[71831]	3	KAPUSKASING A, ONT			0	-82.47	49.41		19620308	19620915	1	0	63	NMS	9	None									['38', '85', '106', '107']							L.Haimberger	0
39	0-20000-0-82586	0	40	[82586]	3	QUIXERAMOBIM (82586-0)			0	-39.3	-5.2		19760610	19791211	1	0	63	NMS		None									['38', '85', '106', '107']							L.Haimberger	0
40	0-20000-0-72414	0	41	[72414]	3	CHARLESTON/KANAWHA., WV.			0	-81.6	38.37		19720908	19800124	1	0	63	NMS	9	None									['38', '85', '106', '107']							L.Haimberger	0
41	0-20000-0-60445	0	42	[60445]	3	SETIF/AIN ARNAT			0	5.32	36.17		19860628	19870623	1	0	63	NMS	68	Tazmalt									['38', '85', '106', '107']							L.Haimberger	0
42	0-20000-0-59134	0	43	[59137]	3	XIAMEN			0	118.08	24.48		19600502	19610730	1	0	63	NMS		Xiamen									['38', '85', '106', '107']							L.Haimberger	0
43	0-20000-0-62016	0	44	[62016]	3	MISURATA			0	15.02	32.24		19630707	19870121	1	0	63	NMS	195	Misratah									['38', '85', '106', '107']							L.Haimberger	0
44	0-20000-0-71861	0	45	[71861]	3	BROADVIEW, SASK			0	-102.57	50.37		19870327	20001015	1	0	63	NMS		None									['38', '85', '106', '107']							L.Haimberger	0
45	0-20000-0-72524	0	46	[72524]	3	CLEVELAND/CLEVELAND-HOPKINS, OH.			0	-81.87	41.42		19710401	19730522	1	0	63	NMS	9	None									['38', '85', '106', '107']							L.Haimberger	0
46	0-20000-0-97120	0	47	[97120]	3	MAJENE			0	118.98	-3.55		20090326	20110104	1	0	63	NMS		Polewali									['38', '85', '106', '107']							L.Haimberger	0
47	0-20000-0-92076	0	48	[94076]	3	KAVIENG W.O.			0	150.82	-2.57		19911218	19941023	1	0	63	NMS		Kavieng									['38', '85', '106', '107']							L.Haimberger	0
48	0-20000-0-96171	0	49	[96171]	3	RENGAT/JAPURA			0	102.33	-0.35		19820615	20110104	1	0	63	NMS		Mendahara									['38', '85', '106', '107']							L.Haimberger	0
49	0-20000-0-57662	0	50	[57662]	3	CHANGDE			0	111.68	29.05		19710409	19870618	1	0	63	NMS		Changde									['38', '85', '106', '107']							L.Haimberger	0
50	0-20000-0-94997	0	51	[94997]	3	HEARD ISLAND (THE SPIT)			0	73.72	-53.11		19480209	19541025	1	0	63	NMS	83	None									['38', '85', '106', '107']							L.Haimberger	0
51	0-20000-0-40045	0	52	[40045]	3	DEIR EZZOR			0	40.15	35.32		19600803	19700604	1	0	63	NMS	223	Abu Kamal									['38', '85', '106', '107']							L.Haimberger	0
52	0-20000-0-53276	0	53	[53276]	3	JURH			0	112.9	42.4		19560820	19880316	1	0	63	NMS		Erenhot									['38', '85', '106', '107']							L.Haimberger	0
53	0-20000-0-96491	0	54	[96491]	3	SANDAKAN			0	118.07	5.9		19700930	20101213	1	0	63	NMS		Sandakan									['38', '85', '106', '107']							L.Haimberger	0
54	0-20000-0-63695	0	55	[63695]	3	MERU			0	37.65	0.05		19790503	19951116	1	0	63	NMS		Meru									['38', '85', '106', '107']							L.Haimberger	0
55	0-20000-0-83967	0	56	[83967]	3	PORTO ALEGRE (83967-0)			0	-51.22	-30.02		19390601	19571230	1	0	63	NMS		None									['38', '85', '106', '107']							L.Haimberger	0
56	0-20000-0-60745	0	57	[60745]	3	GAFSA			0	8.82	34.42		19791112	20071111	1	0	63	NMS	68	Qafsah									['38', '85', '106', '107']							L.Haimberger	0
57	0-20000-0-96195	0	58	[96195]	3	JAMBI/SULTAN TAHA			0	103.65	-1.63		19770120	20110103	1	0	63	NMS		Jambi									['38', '85', '106', '107']							L.Haimberger	0
58	0-20000-0-50353	0	59	[50353]	3	HUMA			0	126.63	51.73		19631216	19900129	1	0	63	NMS		Shimanovsk									['38', '85', '106', '107']							L.Haimberger	0
59	0-20000-0-91170	0	60	[91170]	3	WAHIAWA (WHEELER/SCHOFIELD), OAHU,  HAWAII			0	-158.03	21.48		19720908	19901211	1	0	63	NMS		None									['38', '85', '106', '107']							L.Haimberger	0
60	0-20000-0-57766	0	61	[57766]	3	SHAOYANG			0	111.45	27.18		19591001	19591130	1	0	63	NMS		Shaoyang									['38', '85', '106', '107']							L.Haimberger	0
61	0-20000-0-61600	0	62	[61600]	3	SAINT-LOUIS			0	-16.45	16.05		19680410	20140131	1	0	63	NMS	8	None									['38', '85', '106', '107']							L.Haimberger	0
62	0-20000-0-80410	0	63	[80410]	3	BARQUISIMETO			0	-69.32	10.07		19650613	20000516	1	0	63	NMS		None									['38', '85', '106', '107']							L.Haimberger	0
63	0-20000-0-58752	0	64	[58659]	3	RUIAN			0	120.65	27.78		19560821	19591231	1	0	63	NMS		Wenzhou									['38', '85', '106', '107']							L.Haimberger	0
64	0-20000-0-48378	0	65	[48378]	3	PHITSANULOK			0	100.28	16.8		19780721	20110105	1	0	63	NMS		Phitsanulok									['38', '85', '106', '107']							L.Haimberger	0
65	0-404-300-472781389CO63741	0	66	[63742]	3	DAGORETTI CORNER			0	36.76	-1.3		19610313	19630923	1	0	63	NMS		Nairobi									['38', '85', '106', '107']							L.Haimberger	0
66	0-20000-0-96655	0	67	[96655]	3	PALANGKA RAYA/TJILIK RIWUT			0	113.95	-2.23		19880213	20110103	1	0	63	NMS		Sampit									['38', '85', '106', '107']							L.Haimberger	0
67	0-20000-0-74413	0	68	[74413]	3	SAYLOR CREEK GUNNERY RANGE, ID.			0	-115.7	42.53		19700212	19710716	1	0	63	NMS		None									['38', '85', '106', '107']							L.Haimberger	0
68	0-20000-0-32540	0	69	[32583]	3	PETROPAVLOVSK-KAMCHATSKIJ (32540-0)			0	158.58	53.08		19490125	19561128	1	0	63	NMS		Petropavlovsk-Kamchatskiy									['38', '85', '106', '107']							L.Haimberger	0
69	0-20000-0-96295	0	70	[96295]	3	TANJUNG KARANG/RADIN INTEN II			0	105.18	-5.1		19800801	20110104	1	0	63	NMS		Metro									['38', '85', '106', '107']							L.Haimberger	0
70	0-20000-0-72389	0	71	[72389]	3	FRESNO/AIR TERM.,  CA.			0	-119.72	36.77		19641117	19730531	1	0	63	NMS		None									['38', '85', '106', '107']							L.Haimberger	0
71	0-20500-0-74401	0	72	[74401]	3	ST JOSEPH WBO			0	-93.15	39.82		19620308	19671215	1	0	63	NMS		None									['38', '85', '106', '107']							L.Haimberger	0
72	0-20000-0-55696	0	73	[55696]	3	LHUNZE			0	92.47	28.42		19730214	19911217	1	0	63	NMS		Ziro									['38', '85', '106', '107']							L.Haimberger	0
73	0-20000-0-71869	0	74	[71869]	3	PRINCE ALBERT A, SASK			0	-105.67	53.22		19640129	19911028	1	0	63	NMS		None									['38', '85', '106', '107']							L.Haimberger	0
74	0-20000-0-71086	0	75	[71086]	3	FT. PROVIDENCE, NWT			0	-117.25	61.67		19620304	19640630	1	0	63	NMS		None									['38', '85', '106', '107']							L.Haimberger	0
75	0-20000-0-63630	0	76	[63630]	3	GULU			0	32.33	2.75		19570701	19770419	1	0	63	NMS	61	Gulu									['38', '85', '106', '107']							L.Haimberger	0
76	0-20000-0-97600	0	77	[97600]	3	SANANA			0	125.98	-2.07		19840509	20110104	1	0	63	NMS		Ambon									['38', '85', '106', '107']							L.Haimberger	0
77	0-20000-0-64459	0	78	[64459]	3	IMPFONDO			0	18.07	1.62		19630703	20010731	1	0	63	NMS	144	Impfondo									['38', '85', '106', '107']							L.Haimberger	0
78	0-20000-0-70267	0	79	[70267]	3	FORT GREELY/ALLEN AAF, AK			0	-145.73	64.0		19910723	19930408	1	0	63	NMS		None									['38', '85', '106', '107']							L.Haimberger	0
79	0-20000-0-61257	0	80	[61257]	3	KAYES			0	-11.43	14.43		19731227	19961017	1	0	63	NMS	8	None									['38', '85', '106', '107']							L.Haimberger	0
80	0-20000-0-61856	0	81	[61856]	3	LUNGI			0	-13.2	8.62		19630705	19790701	1	0	63	NMS		None									['38', '85', '106', '107']							L.Haimberger	0
81	0-20000-0-61931	0	82	[61931]	3	S. TOME			0	6.72	0.38		19630710	19810911	1	0	63	NMS	81	Port-Gentil									['38', '85', '106', '107']							L.Haimberger	0
82	0-20000-0-71129	0	83	[71129]	3	KINDERSLEY A, SASK			0	-109.18	51.52		19920813	19990721	1	0	63	NMS		None									['38', '85', '106', '107']							L.Haimberger	0
83	0-20000-0-31416	0	84	[31416]	3	IM POLINY OSIPENKO			0	136.5	52.42		19620815	19680303	1	0	63	NMS		Solnechnyy									['38', '85', '106', '107']							L.Haimberger	0
84	0-20000-0-96973	0	85	[96973]	3	KALIANGET (MADURA IS)			0	113.92	-7.04		20090325	20110104	1	0	63	NMS		Kalianget									['38', '85', '106', '107']							L.Haimberger	0
85	0-20300-0-53420	0	86	[53420]	3	XAMBA			0	107.17	40.97		19560820	19581228	1	0	63	NMS		Haibowan									['38', '85', '106', '107']							L.Haimberger	0
86	0-20000-0-96839	0	87	[96839]	3	SEMARANG/AHMAD YANI			0	110.38	-6.98		19731216	20110105	1	0	63	NMS		Semarang									['38', '85', '106', '107']							L.Haimberger	0
87	0-20000-0-96925	0	88	[96925]	3	SANGKAPURA (BAWEAN IS.)			0	112.66	-5.85		19690715	20110105	1	0	63	NMS		Paciran									['38', '85', '106', '107']							L.Haimberger	0
88	0-20000-0-58754	0	89	[58754]	3	FUDING			0	120.2	27.33		19710319	19870622	1	0	63	NMS		Jinxiang									['38', '85', '106', '107']							L.Haimberger	0
89	0-20000-0-70296	0	90	[70296]	3	CORDOVA/MILE 13			0	-145.5	60.5		19620304	19640729	1	0	63	NMS		None									['38', '85', '106', '107']							L.Haimberger	0
90	0-20000-0-71940	0	91	[71940]	3	GRANDE PRAIRIE A, ALTA			0	-118.89	55.18		19620304	19690130	1	0	63	NMS		None									['38', '85', '106', '107']							L.Haimberger	0
91	0-20000-0-67137	0	92	[67137]	3	FIANARANTSOA			0	47.1	-21.45		19660510	19951118	1	0	63	NMS		Fianarantsoa									['38', '85', '106', '107']							L.Haimberger	0
92	0-20000-0-60190	0	93	[60190]	3	KASBA-TADLA			0	-6.28	32.53		19570702	20050314	1	0	63	NMS	227	None									['38', '85', '106', '107']							L.Haimberger	0
93	0-20300-0-48849	0	94	[48849]	3	DONG HA			0	107.0833	16.8167		19660301	19680223	1	0	63	NMS		Hue									['38', '85', '106', '107']							L.Haimberger	0
94	0-20000-0-41529	0	95	[41529]	3	PESHAWAR			0	71.93	34.03		20141002	20141002	1	0	63	NMS		Amangarh									['38', '85', '106', '107']							L.Haimberger	0
95	0-20000-0-59158	0	96	[46751]	3	TAIZHONG			0	120.68	24.15		19870811	19951030	1	0	63	NMS		Taichung									['38', '85', '106', '107']							L.Haimberger	0
96	0-20000-0-54909	0	97	[54906]	3	DINGTAO			0	115.52	35.08		19710509	19870621	1	0	63	NMS		Heze									['38', '85', '106', '107']							L.Haimberger	0
97	0-20000-0-40039	0	98	[40039]	3	RAQQA			0	39.02	35.93		19700505	19760806	1	0	63	NMS	223	Manbij									['38', '85', '106', '107']							L.Haimberger	0
98	0-20000-0-93247	0	99	[93246]	3	ROTORUA AERO AWS			0	176.31	-38.11		19870325	19911025	1	0	63	NMS		Tokoroa									['38', '85', '106', '107']							L.Haimberger	0
99	0-20000-0-41992	0	100	[41992]	3	COX'S BAZAR			0	91.93	21.43		19830111	20110105	1	0	63	NMS		Teknaf									['38', '85', '106', '107']							L.Haimberger	0
100	0-20300-0-48867	0	101	[48867]	3	AN KHE (VVAK)			0	108.65	13.9667		19661119	19701110	1	0	63	NMS		Qui Nhon									['38', '85', '106', '107']							L.Haimberger	0
101	0-20300-0-74505	0	102	[74505]	3	SAN JOSE/EMSU			0	-121.8667	37.3167		19711013	19720628	1	0	63	NMS		None									['38', '85', '106', '107']							L.Haimberger	0
102	0-20000-0-63702	0	103	[63702]	3	MBARARA			0	30.65	-0.62		19610410	20051205	1	0	63	NMS	61	Mbarara									['38', '85', '106', '107']							L.Haimberger	0
103	0-20300-0-70204	0	104	[70204]	3	GAMBELL			0	-171.6	63.85		19490225	19520630	1	0	63	NMS		None									['38', '85', '106', '107']							L.Haimberger	0
104	0-20000-0-63791	0	105	[63791]	3	KILIMANJARO INT			0	37.06	-3.42		19760120	19860321	1	0	63	NMS	67	Kingori									['38', '85', '106', '107']							L.Haimberger	0
105	0-20000-0-56287	0	106	[56287]	3	YA'AN			0	103.0	29.98		19560820	19580531	1	0	63	NMS		Yaan									['38', '85', '106', '107']							L.Haimberger	0
106	0-20000-0-41515	0	107	[41515]	3	DROSH			0	71.78	35.57		19690521	20110105	1	0	63	NMS		Chitral									['38', '85', '106', '107']							L.Haimberger	0
107	0-20000-0-70268	0	108	[70268]	3	GLENNALLEN, AK			0	-145.97	62.1		19780425	19900502	1	0	63	NMS		None									['38', '85', '106', '107']							L.Haimberger	0
108	0-20000-0-59358	0	109	[46742]	3	TAINAN			0	120.22	23.0		19610504	19640930	1	0	63	NMS		Tainan									['38', '85', '106', '107']							L.Haimberger	0
109	0-20000-0-80425	0	110	[80425]	3	MENE GRANDE			0	-70.93	9.82		19700204	19850207	1	0	63	NMS	9	None									['38', '85', '106', '107']							L.Haimberger	0
110	0-20000-0-98425	0	111	[98425]	3	MANILA			0	120.98	14.59		19660218	19680827	1	0	63	NMS		Manila									['38', '85', '106', '107']							L.Haimberger	0
111	0-20000-0-67152	0	112	[67152]	3	RANOHIRA			0	45.4	-22.55		19680514	20170115	1	0	63	NMS		Ihosy									['38', '85', '106', '107']							L.Haimberger	0
112	0-20000-0-30683	0	113	[30683]	3	EROFEJ PAVLOVIC			0	121.93	53.97		19730414	19971120	1	0	63	NMS		Skovorodino									['38', '85', '106', '107']							L.Haimberger	0
113	0-20000-0-47629	0	114	[47629]	3	MITO			0	140.47	36.38		19691019	19701229	1	0	63	NMS		Oarai									['38', '85', '106', '107']							L.Haimberger	0
114	0-20000-0-81251	0	115	[81251]	3	SIPALIWINI			0	-56.12	2.03		19761118	19860706	1	0	63	NMS		None									['38', '85', '106', '107']							L.Haimberger	0
115	0-20000-0-68328	0	116	[68328]	3	TSABONG			0	22.45	-26.05		19910709	20101126	1	0	63	NMS		Vryburg									['38', '85', '106', '107']							L.Haimberger	0
116	0-20300-0-01020	0	117	[1020]	3	KINNVIKA STATION			0	18.3	80.05		19570918	19580815	1	0	63	NMS	104	None									['38', '85', '106', '107']							L.Haimberger	0
117	0-20000-0-76491	0	118	[76491]	3	CIUDAD VICTORIA, TAMPS.			0	-99.17	23.74		19500401	19520115	1	0	63	NMS		None									['38', '85', '106', '107']							L.Haimberger	0
118	0-20500-0-54723	0	119	[54723]	3	MUIR AAF			0	-75.43	40.43		19771020	20010707	1	0	63	NMS	9	Binzhou									['38', '85', '106', '107']							L.Haimberger	0
119	0-20500-0-54774	0	120	[54774]	3	BURLINGTON			0	-72.83	44.51		19570602	19960411	1	0	63	NMS	9	Weihai									['38', '85', '106', '107']							L.Haimberger	0
120	0-20000-0-57046	0	121	[57046]	3	HUA SHAN			0	110.08	34.48		19730118	19850429	1	0	63	NMS		Weinan									['38', '85', '106', '107']							L.Haimberger	0
121	0-20000-0-70267	0	122	[70267]	3	FORT GREELY/ALLEN AAF, AK			0	-145.73	64.0		19910723	19930408	1	0	63	NMS		None									['38', '85', '106', '107']							L.Haimberger	0
122	0-20000-0-54836	0	123	[54836]	3	YIYUAN			0	118.15	36.18		19641007	19870709	1	0	63	NMS		Linqu									['38', '85', '106', '107']							L.Haimberger	0
123	0-20000-0-78925	0	124	[78925]	3	LAMENTIN-AERO			0	-61.0	14.6		19750926	19870622	1	0	63	NMS		None									['38', '85', '106', '107']							L.Haimberger	0
124	0-20000-0-72412	0	125	[72412]	3	BECKLEY (RALEIGH CTY. MEMORIAL AIRPORT), WV.			0	-81.12	37.78		19631004	19721231	1	0	63	NMS	9	None									['38', '85', '106', '107']							L.Haimberger	0
125	0-20000-0-48379	0	126	[48379]	3	PHETCHABUN			0	101.15	16.43		19670102	20130105	1	0	63	NMS		Phetchabun									['38', '85', '106', '107']							L.Haimberger	0
126	0-20000-0-41768	0	127	[41768]	3	CHHOR			0	69.78	25.52		19790104	20110105	1	0	63	NMS	166	Chor									['38', '85', '106', '107']							L.Haimberger	0
127	0-20000-0-35925	0	128	[35925]	3	SAM			0	55.75	45.02		19680413	19691125	1	0	63	NMS	190	Beyneu									['38', '85', '106', '107']							L.Haimberger	0
128	0-20000-0-91176	0	129	[91176]	3	KANEOHE BAY (MCAS),  OAHU, HAWAII			0	-157.77	21.45		19810724	20080709	1	0	63	NMS		None									['38', '85', '106', '107']							L.Haimberger	0
129	0-20000-0-71488	0	130	[71488]	3	CARWAY, ALTA			0	-113.38	49.0		19940411	19940920	1	0	63	NMS		None									['38', '85', '106', '107']							L.Haimberger	0
130	0-20000-0-97690	0	131	[97690]	3	JAYAPURA/SENTANI			0	140.52	-2.58		19780413	20101212	1	0	63	NMS		Vanimo									['38', '85', '106', '107']							L.Haimberger	0
131	0-20000-0-15090	0	132	[15090]	3	IASI			0	27.63	47.16		19730327	19960513	1	0	63	NMS	192	Iasi									['38', '85', '106', '107']							L.Haimberger	0
132	0-20000-0-96179	0	133	[96179]	3	SINGKEP/DABO			0	104.58	-0.48		19810916	20110104	1	0	63	NMS		Simpang									['38', '85', '106', '107']							L.Haimberger	0
133	0-20000-0-80453	0	134	[80453]	3	TUMEREMO			0	-61.45	7.3		19760120	19841110	1	0	63	NMS		None									['38', '85', '106', '107']							L.Haimberger	0
134	0-20000-0-93891	0	135	[93890]	3	DUNEDIN AERO AWS			0	170.2	-45.93		19700428	19911028	1	0	63	NMS		Dunedin									['38', '85', '106', '107']							L.Haimberger	0
135	0-20300-0-32195	0	136	[32195]	3	SIMUSIR			0	151.8667	46.85		19530222	19620919	1	0	63	NMS		None									['38', '85', '106', '107']							L.Haimberger	0
136	0-20000-0-42539	0	137	[42539]	3	DEESA			0	72.2	24.2		20171214	20210430	1	0	63	NMS		Disa									['38', '85', '106', '107']							L.Haimberger	0
137	0-20000-2-29842	0	138	[29843]	3	Novokuznetsk			0	87.1	53.9		19550102	19561230	1	0	63	NMS		Novokuznetsk									['38', '85', '106', '107']							L.Haimberger	0
138	0-20000-0-87784	0	139	[87784]	3	SAN ANTONIO OESTE AERO			0	-65.03	-40.76		19460101	19550616	1	0	63	NMS		None									['38', '85', '106', '107']							L.Haimberger	0
139	0-20000-0-71488	0	140	[71488]	3	CARWAY, ALTA			0	-113.38	49.0		19940411	19940920	1	0	63	NMS		None									['38', '85', '106', '107']							L.Haimberger	0
140	0-20000-0-63260	0	141	[63260]	3	MOGADISCIO			0	45.35	2.03		19650504	19930103	1	0	63	NMS	74	Mogadishu									['38', '85', '106', '107']							L.Haimberger	0
141	0-20000-0-28676	0	142	[28679]	3	PETROPAVLOVSK (28676-0)			0	69.12	54.79		19660610	20010202	1	0	63	NMS		Petropavl									['38', '85', '106', '107']							L.Haimberger	0
142	0-20000-0-15023	0	143	[15023]	3	SUCEAVA			0	26.24	47.63		19760210	19820825	1	0	63	NMS	192	Suceava									['38', '85', '106', '107']							L.Haimberger	0
143	0-20000-0-41571	0	144	[41571]	3	ISLAMABAD AIRPORT			0	73.1	33.62		19761217	20090629	1	0	63	NMS		Rawalpindi									['38', '85', '106', '107']							L.Haimberger	0
144	0-20000-0-60430	0	145	[60430]	3	MILIANA			0	2.23	36.3		19741214	20030115	1	0	63	NMS	114	Medea									['38', '85', '106', '107']							L.Haimberger	0
145	0-20000-0-37897	0	146	[37897]	3	SISIAN			0	46.03	39.52		19620507	19790909	1	0	63	NMS	190	Sisian									['38', '85', '106', '107']							L.Haimberger	0
146	0-20000-0-54534	0	147	[54534]	3	TANGSHAN			0	118.1	39.65		19600601	19610314	1	0	63	NMS		Fengrun									['38', '85', '106', '107']							L.Haimberger	0
147	0-20300-0-56533	0	148	[56533]	3	LA WANG/TZUKEI			0	98.3833	27.6667		19590320	19611027	1	0	63	NMS		Tezu									['38', '85', '106', '107']							L.Haimberger	0
148	0-20000-0-87509	0	149	[87509]	3	SAN RAFAEL AERO			0	-68.4	-34.59		19690913	19720420	1	0	63	NMS		None									['38', '85', '106', '107']							L.Haimberger	0
149	0-20000-0-74530	0	150	[74530]	3	GRANADA, CO.			0	-102.18	37.77		19710701	19730316	1	0	63	NMS		None									['38', '85', '106', '107']							L.Haimberger	0
150	0-20000-0-25705	0	151	[25705]	3	SREDNIKAN			0	152.32	62.45		19620326	19630707	1	0	63	NMS		Magadan									['38', '85', '106', '107']							L.Haimberger	0
151	0-20000-0-47772	0	152	[47772]	3	OSAKA			0	135.52	34.68		19621029	20020101	1	0	63	NMS		Moriguchi									['38', '85', '106', '107']							L.Haimberger	0
152	0-20000-0-80450	0	153	[80450]	3	SAN FERNANDO DE APURE			0	-67.42	7.9		20070312	20121101	1	0	63	NMS		None									['38', '85', '106', '107']							L.Haimberger	0
153	0-20000-0-81253	0	154	[81253]	3	COEROENI			0	-57.33	3.37		19760725	19860303	1	0	63	NMS		None									['38', '85', '106', '107']							L.Haimberger	0
154	0-20000-0-60607	0	155	[60606]	3	TIMIMOUN			0	0.28	29.25		19570701	19581231	1	0	63	NMS	39	Adrar									['38', '85', '106', '107']							L.Haimberger	0
155	0-20000-0-96987	0	156	[96987]	3	BANYUWANGI			0	114.36	-8.22		19911002	20110103	1	0	63	NMS		Banyuwangi									['38', '85', '106', '107']							L.Haimberger	0
156	0-20000-0-62641	0	157	[62641]	3	PORT SUDAN			0	37.22	19.58		19660312	20030101	1	0	63	NMS		Sawakin									['38', '85', '106', '107']							L.Haimberger	0
157	0-20000-0-61075	0	158	[61075]	3	BIRNI-N'KONNI			0	5.25	13.8		19740727	20101224	1	0	63	NMS	46	Illela									['38', '85', '106', '107']							L.Haimberger	0
158	0-20000-0-38232	0	159	[38232]	3	AKKUDUK			0	54.09	42.97		19620318	19691125	1	0	63	NMS	190	Zhanaozen									['38', '85', '106', '107']							L.Haimberger	0
159	0-20300-0-37260	0	160	[37189]	3	SUKHUMI (AGMS)			0	41.033	43.016999999999996		19500112	19530701	1	0	63	NMS	223	Sukhumi									['38', '85', '106', '107']							L.Haimberger	0
160	0-20000-0-68727	0	161	[68728]	3	BEAUFORT WEST			0	22.57	-32.35		19800205	20020408	1	0	63	NMS		Oudtshoorn									['38', '85', '106', '107']							L.Haimberger	0
161	0-20000-0-56172	0	162	[56172]	3	BARKAM			0	102.23	31.9		19600602	19870622	1	0	63	NMS		Tianpeng									['38', '85', '106', '107']							L.Haimberger	0
162	0-20000-0-47140	0	163	[47141]	3	GUNSAN			0	126.76	36.01		19620304	19900423	1	0	63	NMS		Seoul									['38', '85', '106', '107']							L.Haimberger	0
163	0-20000-0-91554	0	164	[91554]	3	PEKOA AIRPORT (SANTO)			0	167.22	-15.52		19660513	19780414	1	0	63	NMS		Luganville									['38', '85', '106', '107']							L.Haimberger	0
164	0-20300-0-46746	0	165	[46746]	3	CHIAYI (TW-AFB)			0	120.383	23.467		19741216	19960424	1	0	63	NMS		Taipao									['38', '85', '106', '107']							L.Haimberger	0
165	0-20000-0-76499	0	166	[76499]	3	SOTO LA MARINA,  TAMPS.			0	-98.21	23.76		19630403	19680817	1	0	63	NMS		None									['38', '85', '106', '107']							L.Haimberger	0
166	0-20000-0-57902	0	167	[57902]	3	XINGREN			0	105.18	25.43		19690222	19870622	1	0	63	NMS		Xingyi									['38', '85', '106', '107']							L.Haimberger	0
167	0-20000-0-54094	0	168	[54094]	3	MUDANJIANG			0	129.67	44.5		19730611	19870622	1	0	63	NMS		Mudanjiang									['38', '85', '106', '107']							L.Haimberger	0
168	0-20000-0-96581	0	169	[96583]	3	PONTIANAK/SUPADIO			0	109.4	-0.15		19540704	19581231	1	0	63	NMS		Pontianak									['38', '85', '106', '107']							L.Haimberger	0
169	0-20000-0-41744	0	170	[41744]	3	KHUZDAR			0	66.63	27.83		19730613	20110103	1	0	63	NMS	69	Khuzdar									['38', '85', '106', '107']							L.Haimberger	0
170	0-20000-0-47655	0	171	[47655]	3	OMAEZAKI			0	138.21	34.6		19670616	19880219	1	0	63	NMS		Oyama									['38', '85', '106', '107']							L.Haimberger	0
171	0-20000-0-85406	0	172	[85406]	3	ARICA			0	-70.34	-18.35		19570711	19581211	1	0	63	NMS		None									['38', '85', '106', '107']							L.Haimberger	0
172	0-20000-0-43424	0	173	[43424]	3	PUTTALAM			0	79.83	8.03		20090324	20110104	1	0	63	NMS		Anuradhapura									['38', '85', '106', '107']							L.Haimberger	0
173	0-20000-0-54753	0	174	[54753]	3	LONGKOU			0	120.32	37.62		19740914	19870622	1	0	63	NMS		Longkou									['38', '85', '106', '107']							L.Haimberger	0
174	0-20000-0-40690	0	175	[40688]	3	BASRAH INT. AIRPORT			0	47.78	30.52		19490202	19570321	1	0	63	NMS	228	Khorramshahr									['38', '85', '106', '107']							L.Haimberger	0
175	0-20000-0-96001	0	176	[96001]	3	SABANG/CUT BAU			0	95.32	5.87		19731031	19901122	1	0	63	NMS		Sabang									['38', '85', '106', '107']							L.Haimberger	0
176	0-20000-0-86580	0	177	[86580]	3	CARRASCO			0	-56.01	-34.83		19570705	19670519	1	0	63	NMS		None									['38', '85', '106', '107']							L.Haimberger	0
177	0-20000-0-94907	0	178	[94907]	3	EAST SALE AIRPORT			0	147.13	-38.12		19680429	20090606	1	0	63	NMS		Sale									['38', '85', '106', '107']							L.Haimberger	0
178	0-20300-0-03992	0	179	[48901]	3	AN LOC			0	106.97	10.83		19520301	19541130	1	0	63	NMS		Bien Hoa									['38', '85', '106', '107']							L.Haimberger	0
179	0-20000-0-80448	0	180	[80448]	3	GUASDUALITO			0	-70.8	7.23		19760728	19850213	1	0	63	NMS	9	None									['38', '85', '106', '107']							L.Haimberger	0
180	0-20000-0-65510	0	181	[65510]	3	BOBO-DIOULASSO			0	-4.3	11.17		19700317	20110105	1	0	63	NMS		None									['38', '85', '106', '107']							L.Haimberger	0
181	0-20000-0-74631	0	182	[74631]	3	White Sands Rhodes Canyon			0	-106.49	33.16		19820522	20210316	1	0	63	NMS		None									['38', '85', '106', '107']							L.Haimberger	0
182	0-20000-0-30802	0	183	[30802]	3	MONDY			0	100.98	51.68		19620813	19641230	1	0	63	NMS		Slyudyanka									['38', '85', '106', '107']							L.Haimberger	0
183	0-20500-0-41025	0	184	[48875]	3	BAN ME THUOT			0	108.12	12.67		19660218	20020704	1	0	63	NMS		Buon Me Thuot									['38', '85', '106', '107']							L.Haimberger	0
184	0-20000-0-63789	0	185	[63789]	3	ARUSHA			0	36.63	-3.37		19610211	19720927	1	0	63	NMS		Arusha									['38', '85', '106', '107']							L.Haimberger	0
185	0-20500-0-53853	0	186	[53853]	3	DESTIN FT WALTON BCH			0	-85.53	30.4		19761111	19870620	1	0	63	NMS	9	Xinzhi									['38', '85', '106', '107']							L.Haimberger	0
186	0-20000-0-66447	0	187	[66447]	3	MAVINGA			0	20.35	-15.83		19570102	19710910	1	0	63	NMS	150	Rundu									['38', '85', '106', '107']							L.Haimberger	0
187	0-20000-0-42591	0	188	[42591]	3	GAYA (42591-0)			0	84.95	24.75		19770207	20110103	1	0	63	NMS		Gaya									['38', '85', '106', '107']							L.Haimberger	0
188	0-20000-0-74618	0	189	[74618]	3	CUDDLEBACK GUNNERY RANGE, CA.			0	-117.43	35.27		19680126	19691224	1	0	63	NMS		None									['38', '85', '106', '107']							L.Haimberger	0
189	0-20000-0-42105	0	190	[42105]	3	CHANDIGARH			0	76.88	30.73		20160101	20190607	1	0	63	NMS		Chandigarh									['38', '85', '106', '107']							L.Haimberger	0
190	0-20000-0-32150	0	191	[32152]	3	JUZHNO-SAHALINSK			0	142.72	46.95		19550701	19570831	1	0	63	NMS		Korsakov									['38', '85', '106', '107']							L.Haimberger	0
191	0-20000-0-48477	0	192	[48477]	3	SATTAHIP			0	100.99	12.69		19700721	20110104	1	0	63	NMS		Sattahip									['38', '85', '106', '107']							L.Haimberger	0
192	0-20000-0-51156	0	193	[51156]	3	HOBOKSAR			0	85.75	46.81		19680716	20110103	1	0	63	NMS		Baijiantan									['38', '85', '106', '107']							L.Haimberger	0
193	0-20000-0-63125	0	194	[69004]	3	DJIBOUTI			0	43.15	11.55		20171222	20190722	1	0	63	NMS	109	Jibuti									['38', '85', '106', '107']							L.Haimberger	0
194	0-20000-0-67853	0	195	[67853]	3	HWANGE NATIONAL PARK			0	27.0	-18.63		19810721	20020516	1	0	63	NMS		Hwange									['38', '85', '106', '107']							L.Haimberger	0
195	0-20000-0-61701	0	196	[61701]	3	BANJUL/YUNDUM			0	-16.65	13.34		19641002	19910201	1	0	63	NMS	8	None									['38', '85', '106', '107']							L.Haimberger	0
196	0-20000-0-96015	0	197	[96015]	3	MEULABOH/CUT NYAK DHIEN			0	96.25	4.05		20090322	20110104	1	0	63	NMS		Meulaboh									['38', '85', '106', '107']							L.Haimberger	0
197	0-20000-0-15230	0	198	[15230]	3	DEVA			0	22.9	45.87		19730509	19821119	1	0	63	NMS	192	Deva									['38', '85', '106', '107']							L.Haimberger	0
198	0-20000-0-83182	0	199	[83182]	3	IRECE (83182-0)			0	-41.87	-11.3		19760121	19791002	1	0	63	NMS		None									['38', '85', '106', '107']							L.Haimberger	0
199	0-20000-0-16687	0	200	[16689]	3	ARAXOS (AIRPORT)			0	21.42	38.15		19491001	19530221	1	0	63	NMS		Patrai									['38', '85', '106', '107']							L.Haimberger	0
200	0-20500-0-51701	0	201	[51701]	3	CALLAD			0	-76.87	-11.98		19730414	19930715	1	0	63	NMS	9	At-Bashi									['38', '85', '106', '107']							L.Haimberger	0
201	0-20000-0-07661	0	202	[7660]	3	CAP CEPET			0	5.94	43.08		19620311	19930721	1	0	63	NMS	68	Toulon									['38', '85', '106', '107']							L.Haimberger	0
202	0-20000-0-65082	0	203	[65082]	3	MAIDUGURI			0	13.08	11.85		20130318	20130318	1	0	63	NMS	163	Maiduguri									['38', '85', '106', '107']							L.Haimberger	0
203	0-20000-0-58040	0	204	[58040]	3	GANYU			0	119.13	34.85		19790122	19870622	1	0	63	NMS		Xinpu									['38', '85', '106', '107']							L.Haimberger	0
204	0-20000-0-53564	0	205	[53564]	3	HEQU			0	111.21	39.37		19671215	19900301	1	0	63	NMS		Dongsheng									['38', '85', '106', '107']							L.Haimberger	0
205	0-20000-0-87178	0	206	[87178]	3	POSADAS AERO			0	-55.97	-27.39		19811226	19980306	1	0	63	NMS		None									['38', '85', '106', '107']							L.Haimberger	0
206	0-20000-0-47648	0	207	[47648]	3	CHOSHI			0	140.86	35.74		19350107	19441028	1	0	63	NMS		Choshi									['38', '85', '106', '107']							L.Haimberger	0
207	0-20000-0-28900	0	208	[28901]	3	SAMARA (OGMS)			0	50.22	53.25		19490102	19560130	1	0	63	NMS	124	Samara									['38', '85', '106', '107']							L.Haimberger	0
208	0-20000-0-72312	0	209	[72312]	3	GREENVILLE/GREENVILLE SPARTANBURG, SC.			0	-82.22	34.9		19620306	19650129	1	0	63	NMS	9	None									['38', '85', '106', '107']							L.Haimberger	0
209	0-20000-0-64210	0	210	[64210]	3	KINSHASA/N'DJILI			0	15.43	-4.38		19661119	19900201	1	0	63	NMS	144	Kinshasa									['38', '85', '106', '107']							L.Haimberger	0
210	0-20000-0-67283	0	211	[67283]	3	QUELIMANE			0	36.88	-17.88		19670603	19851029	1	0	63	NMS		Quelimane									['38', '85', '106', '107']							L.Haimberger	0
211	0-20000-0-60560	0	212	[60560]	3	AIN-SEFRA			0	-0.6	32.77		19570702	19581231	1	0	63	NMS	229	None									['38', '85', '106', '107']							L.Haimberger	0
212	0-20000-0-81202	0	213	[81202]	3	NICKERIE			0	-57.03	5.95		19761127	19860227	1	0	63	NMS		None									['38', '85', '106', '107']							L.Haimberger	0
213	0-20000-0-54471	0	214	[54471]	3	YINGKOU			0	122.17	40.67		19590920	19591231	1	0	63	NMS		Dashiqiao									['38', '85', '106', '107']							L.Haimberger	0
214	0-20300-0-71855	0	215	[71855]	3	DAUPHIN AIRPORT			0	-100.05	51.1		19620305	19940826	1	0	63	NMS		None									['38', '85', '106', '107']							L.Haimberger	0
215	0-20000-0-40179	0	216	[40180]	3	BET DAGAN			0	34.82	32.0		19570630	20010517	1	0	63	NMS		Qiryat Ono									['38', '85', '106', '107']							L.Haimberger	0
216	0-20000-0-59007	0	217	[59007]	3	GUANGNAN			0	105.07	24.07		19730702	19910523	1	0	63	NMS		Kaihua									['38', '85', '106', '107']							L.Haimberger	0
217	0-20300-0-54339	0	218	[54339]	3	AN SHAN			0	122.95	41.1167		19600602	19620828	1	0	63	NMS		Jiupu									['38', '85', '106', '107']							L.Haimberger	0
218	0-20000-0-47131	0	219	[47131]	3	CHEONGJU			0	127.44	36.64		19800205	20000314	1	0	63	NMS		Seoul									['38', '85', '106', '107']							L.Haimberger	0
219	0-20000-0-60135	0	220	[60135]	3	RABAT-SALE			0	-6.76	34.05		19570701	19691219	1	0	63	NMS	227	None									['38', '85', '106', '107']							L.Haimberger	0
220	0-20000-0-63125	0	221	[69004]	3	DJIBOUTI			0	43.15	11.55		20171222	20190722	1	0	63	NMS	109	Jibuti									['38', '85', '106', '107']							L.Haimberger	0
221	0-20000-0-81209	0	222	[81209]	3	STOELMANSEILAND			0	-54.42	4.35		19761103	19860312	1	0	63	NMS		None									['38', '85', '106', '107']							L.Haimberger	0
222	0-20300-0-46746	0	223	[46767]	3	CHIAYI (TW-AFB)			0	120.383	23.467		19920311	19990531	1	0	63	NMS		Potzu									['38', '85', '106', '107']							L.Haimberger	0
223	0-20000-0-67012	0	224	[67012]	3	FASCENE (NOSSI-BE)			0	48.32	-13.32		19660605	19850715	1	0	63	NMS		Ambanja									['38', '85', '106', '107']							L.Haimberger	0
224	0-20001-0-16245	0	225	[16240]	3	PRATICA DI MARE RDS			0	12.45	41.67		19490104	19520731	1	0	63	NMS	68	Ciampino									['38', '85', '106', '107']							L.Haimberger	0
225	0-20000-0-64450	0	226	[64450]	3	BRAZZAVILLE /MAYA-MAYA			0	15.25	-4.25		19680622	20140614	1	0	63	NMS	144	Brazzaville									['38', '85', '106', '107']							L.Haimberger	0
226	0-20000-0-64750	0	227	[64750]	3	SARH			0	18.38	9.15		19690121	20170110	1	0	63	NMS	161	Sarh									['38', '85', '106', '107']							L.Haimberger	0
227	0-20000-0-33587	0	228	[33587]	3	Uman			0	30.23	48.77		19500104	19501031	1	0	63	NMS	107	Zhashkiv									['38', '85', '106', '107']							L.Haimberger	0
228	0-20000-0-94212	0	229	[94212]	3	HALLS CREEK AIRPORT			0	127.66	-18.23		19681006	20101201	1	0	63	NMS		Katherine									['38', '85', '106', '107']							L.Haimberger	0
229	0-20000-0-37395	0	230	[37395]	3	KUTAISI			0	42.63	42.25		19661109	19861130	1	0	63	NMS	78	Tskaltubo									['38', '85', '106', '107']							L.Haimberger	0
230	0-20000-0-15014	0	231	[15014]	3	BAIA MARE			0	23.47	47.66		19760204	19891201	1	0	63	NMS	192	Baia Mare									['38', '85', '106', '107']							L.Haimberger	0
231	0-20000-0-41696	0	232	[41696]	3	KALAT			0	66.58	29.03		20060418	20100106	1	0	63	NMS	69	Kalat									['38', '85', '106', '107']							L.Haimberger	0
232	0-20000-0-47807	0	233	[47802]	3	FUKUOKA			0	130.38	33.58		19400531	19440924	1	0	63	NMS		Shingu									['38', '85', '106', '107']							L.Haimberger	0
233	0-20000-0-12465	0	234	[12465]	3	LODZ-LUBLINEK			0	19.4	51.72		19691016	19941212	1	0	63	NMS	192	Konstantynow Lodzki									['38', '85', '106', '107']							L.Haimberger	0
234	0-20000-0-72503	0	235	[72503]	3	NEW YORK/LA GUARDIA, NY.			0	-73.9	40.77		19690801	19720612	1	0	63	NMS	9	None									['38', '85', '106', '107']							L.Haimberger	0
235	0-20000-0-52737	0	236	[52737]	3	DELINGHA			0	97.37	37.37		19641007	19911029	1	0	63	NMS		Yumen									['38', '85', '106', '107']							L.Haimberger	0
236	0-20000-0-54843	0	237	[54843]	3	WEIFANG			0	119.18	36.77		19600618	19610314	1	0	63	NMS		Weifang									['38', '85', '106', '107']							L.Haimberger	0
237	0-20000-0-37717	0	238	[37709]	3	SEVAN OZERO			0	45.01	40.57		19620507	19891017	1	0	63	NMS	190	Sevan									['38', '85', '106', '107']							L.Haimberger	0
238	0-20000-0-30688	0	239	[30688]	3	POKROVKA			0	121.55	53.35		19620813	19641228	1	0	63	NMS		Mogocha									['38', '85', '106', '107']							L.Haimberger	0
239	0-20000-0-63971	0	240	[63971]	3	MTWARA			0	40.18	-10.27		19570701	19941208	1	0	63	NMS		Mtwara									['38', '85', '106', '107']							L.Haimberger	0
240	0-20000-0-59134	0	241	[59137]	3	XIAMEN			0	118.08	24.48		19600503	19601231	1	0	63	NMS		Xiamen									['38', '85', '106', '107']							L.Haimberger	0
241	0-20300-0-72497	0	242	[72497]	3	CHICO MUNI			0	-121.85	39.7833		19691009	19720523	1	0	63	NMS		None									['38', '85', '106', '107']							L.Haimberger	0
242	0-20000-0-74693	0	243	[74693]	3	FORT BRAGG / SIMMONS AAF, NC.			0	-78.93	35.13		19710205	20170106	1	0	63	NMS	9	None									['38', '85', '106', '107']							L.Haimberger	0
243	0-20000-0-63478	0	244	[63478]	3	GODE			0	43.58	5.9		19861005	19881217	1	0	63	NMS	74	Xuddur									['38', '85', '106', '107']							L.Haimberger	0
244	0-20000-0-96751	0	245	[96755]	3	BOGOR/CITEKO			0	106.95	-6.7		19590323	19930503	1	0	63	NMS		Sukaraja									['38', '85', '106', '107']							L.Haimberger	0
245	0-20000-0-61226	0	246	[61226]	3	GAO			0	-0.05	16.27		19730827	19931127	1	0	63	NMS	39	None									['38', '85', '106', '107']							L.Haimberger	0
246	0-20000-0-12580	0	247	[12580]	3	RZESZOW-JASIONKA			0	22.02	50.11		19691020	19741117	1	0	63	NMS	192	Rzeszow									['38', '85', '106', '107']							L.Haimberger	0
247	0-20300-0-67194	0	248	[67194]	3	FAUX-CAP			0	45.533	-25.55		19700310	19790329	1	0	63	NMS		Tsihombe									['38', '85', '106', '107']							L.Haimberger	0
248	0-20000-0-72383	0	249	[72383]	3	SANDBERG, CA.			0	-118.73	34.75		19681024	19721231	1	0	63	NMS		None									['38', '85', '106', '107']							L.Haimberger	0
249	0-20000-0-74631	0	250	[74631]	3	White Sands Rhodes Canyon			0	-106.49	33.16		19820522	20210316	1	0	63	NMS		None									['38', '85', '106', '107']							L.Haimberger	0
250	0-20000-0-48991	0	251	[48991]	3	PHNOM-PENH (KHMOUGH)			0	104.87	11.6		19691226	20011117	1	0	63	NMS		Phnum Penh									['38', '85', '106', '107']							L.Haimberger	0
251	0-20000-0-57237	0	252	[57237]	3	WANYUAN			0	108.03	32.07		19640620	20050123	1	0	63	NMS		Daxian									['38', '85', '106', '107']							L.Haimberger	0
252	0-20000-0-63674	0	253	[63674]	3	KASESE			0	30.1	0.18		19700319	19940722	1	0	63	NMS	61	Kasese									['38', '85', '106', '107']							L.Haimberger	0
253	0-20300-0-67017	0	254	[67017]	3	VOHEMAR			0	50.0	-13.367		19691203	20040518	1	0	63	NMS		Sambava									['38', '85', '106', '107']							L.Haimberger	0
254	0-20000-0-52713	0	255	[52713]	3	DA-QAIDAM			0	95.37	37.85		19730106	19870622	1	0	63	NMS		Yumen									['38', '85', '106', '107']							L.Haimberger	0
255	0-20000-0-63478	0	256	[63478]	3	GODE			0	43.58	5.9		19861005	19881217	1	0	63	NMS	74	Xuddur									['38', '85', '106', '107']							L.Haimberger	0
256	0-20300-0-63818	0	257	[63818]	3	MOMBO			0	38.283	-4.883		19601214	19750108	1	0	63	NMS	67	Mazinde									['38', '85', '106', '107']							L.Haimberger	0
257	0-20000-0-31989	0	258	[31989]	3	PREOBRAZHENIE			0	133.9	42.9		19750105	19930604	1	0	63	NMS		Partizansk									['38', '85', '106', '107']							L.Haimberger	0
258	0-20000-0-72231	0	259	[72231]	3	NEW ORLEANS/MOISANT INT., LA.			0	-90.25	29.98		19650921	19670927	1	0	63	NMS		None									['38', '85', '106', '107']							L.Haimberger	0
259	0-20000-0-40621	0	260	[69792]	3	KIRKUK			0	44.4	35.47		20060417	20080512	1	0	63	NMS		Kirkuk									['38', '85', '106', '107']							L.Haimberger	0
260	0-20000-0-71920	0	261	[71920]	3	BACCARO PT, NS			0	-65.47	43.45		19870326	19911028	1	0	63	NMS		None									['38', '85', '106', '107']							L.Haimberger	0
261	0-20000-0-44454	0	262	[44454]	3	KATHMANDU AIRPORT			0	85.37	27.7		19790330	19800216	1	0	63	NMS		Lalitpur									['38', '85', '106', '107']							L.Haimberger	0
262	0-20000-0-30731	0	263	[30731]	3	GORJACINSK			0	108.29	52.99		19620814	19641124	1	0	63	NMS		Onokhoy									['38', '85', '106', '107']							L.Haimberger	0
263	0-20300-0-96881	0	264	[96881]	3	MADIUN/ISWAHYUD AFB			0	111.51700000000001	-7.617000000000001		19740706	19930521	1	0	63	NMS		Madiun									['38', '85', '106', '107']							L.Haimberger	0
264	0-20000-0-63230	0	265	[63230]	3	GALCAYO			0	47.27	6.85		19570630	19581231	1	0	63	NMS	74	Hobyo									['38', '85', '106', '107']							L.Haimberger	0
265	0-20000-0-63962	0	266	[63962]	3	SONGEA			0	35.58	-10.68		19570701	19860830	1	0	63	NMS		Songea									['38', '85', '106', '107']							L.Haimberger	0
266	0-20000-0-58527	0	267	[58527]	3	JINGDEZHEN			0	117.17	29.31		19700103	20020220	1	0	63	NMS		Jingdezhen									['38', '85', '106', '107']							L.Haimberger	0
267	0-20000-0-72509	0	268	[72509]	3	BOSTON/LOGAN INT., MA.			0	-71.03	42.37		19620327	19730426	1	0	63	NMS	9	None									['38', '85', '106', '107']							L.Haimberger	0
268	0-20000-0-37747	0	269	[37747]	3	EVLAKH AIRPORT			0	47.15	40.62		19660520	19740215	1	0	63	NMS	190	Yevlax									['38', '85', '106', '107']							L.Haimberger	0
269	0-20000-0-87395	0	270	[87395]	3	CONCORDIA AERO			0	-58.0	-31.3		19490120	19540925	1	0	63	NMS		None									['38', '85', '106', '107']							L.Haimberger	0
270	0-20000-0-68479	0	271	[68476]	3	LADYSMITH			0	29.75	-28.58		19820520	19900621	1	0	63	NMS		Ekuvukeni									['38', '85', '106', '107']							L.Haimberger	0
271	0-20000-0-27595	0	272	[27596]	3	KAZAN' (27595-0)			0	49.2	55.74		19500516	19560131	1	0	63	NMS	124	Kazan									['38', '85', '106', '107']							L.Haimberger	0
272	0-20000-0-57799	0	273	[57799]	3	JI'AN (57799-0)			0	114.97	27.12		19710421	20020330	1	0	63	NMS		Jian									['38', '85', '106', '107']							L.Haimberger	0
273	0-20300-0-01020	0	274	[1020]	3	KINNVIKA STATION			0	18.3	80.05		19570918	19580815	1	0	63	NMS	104	None									['38', '85', '106', '107']							L.Haimberger	0
274	0-20000-0-59417	0	275	[59417]	3	LONGZHOU			0	106.75	22.37		19680211	19870622	1	0	63	NMS		Lang Son									['38', '85', '106', '107']							L.Haimberger	0
275	0-20300-0-46736	0	276	[59135]	3	CHINMEM/SHATOU(AFB)			0	118.43299999999999	24.433000000000003		19600210	20000124	1	0	63	NMS		Xiamen									['38', '85', '106', '107']							L.Haimberger	0
276	0-20000-0-56106	0	277	[56106]	3	SOG XIAN			0	93.78	31.88		19740218	19960812	1	0	63	NMS		Lasa									['38', '85', '106', '107']							L.Haimberger	0
277	0-20500-0-53821	0	278	[53821]	3	PIKEVILLE			0	-81.48	37.48		19710419	19870719	1	0	63	NMS	9	Pingliang									['38', '85', '106', '107']							L.Haimberger	0
278	0-20000-0-43295	0	279	[43296]	3	BANGALORE			0	77.58	12.97		19540720	19680227	1	0	63	NMS		Bangalore									['38', '85', '106', '107']							L.Haimberger	0
279	0-20000-0-07650	0	280	[7650]	3	MARIGNANE			0	5.22	43.44		19620505	19651024	1	0	63	NMS	68	Vitrolles									['38', '85', '106', '107']							L.Haimberger	0
280	0-20000-0-67441	0	281	[67441]	3	MWINILUNGA			0	24.43	-11.75		19701006	19830120	1	0	63	NMS	150	Mwinilunga									['38', '85', '106', '107']							L.Haimberger	0
281	0-20000-0-15145	0	282	[15145]	3	TARGU-MURES			0	24.52	46.53		19760125	19961020	1	0	63	NMS	192	Targu-Mures									['38', '85', '106', '107']							L.Haimberger	0
282	0-20000-0-80422	0	283	[80422]	3	CARUPANO, SUCRE			0	-63.25	10.67		20120830	20150626	1	0	63	NMS		None									['38', '85', '106', '107']							L.Haimberger	0
283	0-20000-0-65592	0	284	[65592]	3	TABOU			0	-7.37	4.42		19760511	19911214	1	0	63	NMS		None									['38', '85', '106', '107']							L.Haimberger	0
284	0-20000-0-87078	0	285	[87078]	3	LAS LOMITAS			0	-60.59	-24.7		19531007	19571031	1	0	63	NMS		None									['38', '85', '106', '107']							L.Haimberger	0
285	0-20000-0-85268	0	286	[85268]	3	ROBORE			0	-59.77	-18.32		20020318	20030915	1	0	63	NMS		None									['38', '85', '106', '107']							L.Haimberger	0
286	0-20000-0-41907	0	287	[41907]	3	ISHWARDI			0	89.05	24.13		19830214	20110105	1	0	63	NMS		Ishurdi									['38', '85', '106', '107']							L.Haimberger	0
287	0-20000-0-42675	0	288	[42675]	3	JABALPUR			0	79.95	23.2		20190731	20200914	1	0	63	NMS	166	Jabalpur									['38', '85', '106', '107']							L.Haimberger	0
288	0-20000-0-52908	0	289	[52908]	3	WUDAOLIANG			0	93.08	35.22		19730315	19870622	1	0	63	NMS		Yumen									['38', '85', '106', '107']							L.Haimberger	0
289	0-20000-0-47971	0	290	[91030]	3	CHICHIJIMA			0	142.19	27.09		19670219	19680709	1	0	63	NMS		None									['38', '85', '106', '107']							L.Haimberger	0
290	0-20000-0-65123	0	291	[65123]	3	MINNA			0	6.53	9.62		19740611	19830801	1	0	63	NMS	163	Minna									['38', '85', '106', '107']							L.Haimberger	0
291	0-20000-0-40608	0	292	[40608]	3	MOSUL			0	43.15	36.32		19670727	19740612	1	0	63	NMS		Tall Kayf									['38', '85', '106', '107']							L.Haimberger	0
292	0-20300-0-88967	0	293	[88967]	3	GENERAL BELGRANO			0	-38.8	-77.9667		19700520	19750610	1	0	63	NMS		None									['38', '85', '106', '107']							L.Haimberger	0
293	0-20000-0-35188	0	294	[35188]	3	ASTANA			0	71.39	51.17		19740816	19931022	1	0	63	NMS		Astana									['38', '85', '106', '107']							L.Haimberger	0
294	0-20000-0-15490	0	295	[15490]	3	TURNU-MAGURELE			0	24.88	43.76		20130323	20130323	1	0	63	NMS	192	Turnu Magurele									['38', '85', '106', '107']							L.Haimberger	0
295	0-20300-0-70489	0	296	[70489]	3	DUTCH HARBOR			0	-166.53	53.9		19510202	19540331	1	0	63	NMS		None									['38', '85', '106', '107']							L.Haimberger	0
296	0-20000-0-80422	0	297	[80422]	3	CARUPANO, SUCRE			0	-63.25	10.67		20120830	20150626	1	0	63	NMS		None									['38', '85', '106', '107']							L.Haimberger	0
297	0-20000-0-64601	0	298	[64601]	3	BOUAR			0	15.63	5.97		19760429	19911021	1	0	63	NMS	161	Bouar									['38', '85', '106', '107']							L.Haimberger	0
298	0-20300-0-63710	0	299	[63710]	3	KERICHO			0	35.266999999999996	-0.36700000000000005		19780617	19960412	1	0	63	NMS	61	Kericho									['38', '85', '106', '107']							L.Haimberger	0
299	0-20000-0-40621	0	300	[69792]	3	KIRKUK			0	44.4	35.47		20060417	20080512	1	0	63	NMS		Kirkuk									['38', '85', '106', '107']							L.Haimberger	0
300	0-20000-0-17200	0	301	[17200]	3	MALATYA/ERHAC			0	38.09	38.43		19670513	20010513	1	0	63	NMS	223	Malatya									['38', '85', '106', '107']							L.Haimberger	0
301	0-20000-0-56116	0	302	[56116]	3	DENGQEN			0	95.6	31.42		19661112	19991217	1	0	63	NMS		Along									['38', '85', '106', '107']							L.Haimberger	0
302	0-20000-0-80444	0	303	[80444]	3	CIUDAD BOLIVAR			0	-63.55	8.15		19751019	20110825	1	0	63	NMS		None									['38', '85', '106', '107']							L.Haimberger	0
303	0-20000-0-72450	0	304	[72450]	3	WICHITA/MID-CONTINENT, KS.			0	-97.43	37.65		19650815	19721231	1	0	63	NMS		None									['38', '85', '106', '107']							L.Haimberger	0
304	0-20000-0-63688	0	305	[63686]	3	ELDORET INTERNATIONAL AIRPORT			0	35.23	0.41		19881005	19951103	1	0	63	NMS	61	Eldoret									['38', '85', '106', '107']							L.Haimberger	0
305	0-20000-0-97460	0	306	[97460]	3	LABUHA/OESMAN SADIK			0	127.5	-0.63		20090326	20110104	1	0	63	NMS		Luwuk									['38', '85', '106', '107']							L.Haimberger	0
306	0-20000-0-56374	0	307	[56374]	3	KANGDING			0	101.97	30.05		19730108	20010508	1	0	63	NMS		Yaan									['38', '85', '106', '107']							L.Haimberger	0
307	0-20300-0-91946	0	308	[91946]	3	TUREIA			0	-138.55	-20.7667		19700211	19710604	1	0	63	NMS		None									['38', '85', '106', '107']							L.Haimberger	0
308	0-20000-0-14648	0	309	[13349]	3	MOSTAR			0	17.79	43.35		19550110	19591231	1	0	63	NMS	192	Mostar									['38', '85', '106', '107']							L.Haimberger	0
309	0-20000-0-56778	0	310	[56779]	3	KUNMING			0	102.68	25.02		19600407	19610520	1	0	63	NMS		Kunming									['38', '85', '106', '107']							L.Haimberger	0
310	0-20000-0-72231	0	311	[72231]	3	NEW ORLEANS/MOISANT INT., LA.			0	-90.25	29.98		19650921	19670927	1	0	63	NMS		None									['38', '85', '106', '107']							L.Haimberger	0
311	0-20000-0-60135	0	312	[60135]	3	RABAT-SALE			0	-6.76	34.05		19661101	19691219	1	0	63	NMS	227	None									['38', '85', '106', '107']							L.Haimberger	0
312	0-20000-0-30650	0	313	[30650]	3	ROMANOVKA			0	112.78	53.2		19620809	19641231	1	0	63	NMS		Chita									['38', '85', '106', '107']							L.Haimberger	0
313	0-20000-0-47777	0	314	[47777]	3	WAKAYAMA			0	135.16	34.23		19371111	19410227	1	0	63	NMS		Kainan									['38', '85', '106', '107']							L.Haimberger	0
314	0-20000-0-96091	0	315	[96091]	3	TANJUNG PINANG/KIJANG			0	104.53	0.92		19820813	20110105	1	0	63	NMS		Kijang									['38', '85', '106', '107']							L.Haimberger	0
315	0-20000-0-83236	0	316	[83236]	3	BARREIRAS (83236-0)			0	-45.0	-12.15		19700102	19800328	1	0	63	NMS		None									['38', '85', '106', '107']							L.Haimberger	0
316	0-20000-0-78535	0	317	[78535]	3	ROOSEVELT ROADS/NS,  PUERTO RICO			0	-65.63	18.25		19620305	20021002	1	0	63	NMS		None									['38', '85', '106', '107']							L.Haimberger	0
317	0-20000-0-94287	0	318	[94287]	3	CAIRNS AERO			0	145.75	-16.87		19680219	19911029	1	0	63	NMS		Cairns									['38', '85', '106', '107']							L.Haimberger	0
318	0-20300-0-20047	0	319	[20047]	3	BUKHTA TIKHAYA/GUKER IS.			0	52.8	80.45		19550305	19610312	1	0	63	NMS	190	None									['38', '85', '106', '107']							L.Haimberger	0
319	0-20000-0-48887	0	320	[48887]	3	PHAN THIET			0	108.1	10.93		20090326	20110104	1	0	63	NMS		Phan Thiet									['38', '85', '106', '107']							L.Haimberger	0
320	0-894-1-CITY005	0	321	[67665]	3	LUSAKA CITY AIRPORT			0	28.47	-15.42		19700512	19821205	1	0	63	NMS		Lusaka									['38', '85', '106', '107']							L.Haimberger	0
321	0-20000-0-47167	0	322	[47167]	3	YEOSU AIRPORT			0	127.62	34.83		20121001	20200117	1	0	63	NMS		Hirado									['38', '85', '106', '107']							L.Haimberger	0
322	0-20000-0-83063	0	323	[83063]	3	PORTO NACIONAL (AERO)			0	-48.4	-10.7		19691020	19800119	1	0	63	NMS		None									['38', '85', '106', '107']							L.Haimberger	0
323	0-20000-0-91610	0	324	[91609]	3	TARAWA			0	172.92	1.35		20010503	20010514	1	0	63	NMS		Bairiki									['38', '85', '106', '107']							L.Haimberger	0
324	0-20300-0-63619	0	325	[63619]	3	MOYALE			0	39.05	3.533		19880929	19910908	1	0	63	NMS		Moyale									['38', '85', '106', '107']							L.Haimberger	0
325	0-20000-0-71842	0	326	[71842]	3	SIOUX LOOKOUT A, ONT			0	-91.9	50.12		19620304	19621012	1	0	63	NMS		None									['38', '85', '106', '107']							L.Haimberger	0
326	0-20000-0-74790	0	327	[74790]	3	SHAW AFB, SC.			0	-80.48	33.97		19700211	19880414	1	0	63	NMS	9	None									['38', '85', '106', '107']							L.Haimberger	0
327	0-20000-0-08314	0	328	[8314]	3	MENORCA/AEROPUERTO			0	4.22	39.85		19700501	19760830	1	0	63	NMS	68	Mahon									['38', '85', '106', '107']							L.Haimberger	0
328	0-20000-0-40001	0	329	[40001]	3	KAMISHLI			0	41.22	37.05		19700526	20000515	1	0	63	NMS		Nusaybin									['38', '85', '106', '107']							L.Haimberger	0
329	0-20000-0-48966	0	330	[48966]	3	SIEMREAP			0	103.85	13.37		19540701	19710420	1	0	63	NMS		Pousat									['38', '85', '106', '107']							L.Haimberger	0
330	0-20000-0-42170	0	331	[42170]	3	CHURU			0	74.92	28.25		20171213	20210421	1	0	63	NMS		Churu									['38', '85', '106', '107']							L.Haimberger	0
331	0-20000-0-61766	0	332	[61766]	3	BISSAU AEROPORTO			0	-15.65	11.88		19650420	19670616	1	0	63	NMS		None									['38', '85', '106', '107']							L.Haimberger	0
332	0-20000-0-48870	0	333	[48870]	3	QUY NHON			0	109.22	13.77		19680102	20110103	1	0	63	NMS		Qui Nhon									['38', '85', '106', '107']							L.Haimberger	0
333	0-20000-0-42734	0	334	[42734]	3	JAMNAGAR			0	70.08	22.45		19691020	20030925	1	0	63	NMS		Jamnagar									['38', '85', '106', '107']							L.Haimberger	0
334	0-20000-0-72514	0	335	[72514]	3	WILLIAMSPORT/LYCOMING COUNTY, PA.			0	-76.92	41.25		19640209	19721229	1	0	63	NMS	9	None									['38', '85', '106', '107']							L.Haimberger	0
335	0-20000-0-72223	0	336	[72223]	3	MOBILE/BATES FIELD,  AL.			0	-88.25	30.68		19620304	19720429	1	0	63	NMS	9	None									['38', '85', '106', '107']							L.Haimberger	0
336	0-20000-0-37409	0	337	[37409]	3	MTA-SABUETI			0	43.48	42.03		19691101	19791217	1	0	63	NMS	190	Tkibuli									['38', '85', '106', '107']							L.Haimberger	0
337	0-20000-0-47167	0	338	[47167]	3	YEOSU AIRPORT			0	127.62	34.83		20121001	20200117	1	0	63	NMS		Hirado									['38', '85', '106', '107']							L.Haimberger	0
338	0-20000-0-66215	0	339	[66215]	3	MALANGE			0	16.37	-9.55		19660510	19740706	1	0	63	NMS	150	Malanje									['38', '85', '106', '107']							L.Haimberger	0
339	0-20000-0-31989	0	340	[31989]	3	PREOBRAZHENIE			0	133.9	42.9		19750105	19930604	1	0	63	NMS		Partizansk									['38', '85', '106', '107']							L.Haimberger	0
340	0-20000-0-63612	0	341	[63612]	3	LODWAR			0	35.59	3.12		19700117	20201003	1	0	63	NMS	61	Lodwar									['38', '85', '106', '107']							L.Haimberger	0
341	0-20000-0-72524	0	342	[72524]	3	CLEVELAND/CLEVELAND-HOPKINS, OH.			0	-81.87	41.42		19710401	19730522	1	0	63	NMS	9	None									['38', '85', '106', '107']							L.Haimberger	0
342	0-20000-0-38599	0	343	[38599]	3	KHUDJANT			0	69.73	40.22		19730205	19780207	1	0	63	NMS		Gafurov									['38', '85', '106', '107']							L.Haimberger	0
343	0-20000-0-47688	0	344	[47673]	3	TATEYAMA AB			0	139.83	34.99		19341231	19410815	1	0	63	NMS		Tateyama									['38', '85', '106', '107']							L.Haimberger	0
344	0-20000-0-91371	0	345	[91371]	3	WOTJE ATOLL, MARSHALL IS.			0	170.25	9.47		19730811	20010726	1	0	63	NMS		None									['38', '85', '106', '107']							L.Haimberger	0
345	0-20000-0-66152	0	346	[66152]	3	DUNDO			0	20.82	-7.4		19660510	20020914	1	0	63	NMS	150	Tshikapa									['38', '85', '106', '107']							L.Haimberger	0
346	0-20000-0-47605	0	347	[47605]	3	KANAZAWA			0	136.63	36.59		19390310	19410614	1	0	63	NMS		Nonoichi									['38', '85', '106', '107']							L.Haimberger	0
347	0-20000-0-15350	0	348	[15350]	3	BUZAU			0	26.85	45.13		19730527	19971116	1	0	63	NMS	192	Buzau									['38', '85', '106', '107']							L.Haimberger	0
348	0-20000-0-71916	0	349	[71916]	3	THOMSEN RIVER, NWT			0	-119.54	73.23		19620303	19701216	1	0	63	NMS		None									['38', '85', '106', '107']							L.Haimberger	0
349	0-20000-0-87534	0	350	[87534]	3	LABOULAYE AERO			0	-63.37	-34.13		19570701	19581203	1	0	63	NMS		None									['38', '85', '106', '107']							L.Haimberger	0
350	0-20000-0-71627	0	351	[71627]	3	MONTREAL/PIERRE ELLIOTT TRUDEAU INT'L A, QUE			0	-73.75	45.47		19620608	19911029	1	0	63	NMS	9	None									['38', '85', '106', '107']							L.Haimberger	0
351	0-20000-0-72643	0	352	[72643]	3	LA CROSSE/MUN., WI.			0	-91.25	43.87		19620305	19640530	1	0	63	NMS		None									['38', '85', '106', '107']							L.Haimberger	0
352	0-20000-0-60475	0	353	[60475]	3	TEBESSA			0	8.12	35.47		19780311	19890208	1	0	63	NMS	68	Talah									['38', '85', '106', '107']							L.Haimberger	0
353	0-20000-0-55279	0	354	[55279]	3	BAINGOIN			0	90.02	31.37		19730429	19970702	1	0	63	NMS		Lasa									['38', '85', '106', '107']							L.Haimberger	0
354	0-20000-0-96075	0	355	[96075]	3	GUNUNG SITOLI/BINAKA			0	97.7	1.16		19911007	20110104	1	0	63	NMS		Sibolga									['38', '85', '106', '107']							L.Haimberger	0
355	0-20500-0-81403	0	356	[81403]	3	COOKTOWN			0	145.18	-14.55		19661108	19691228	1	0	63	NMS		None									['38', '85', '106', '107']							L.Haimberger	0
356	0-20000-0-94926	0	357	[94926]	3	CANBERRA AIRPORT			0	149.2	-35.31		19690506	19911029	1	0	63	NMS		Canberra									['38', '85', '106', '107']							L.Haimberger	0
357	0-20000-0-33506	0	358	[33506]	3	Poltava			0	34.54	49.61		19461105	19490903	1	0	63	NMS	107	Poltava									['38', '85', '106', '107']							L.Haimberger	0
358	0-20000-0-74796	0	359	[74796]	3	AVON PARK GUNNERY RANGE, FL.			0	-81.33	27.65		19740517	19911029	1	0	63	NMS	9	None									['38', '85', '106', '107']							L.Haimberger	0
359	0-20000-0-57297	0	360	[57297]	3	XINYANG			0	114.05	32.13		19661026	19890418	1	0	63	NMS		Xinyang									['38', '85', '106', '107']							L.Haimberger	0
360	0-20300-0-72807	0	361	[72807]	3	ARGENTIA			0	-54.0	47.3		19540101	19690710	1	0	63	NMS		None									['38', '85', '106', '107']							L.Haimberger	0
361	0-20300-0-89557	0	362	[89557]	3	SOVIETSKAVA			0	87.583	-78.4		19580316	19581231	1	0	63	NMS		None									['38', '85', '106', '107']							L.Haimberger	0
362	0-20000-0-51495	0	363	[51495]	3	SHISANJIANFANG			0	91.73	43.22		19710402	20000220	1	0	63	NMS		Hami									['38', '85', '106', '107']							L.Haimberger	0
363	0-20000-0-07627	0	364	[7627]	3	SAINT GIRONS			0	1.11	43.01		19691103	19840805	1	0	63	NMS	205	Saint-Gaudens									['38', '85', '106', '107']							L.Haimberger	0
364	0-20000-0-40270	0	365	[40270]	3	AMMAN AIRPORT			0	35.98	31.98		19610706	19831022	1	0	63	NMS		Jawa									['38', '85', '106', '107']							L.Haimberger	0
365	0-20000-0-71127	0	366	[71127]	3	EDMONTON STONY PLAIN CS, ALTA			0	-114.11	53.55		19700413	19960109	1	0	63	NMS		None									['38', '85', '106', '107']							L.Haimberger	0
366	0-20000-0-30739	0	367	[30739]	3	HORINSK			0	109.78	52.17		19620809	19641231	1	0	63	NMS		Khilok									['38', '85', '106', '107']							L.Haimberger	0
367	0-20000-0-28552	0	368	[28552]	3	SADRINSK			0	63.65	56.07		19730515	20020708	1	0	63	NMS	190	Shadrinsk									['38', '85', '106', '107']							L.Haimberger	0
368	0-20000-0-63720	0	369	[63720]	3	EMBU			0	37.5	-0.5		19890907	19961214	1	0	63	NMS		Embu									['38', '85', '106', '107']							L.Haimberger	0
369	0-20000-0-48698	0	370	[48687]	3	SINGAPORE/CHANGI AIRPORT			0	103.98	1.37		19550131	19941210	1	0	63	NMS		Johor Bahru									['38', '85', '106', '107']							L.Haimberger	0
370	0-20000-0-60030	0	371	[60030]	3	LAS PALMAS DE GRAN CANARIA/GANDO			0	-15.39	27.92		19630705	20020401	1	0	63	NMS	247	None									['38', '85', '106', '107']							L.Haimberger	0
371	0-20000-0-71946	0	372	[71946]	3	FORT SIMPSON A, NWT			0	-121.24	61.76		19620305	19620915	1	0	63	NMS		None									['38', '85', '106', '107']							L.Haimberger	0
372	0-20000-0-61233	0	373	[61233]	3	NARA (61233-0)			0	-7.28	15.17		19801117	19971118	1	0	63	NMS	8	None									['38', '85', '106', '107']							L.Haimberger	0
373	0-20000-0-10637	0	374	[10639]	3	FRANKFURT/MAIN			0	8.52	50.03		19720804	19731025	1	0	63	NMS	205	Darmstadt									['38', '85', '106', '107']							L.Haimberger	0
374	0-20300-0-60678	0	375	[60678]	3	IN AMGUEL			0	5.15	23.8167		19630306	19660214	1	0	63	NMS	40	Gat									['38', '85', '106', '107']							L.Haimberger	0
375	0-20000-0-07618	0	376	[7630]	3	TOULOUSE RW			0	1.37	43.58		19710427	19840803	1	0	63	NMS	205	Blagnac									['38', '85', '106', '107']							L.Haimberger	0
376	0-20000-0-56778	0	377	[56779]	3	KUNMING			0	102.68	25.02		19600407	19620828	1	0	63	NMS		Kunming									['38', '85', '106', '107']							L.Haimberger	0
377	0-20000-0-15247	0	378	[15247]	3	TIMISOARA			0	21.26	45.77		19760125	19821119	1	0	63	NMS	192	Timisoara									['38', '85', '106', '107']							L.Haimberger	0
378	0-20000-0-53487	0	379	[53487]	3	DATONG			0	113.42	40.08		19641007	19871116	1	0	63	NMS		Datong									['38', '85', '106', '107']							L.Haimberger	0
379	0-20000-0-43201	0	380	[43201]	3	GADAG			0	75.63	15.42		20190725	20200203	1	0	63	NMS		Gadag									['38', '85', '106', '107']							L.Haimberger	0
380	0-20000-0-43181	0	381	[43181]	3	VIJAYAWADA /GANNAVARAM			0	80.8	16.53		19690121	19820923	1	0	63	NMS		Gannavaram									['38', '85', '106', '107']							L.Haimberger	0
381	0-20000-0-10860	0	382	[10862]	3	INGOLSTADT (FLUGPLATZ)			0	11.54	48.71		19760728	20021125	1	0	63	NMS		Abensberg									['38', '85', '106', '107']							L.Haimberger	0
382	0-20000-0-41764	0	383	[41764]	3	HYDERABAD			0	68.42	25.38		20080831	20201015	1	0	63	NMS	69	Hyderabad									['38', '85', '106', '107']							L.Haimberger	0
383	0-20000-0-62336	0	384	[62336]	3	EL ARISH-AGRIMET			0	33.82	31.09		19630705	19650317	1	0	63	NMS		Ashqelon									['38', '85', '106', '107']							L.Haimberger	0
384	0-20000-0-96595	0	385	[96595]	3	MUARA TEWEH/BERINGIN			0	114.9	-0.94		20090329	20101223	1	0	63	NMS		Amuntai									['38', '85', '106', '107']							L.Haimberger	0
385	0-20000-0-85577	0	386	[85577]	3	QUINTA NORMAL			0	-70.68	-33.44		19430301	19530410	1	0	63	NMS		None									['38', '85', '106', '107']							L.Haimberger	0
386	0-20000-0-17609	0	387	[17609]	3	LARNACA AIRPORT			0	33.62	34.87		19810701	20110105	1	0	63	NMS		Larnaca									['38', '85', '106', '107']							L.Haimberger	0
387	0-20000-0-44272	0	388	[44272]	3	ULIASTAI (44272-0)			0	96.85	47.73		19700602	20020928	1	0	63	NMS		Moron									['38', '85', '106', '107']							L.Haimberger	0
388	0-20000-0-43497	0	389	[43497]	3	HAMBANTOTA			0	81.13	6.12		19780614	20110105	1	0	63	NMS		Hambantota									['38', '85', '106', '107']							L.Haimberger	0
389	0-20000-0-60360	0	390	[60360]	3	ANNABA			0	7.82	36.83		19620312	19911028	1	0	63	NMS	68	Tabarqah									['38', '85', '106', '107']							L.Haimberger	0
390	0-20000-0-96781	0	391	[96781]	3	BANDUNG/HUSEIN			0	107.58	-6.9		19610303	19920915	1	0	63	NMS		Bandung									['38', '85', '106', '107']							L.Haimberger	0
391	0-20000-0-62405	0	392	[62405]	3	LUXOR			0	32.71	25.67		19700519	20030131	1	0	63	NMS		Luxor									['38', '85', '106', '107']							L.Haimberger	0
392	0-20000-0-53083	0	393	[53083]	3	NARAN BULAG			0	114.15	44.62		19710120	20000221	1	0	63	NMS		Erenhot									['38', '85', '106', '107']							L.Haimberger	0
393	0-20000-0-47813	0	394	[47813]	3	SAGA			0	130.31	33.27		19390112	19410218	1	0	63	NMS		Saga									['38', '85', '106', '107']							L.Haimberger	0
394	0-20300-0-96273	0	395	[96273]	3	MENGGALA/ASTRA KSET			0	105.18299999999999	-4.45		19750114	19800422	1	0	63	NMS		Metro									['38', '85', '106', '107']							L.Haimberger	0
395	0-20000-0-87374	0	396	[87374]	3	PARANA AERO			0	-60.48	-31.79		19460101	19571012	1	0	63	NMS		None									['38', '85', '106', '107']							L.Haimberger	0
396	0-20000-0-47580	0	397	[47515]	3	MISAWA AB			0	141.37	40.71		19700602	19810726	1	0	63	NMS		Hachinohe									['38', '85', '106', '107']							L.Haimberger	0
397	0-20000-0-48500	0	398	[48500]	3	PRACHUAP KHIRIKHAN			0	99.81	11.84		19680107	20110104	1	0	63	NMS		Prachuap Khiri Khan									['38', '85', '106', '107']							L.Haimberger	0
398	0-20000-0-60590	0	399	[60590]	3	EL-GOLEA			0	2.87	30.57		19681130	20010103	1	0	63	NMS	39	Warqla									['38', '85', '106', '107']							L.Haimberger	0
399	0-20000-0-54715	0	400	[54714]	3	LINGXIAN			0	116.57	37.33		19591004	19610311	1	0	63	NMS		Dezhou									['38', '85', '106', '107']							L.Haimberger	0
400	0-20300-0-89557	0	401	[89557]	3	SOVIETSKAVA			0	87.583	-78.4		19580325	19581231	1	0	63	NMS		None									['38', '85', '106', '107']							L.Haimberger	0
401	0-20000-0-78730	0	402	[78730]	3	PUERTO CABEZAS			0	-83.63	14.07		19750828	19970418	1	0	63	NMS	9	None									['38', '85', '106', '107']							L.Haimberger	0
402	0-20000-0-55578	0	403	[55578]	3	XIGAZE			0	88.88	29.25		19680501	19960331	1	0	63	NMS		Punakha									['38', '85', '106', '107']							L.Haimberger	0
403	0-20000-0-41715	0	404	[41715]	3	JACOBABAD			0	68.47	28.3		19770624	20110105	1	0	63	NMS	69	Jacobabad									['38', '85', '106', '107']							L.Haimberger	0
404	0-20000-0-85154	0	405	[85154]	3	TRINIDAD			0	-64.92	-14.82		20020318	20040311	1	0	63	NMS		None									['38', '85', '106', '107']							L.Haimberger	0
405	0-20000-0-64600	0	406	[64600]	3	BERBERATI			0	15.8	4.25		19630722	19981211	1	0	63	NMS	161	Berberati									['38', '85', '106', '107']							L.Haimberger	0
406	0-20000-0-47759	0	407	[47759]	3	KYOTO			0	135.73	35.01		19290109	19410830	1	0	63	NMS		Muko									['38', '85', '106', '107']							L.Haimberger	0
407	0-20000-0-47891	0	408	[47891]	3	TAKAMATSU			0	134.05	34.32		19420123	19460227	1	0	63	NMS		Shido									['38', '85', '106', '107']							L.Haimberger	0
408	0-20000-0-30703	0	409	[30703]	3	INGA (30703-0)			0	101.98	52.97		19620809	19641230	1	0	63	NMS		Cheremkhovo									['38', '85', '106', '107']							L.Haimberger	0
409	0-20000-0-47430	0	410	[47430]	3	HAKODATE			0	140.75	41.82		19380607	19441213	1	0	63	NMS		Hakodate									['38', '85', '106', '107']							L.Haimberger	0
410	0-20000-0-47675	0	411	[47675]	3	OSHIMA			0	139.36	34.75		19420801	19450610	1	0	63	NMS		Ito									['38', '85', '106', '107']							L.Haimberger	0
411	0-20000-0-91764	0	412	[91764]	3	CAPE TAPUTAPU AWS, AMERICAN SAMOA *			0	-170.83	-14.33		19620415	19620729	1	0	63	NMS		None									['38', '85', '106', '107']							L.Haimberger	0
412	0-20000-0-97686	0	413	[97686]	3	WAMENA			0	138.95	-4.1		19911003	20110104	1	0	63	NMS		Vanimo									['38', '85', '106', '107']							L.Haimberger	0
413	0-20000-0-83967	0	414	[83967]	3	PORTO ALEGRE (83967-0)			0	-51.22	-30.02		19500605	19541222	1	0	63	NMS		None									['38', '85', '106', '107']							L.Haimberger	0
414	0-20000-0-91764	0	415	[91764]	3	CAPE TAPUTAPU AWS, AMERICAN SAMOA *			0	-170.83	-14.33		19620415	19620729	1	0	63	NMS		None									['38', '85', '106', '107']							L.Haimberger	0
415	0-20000-0-41710	0	416	[41710]	3	NOKKUNDI			0	62.75	28.82		19691016	20181222	1	0	63	NMS	69	Rudbar									['38', '85', '106', '107']							L.Haimberger	0
416	0-20000-0-48914	0	417	[48914]	3	CA MAU			0	105.15	9.18		19770418	20110104	1	0	63	NMS		Ca Mau									['38', '85', '106', '107']							L.Haimberger	0
417	0-20000-0-47727	0	418	[47727]	3	SHIMOFUSA AB			0	140.01	35.8		19750121	19971215	1	0	63	NMS		Kamagaya									['38', '85', '106', '107']							L.Haimberger	0
418	0-20000-0-25282	0	419	[25282]	3	MYS VANKAREM			0	-175.83	67.83		19800322	20001231	1	0	63	NMS		None									['38', '85', '106', '107']							L.Haimberger	0
419	0-20000-0-89056	0	420	[89056]	3	CENTRO MET. ANTRTICO PRESIDENTE EDUARDO FREI			0	-58.98	-62.19		20171202	20190930	1	0	63	NMS		None									['38', '85', '106', '107']							L.Haimberger	0
420	0-20000-0-96009	0	421	[96009]	3	LHOKSEUMAWE/MALIKUSSALEH			0	96.95	5.23		19831108	20110105	1	0	63	NMS		Lhokseumawe									['38', '85', '106', '107']							L.Haimberger	0
421	0-20500-0-94047	0	422	[94047]	3	RAPID CITY			0	-101.17	44.12		19931118	19970107	1	0	63	NMS		Lae									['38', '85', '106', '107']							L.Haimberger	0
422	0-20000-0-47407	0	423	[47407]	3	ASAHIKAWA			0	142.37	43.76		19220710	19410721	1	0	63	NMS		Asahikawa									['38', '85', '106', '107']							L.Haimberger	0
423	0-20000-0-47616	0	424	[47616]	3	FUKUI			0	136.22	36.06		19380601	19410625	1	0	63	NMS		Maruoka									['38', '85', '106', '107']							L.Haimberger	0
424	0-20000-0-89056	0	425	[89056]	3	CENTRO MET. ANTRTICO PRESIDENTE EDUARDO FREI			0	-58.98	-62.19		20171202	20190930	1	0	63	NMS		None									['38', '85', '106', '107']							L.Haimberger	0
425	0-20000-0-59658	0	426	[59658]	3	ZHANJIANG			0	110.3	21.15		19571124	19891213	1	0	63	NMS		Zhanjiang									['38', '85', '106', '107']							L.Haimberger	0
426	0-20000-0-62120	0	427	[62120]	3	GARIAT EL-SHARGHIA			0	13.59	30.39		19700203	19981113	1	0	63	NMS	195	Mizdah									['38', '85', '106', '107']							L.Haimberger	0
427	0-20000-0-72409	0	428	[72409]	3	LAKEHURST/NAS, NJ.			0	-74.32	40.03		19620303	19690131	1	0	63	NMS	9	None									['38', '85', '106', '107']							L.Haimberger	0
428	0-20000-0-17124	0	429	[17124]	3	ESKISEHIR HAVALIMANI			0	30.58	39.78		19670513	19680222	1	0	63	NMS	192	Eskisehir									['38', '85', '106', '107']							L.Haimberger	0
429	0-20000-0-58141	0	430	[58144]	3	HUAIYIN			0	118.93	33.63		19730623	19870622	1	0	63	NMS		Huaiyin									['38', '85', '106', '107']							L.Haimberger	0
430	0-20000-0-67095	0	431	[67095]	3	TOAMASINA			0	49.4	-18.12		19770128	20110105	1	0	63	NMS		Toamasina									['38', '85', '106', '107']							L.Haimberger	0
431	0-20000-0-31174	0	432	[31174]	3	BOL'SHOJ SHANTAR			0	137.53	54.83		19620314	19630630	1	0	63	NMS		Nikolayevsk-Na-Amure									['38', '85', '106', '107']							L.Haimberger	0
432	0-20000-0-80457	0	433	[80457]	3	PUERTO AYACUCHO			0	-67.5	5.6		19590905	19811204	1	0	63	NMS		None									['38', '85', '106', '107']							L.Haimberger	0
433	0-20000-0-66285	0	434	[66285]	3	LUENA (LUSO)			0	19.92	-11.78		19550205	19750306	1	0	63	NMS	150	Luena									['38', '85', '106', '107']							L.Haimberger	0
434	0-20000-0-60566	0	435	[60566]	3	GHARDAIA			0	3.8	32.4		19751028	19911029	1	0	63	NMS	252	Warqla									['38', '85', '106', '107']							L.Haimberger	0
435	0-20000-0-60566	0	436	[60565]	3	GHARDAIA			0	3.8	32.4		19570701	19581225	1	0	63	NMS	252	Warqla									['38', '85', '106', '107']							L.Haimberger	0
436	0-20000-0-07280	0	437	[7280]	3	DIJON-LONGVIC			0	5.09	47.27		19620307	20030618	1	0	63	NMS	205	Chenove									['38', '85', '106', '107']							L.Haimberger	0
437	0-20000-0-37895	0	438	[37895]	3	KHANKANDY			0	46.75	39.98		19660527	19850419	1	0	63	NMS	190	Susa									['38', '85', '106', '107']							L.Haimberger	0
438	0-20000-0-59082	0	439	[59082]	3	SHAOGUAN			0	113.6	24.67		19580719	19610314	1	0	63	NMS		Shaoguan									['38', '85', '106', '107']							L.Haimberger	0
439	0-20000-0-82784	0	440	[82784]	3	BARBALHA (82784-0)			0	-39.3	-7.32		19760124	19791204	1	0	63	NMS		None									['38', '85', '106', '107']							L.Haimberger	0
440	0-20300-0-89593	0	441	[89593]	3	PIONERSKAVA			0	95.05	-69.73		19580313	19581231	1	0	63	NMS		None									['38', '85', '106', '107']							L.Haimberger	0
441	0-20000-0-48940	0	442	[48940]	3	VIENTIANE			0	102.57	17.95		19680714	19870614	1	0	63	NMS		Si Chiang Mai									['38', '85', '106', '107']							L.Haimberger	0
442	0-20000-0-63684	0	443	[63684]	3	TORORO			0	34.17	0.68		19630807	19770529	1	0	63	NMS	61	Tororo									['38', '85', '106', '107']							L.Haimberger	0
443	0-20000-0-87436	0	444	[87436]	3	SAN LUIS AERO			0	-66.35	-33.27		19570806	19720422	1	0	63	NMS		None									['38', '85', '106', '107']							L.Haimberger	0
444	0-20000-0-37936	0	445	[37936]	3	NAXCIVAN			0	45.42	39.2		19680403	19850302	1	0	63	NMS	190	Culfa									['38', '85', '106', '107']							L.Haimberger	0
445	0-20000-0-87166	0	446	[87166]	3	CORRIENTES AERO			0	-58.76	-27.45		19460101	19560731	1	0	63	NMS		None									['38', '85', '106', '107']							L.Haimberger	0
446	0-20500-0-16616	0	447	[71098]	3	KILLIMEK			0	-63.15	60.42		19620306	19620906	1	0	63	NMS		None									['38', '85', '106', '107']							L.Haimberger	0
447	0-20000-0-64387	0	448	[64387]	3	KIGALI			0	30.13	-1.96		19810722	19920204	1	0	63	NMS	61	Kigali									['38', '85', '106', '107']							L.Haimberger	0
448	0-20000-0-60607	0	449	[60607]	3	TIMIMOUN			0	0.28	29.25		19840319	19890820	1	0	63	NMS	39	Adrar									['38', '85', '106', '107']							L.Haimberger	0
449	0-20000-0-83096	0	450	[83096]	3	ARACAJU (83096-0)			0	-37.05	-10.92		19730817	19791228	1	0	63	NMS		None									['38', '85', '106', '107']							L.Haimberger	0
450	0-20000-0-06621	0	451	[10934]	3	GUETTINGEN			0	9.28	47.6		19510404	19540319	1	0	63	NMS		Friedrichshafen									['38', '85', '106', '107']							L.Haimberger	0
451	0-20000-0-58911	0	452	[58912]	3	CHANGTING			0	116.37	25.85		19600601	19610314	1	0	63	NMS		Yongan									['38', '85', '106', '107']							L.Haimberger	0
452	0-20300-0-56533	0	453	[56533]	3	LA WANG/TZUKEI			0	98.3833	27.6667		19590307	19611026	1	0	63	NMS		Tezu									['38', '85', '106', '107']							L.Haimberger	0
453	0-20000-0-74777	0	454	[74777]	3	HURLBURT FIELD, FL. (AF)			0	-86.68	30.42		19870616	20120412	1	0	63	NMS	9	None									['38', '85', '106', '107']							L.Haimberger	0
454	0-20000-0-34737	0	455	[34737]	3	KUSHCHEVSKAJA			0	39.62	46.53		19760617	20010817	1	0	63	NMS	16	Kushchevskaya									['38', '85', '106', '107']							L.Haimberger	0
455	0-20000-0-97192	0	456	[97192]	3	BAU-BAU/BETO AMBARI			0	122.57	-5.49		20090328	20110102	1	0	63	NMS		Katobu									['38', '85', '106', '107']							L.Haimberger	0
456	0-20000-0-91492	0	457	[91492]	3	CHRISTMAS ISLAND (91492-0)			0	-157.4	2.0		19870325	19911029	1	0	63	NMS		None									['38', '85', '106', '107']							L.Haimberger	0
457	0-20000-0-76750	0	458	[76750]	3	CHETUMAL, Q.R.			0	-88.33	18.5		19620309	19671229	1	0	63	NMS	9	None									['38', '85', '106', '107']							L.Haimberger	0
458	0-20000-0-91162	0	459	[91162]	3	BARKING SANDS (BONHAM AUX.LDNG.FLD), KAUAI HAWAII			0	-159.78	22.07		19681023	19720414	1	0	63	NMS		None									['38', '85', '106', '107']							L.Haimberger	0
459	0-20000-0-65306	0	460	[65306]	3	KANDI			0	2.93	11.13		19790423	20110105	1	0	63	NMS	46	Kandi									['38', '85', '106', '107']							L.Haimberger	0
460	0-20000-0-47631	0	461	[47631]	3	TSURUGA			0	136.06	35.65		19380803	19410610	1	0	63	NMS		Tsuruga									['38', '85', '106', '107']							L.Haimberger	0
461	0-20000-0-47607	0	462	[47607]	3	TOYAMA			0	137.2	36.71		19420630	19460909	1	0	63	NMS		Kosugi									['38', '85', '106', '107']							L.Haimberger	0
462	0-20000-0-47938	0	463	[47938]	3	IEJIMA (US BASE)			0	127.78	26.72		19680101	20000223	1	0	63	NMS		Nago									['38', '85', '106', '107']							L.Haimberger	0
463	0-20000-0-48078	0	464	[48078]	3	TOUNGOO			0	96.47	18.92		19700212	19980928	1	0	63	NMS		Toungoo									['38', '85', '106', '107']							L.Haimberger	0
464	0-20000-0-57193	0	465	[57193]	3	XIHUA			0	114.52	33.78		19710106	19870621	1	0	63	NMS		Xihua									['38', '85', '106', '107']							L.Haimberger	0
465	0-20000-0-71145	0	466	[71145]	3	ISLAND LAKE A, MAN			0	-94.65	53.85		19870325	19870622	1	0	63	NMS		None									['38', '85', '106', '107']							L.Haimberger	0
466	0-20500-0-40201	0	467	[97404]	3	MOROTAI AAF			0	128.3	2.03		19540705	19580315	1	0	63	NMS		Ternate									['38', '85', '106', '107']							L.Haimberger	0
467	0-20000-0-41936	0	468	[41936]	3	JESSORE			0	89.17	23.18		19820709	20110105	1	0	63	NMS		Jhikargachha									['38', '85', '106', '107']							L.Haimberger	0
468	0-20000-0-62805	0	469	[62805]	3	DAMAZINE			0	34.38	11.78		19660606	20051226	1	0	63	NMS		Sinjah									['38', '85', '106', '107']							L.Haimberger	0
469	0-20000-0-94791	0	470	[94791]	3	COFFS HARBOUR MO			0	153.12	-30.31		19680207	19911029	1	0	63	NMS		Coffs Harbour									['38', '85', '106', '107']							L.Haimberger	0
470	0-20000-0-91212	0	471	[91218]	3	WEATHER FORECAST OFFICE, GUAM, MARIANA IS.			0	144.79	13.48		19500525	19990223	1	0	63	NMS		None									['38', '85', '106', '107']							L.Haimberger	0
471	0-20000-0-07037	0	472	[7036]	3	ROUEN-BOOS			0	1.18	49.38		19660302	19670530	1	0	63	NMS		Le Grand-Quevilly									['38', '85', '106', '107']							L.Haimberger	0
472	0-20000-0-41685	0	473	[41685]	3	BARKHAN			0	69.72	29.88		19730813	20190110	1	0	63	NMS	166	Kohlu									['38', '85', '106', '107']							L.Haimberger	0
473	0-20000-0-31388	0	474	[31388]	3	NORSK			0	129.92	52.35		19620815	19680304	1	0	63	NMS		Shimanovsk									['38', '85', '106', '107']							L.Haimberger	0
474	0-20000-0-47887	0	475	[47887]	3	MATSUYAMA			0	132.78	33.84		19371025	19410616	1	0	63	NMS		Masaki									['38', '85', '106', '107']							L.Haimberger	0
475	0-20000-0-94367	0	476	[94367]	3	MACKAY M.O			0	149.22	-21.12		19680111	19911029	1	0	63	NMS		Mackay									['38', '85', '106', '107']							L.Haimberger	0
476	0-20000-0-40621	0	477	[40621]	3	KIRKUK			0	44.4	35.47		19490303	19530802	1	0	63	NMS		Kirkuk									['38', '85', '106', '107']							L.Haimberger	0
477	0-20000-0-37735	0	478	[37735]	3	GANDJA			0	46.42	40.72		19700407	19911013	1	0	63	NMS	190	Xanlar									['38', '85', '106', '107']							L.Haimberger	0
478	0-20000-0-74611	0	479	[74611]	3	BICYCLE LAKE AAF, CA			0	-116.62	35.28		19820913	19930612	1	0	63	NMS		None									['38', '85', '106', '107']							L.Haimberger	0
479	0-20000-0-96249	0	480	[96249]	3	TANJUNG PANDAN/BULUH TUMBANG			0	107.75	-2.75		19830313	20110103	1	0	63	NMS		Manggar									['38', '85', '106', '107']							L.Haimberger	0
480	0-20000-0-97096	0	481	[97096]	3	POSO/KASIGUNCU			0	120.66	-1.42		19911008	20101230	1	0	63	NMS		Poso									['38', '85', '106', '107']							L.Haimberger	0
481	0-20300-0-37260	0	482	[37189]	3	SUKHUMI (AGMS)			0	41.033	43.016999999999996		19470403	19530701	1	0	63	NMS	223	Sukhumi									['38', '85', '106', '107']							L.Haimberger	0
482	0-20000-0-35188	0	483	[35188]	3	ASTANA			0	71.39	51.17		19550102	19931022	1	0	63	NMS		Astana									['38', '85', '106', '107']							L.Haimberger	0
483	0-20000-0-87938	0	484	[87938]	3	USHUAIA AERO			0	-68.3	-54.84		19570702	19680308	1	0	63	NMS		None									['38', '85', '106', '107']							L.Haimberger	0
484	0-20000-0-60738	0	485	[60738]	3	THALA			0	8.68	35.55		19800909	19911029	1	0	63	NMS	68	Talah									['38', '85', '106', '107']							L.Haimberger	0
485	0-20000-0-94677	0	486	[94677]	3	HINDMARSH ISLAND AWS			0	138.82	-35.52		19490206	19550214	1	0	63	NMS		Gawler									['38', '85', '106', '107']							L.Haimberger	0
486	0-20000-0-87692	0	487	[87692]	3	MAR DEL PLATA AERO			0	-57.58	-37.93		19490120	19711025	1	0	63	NMS		None									['38', '85', '106', '107']							L.Haimberger	0
487	0-20000-0-87750	0	488	[87750]	3	BAHIA BLANCA AERO			0	-62.16	-38.71		19470115	19560730	1	0	63	NMS		None									['38', '85', '106', '107']							L.Haimberger	0
488	0-20000-0-74619	0	489	[74619]	3	SUPERIOR VALLEY GUNNERY RANGE, CA			0	-117.1	36.33		19840106	19920617	1	0	63	NMS		None									['38', '85', '106', '107']							L.Haimberger	0
489	0-20000-0-53898	0	490	[53898]	3	ANYANG			0	114.13	36.05		19660527	20020603	1	0	63	NMS		Anyang									['38', '85', '106', '107']							L.Haimberger	0
490	0-20000-0-72344	0	491	[72344]	3	FORT SMITH/MUN., AR.			0	-94.37	35.33		19630415	19640216	1	0	63	NMS		None									['38', '85', '106', '107']							L.Haimberger	0
491	0-20000-0-93292	0	492	[93291]	3	GISBORNE AERO AWS			0	177.98	-38.66		19750523	19911231	1	0	63	NMS		Gisborne									['38', '85', '106', '107']							L.Haimberger	0
492	0-20000-0-72268	0	493	[72268]	3	ROSWELL/INDUSTRIAL AIR CENTER, NM			0	-104.53	33.3		19620409	19721228	1	0	63	NMS		None									['38', '85', '106', '107']							L.Haimberger	0
493	0-20000-0-11968	0	494	[11968]	3	KOSICE			0	21.22	48.67		20170308	20170308	1	0	63	NMS	192	Kosice									['38', '85', '106', '107']							L.Haimberger	0
494	0-20000-0-50603	0	495	[50603]	3	XIN BARAG YOUQI			0	116.81	48.68		19730409	19911029	1	0	63	NMS		Manzhouli									['38', '85', '106', '107']							L.Haimberger	0
495	0-20000-0-41600	0	496	[41600]	3	SIALKOT			0	74.53	32.5		20080831	20201015	1	0	63	NMS		Sialkot									['38', '85', '106', '107']							L.Haimberger	0
496	0-20000-0-08190	0	497	[8181]	3	BARCELONA SERVEI			0	2.12	41.38		19680705	19720126	1	0	63	NMS	205	El Prat De Llobregat									['38', '85', '106', '107']							L.Haimberger	0
497	0-20300-0-70204	0	498	[70204]	3	GAMBELL			0	-171.6	63.85		19510202	19520627	1	0	63	NMS		None									['38', '85', '106', '107']							L.Haimberger	0
498	0-20000-0-61831	0	499	[61831]	3	CONAKRY			0	-13.62	9.57		19780605	20110223	1	0	63	NMS		None									['38', '85', '106', '107']							L.Haimberger	0
499	0-20300-0-20047	0	500	[20047]	3	BUKHTA TIKHAYA/GUKER IS.			0	52.8	80.45		19550305	19610312	1	0	63	NMS	190	None									['38', '85', '106', '107']							L.Haimberger	0
500	0-20000-0-72344	0	501	[72344]	3	FORT SMITH/MUN., AR.			0	-94.37	35.33		19630415	19640216	1	0	63	NMS		None									['38', '85', '106', '107']							L.Haimberger	0
501	0-20000-0-72636	0	502	[72636]	3	MUSKEGON/COUNTY, MI.			0	-86.25	43.17		19630122	19721003	1	0	63	NMS	9	None									['38', '85', '106', '107']							L.Haimberger	0
502	0-20000-0-47768	0	503	[47768]	3	OKAYAMA			0	133.93	34.69		19360811	19410530	1	0	63	NMS		Soja									['38', '85', '106', '107']							L.Haimberger	0
503	0-20000-0-72405	0	504	[72405]	3	WASHINGTON/NAT., VA.			0	-77.03	38.85		19690725	19730617	1	0	63	NMS	9	None									['38', '85', '106', '107']							L.Haimberger	0
504	0-20000-0-89601	0	505	[89601]	3	OAZIC BANGERA			0	100.75	-66.27		19570630	19581117	1	0	63	NMS		None									['38', '85', '106', '107']							L.Haimberger	0
505	0-20000-0-06458	0	506	[6451]	3	BEAUVECHAIN			0	4.76	50.75		19490121	19560630	1	0	63	NMS		Steenokkerzeel									['38', '85', '106', '107']							L.Haimberger	0
506	0-20000-0-10126	0	507	[10122]	3	WITTMUNDHAVEN			0	7.67	53.55		19490405	19520804	1	0	63	NMS		Schortens									['38', '85', '106', '107']							L.Haimberger	0
507	0-20000-0-55773	0	508	[55773]	3	PAGRI			0	89.08	27.73		19790806	19911029	1	0	63	NMS		Gangtok									['38', '85', '106', '107']							L.Haimberger	0
508	0-20000-0-60540	0	509	[60540]	3	EL-KHEITER			0	0.07	34.15		19570701	19581229	1	0	63	NMS	114	Wahran									['38', '85', '106', '107']							L.Haimberger	0
509	0-20000-0-15300	0	510	[15300]	3	BRASOV-GHIMBAV			0	25.53	45.7		19760204	19860516	1	0	63	NMS	192	Fagaras									['38', '85', '106', '107']							L.Haimberger	0
510	0-20000-0-62650	0	511	[62650]	3	DONGOLA			0	30.48	19.17		19731210	20090407	1	0	63	NMS		Marawi									['38', '85', '106', '107']							L.Haimberger	0
511	0-20000-0-72525	0	512	[72525]	3	YOUNGSTOWN, OH.			0	-80.67	41.27		19620303	19671031	1	0	63	NMS	9	None									['38', '85', '106', '107']							L.Haimberger	0
512	0-20500-0-41006	0	513	[48910]	3	VINH LONG			0	105.95	10.25		19710616	20010818	1	0	63	NMS		Vinh Long									['38', '85', '106', '107']							L.Haimberger	0
513	0-20000-0-48062	0	514	[48062]	3	SITTWE			0	92.88	20.13		19740106	19931122	1	0	63	NMS		Akyab									['38', '85', '106', '107']							L.Haimberger	0
514	0-20300-0-27331	0	515	[27331]	3	JAROSLAVL			0	39.58	57.58		19500813	19530213	1	0	63	NMS	220	Yaroslavl									['38', '85', '106', '107']							L.Haimberger	0
515	0-20000-0-07591	0	516	[7591]	3	EMBRUN			0	6.5	44.57		19691019	19721225	1	0	63	NMS	68	Gap									['38', '85', '106', '107']							L.Haimberger	0
516	0-20000-0-74504	0	517	[74504]	3	PILAR POINT AFS, CA.			0	-122.5	37.5		19831216	19970521	1	0	63	NMS		None									['38', '85', '106', '107']							L.Haimberger	0
517	0-20000-0-72519	0	518	[72519]	3	SYRACUSE/HANCOCK, NY.			0	-76.12	43.12		19620303	19720911	1	0	63	NMS	9	None									['38', '85', '106', '107']							L.Haimberger	0
518	0-20300-0-52313	0	519	[52313]	3	XING-XING-XIA			0	95.1333	41.7833		19590101	19591016	1	0	63	NMS		Hami									['38', '85', '106', '107']							L.Haimberger	0
519	0-20000-0-10655	0	520	[10659]	3	WUERZBURG			0	9.96	49.77		19711014	19840829	1	0	63	NMS	205	Kitzingen									['38', '85', '106', '107']							L.Haimberger	0
520	0-20000-0-15450	0	521	[15450]	3	CRAIOVA			0	23.87	44.31		19730225	20020923	1	0	63	NMS	192	Craiova									['38', '85', '106', '107']							L.Haimberger	0
521	0-20000-0-48453	0	522	[48456]	3	BANGNA AGROMET			0	100.61	13.67		19710901	19781007	1	0	63	NMS		Pak Kret									['38', '85', '106', '107']							L.Haimberger	0
522	0-20000-0-67217	0	523	[67217]	3	LICHINGA			0	35.23	-13.3		19670504	19820902	1	0	63	NMS		Lichinga									['38', '85', '106', '107']							L.Haimberger	0
523	0-20000-0-74754	0	524	[74754]	3	ENGLAND AFB, LA.			0	-92.55	31.32		19700211	19700731	1	0	63	NMS		None									['38', '85', '106', '107']							L.Haimberger	0
524	0-20000-0-74504	0	525	[74504]	3	PILAR POINT AFS, CA.			0	-122.5	37.5		19831216	19970521	1	0	63	NMS		None									['38', '85', '106', '107']							L.Haimberger	0
525	0-20000-0-67561	0	526	[67561]	3	NDOLA			0	28.65	-13.0		19700308	19851114	1	0	63	NMS		Ndola									['38', '85', '106', '107']							L.Haimberger	0
526	0-20000-0-56462	0	527	[56462]	3	JIULONG			0	101.5	29.0		19640503	20010630	1	0	63	NMS		Xichang									['38', '85', '106', '107']							L.Haimberger	0
527	0-20300-0-78949	0	528	[78949]	3	VIEUX FORT			0	-60.98	13.75		19561001	19570131	1	0	63	NMS		None									['38', '85', '106', '107']							L.Haimberger	0
528	0-20000-0-67881	0	529	[67881]	3	RUSAPE			0	32.13	-18.53		19890927	20091025	1	0	63	NMS		Rusape									['38', '85', '106', '107']							L.Haimberger	0
529	0-20001-0-11035	0	530	[11030]	3	WIEN/HOHE WARTE (11035-1)			0	16.36	48.25		19490208	19511130	1	0	63	NMS	243	Tulln									['38', '85', '106', '107']							L.Haimberger	0
530	0-20000-0-41744	0	531	[41744]	3	KHUZDAR			0	66.63	27.83		19700103	20181224	1	0	63	NMS	69	Khuzdar									['38', '85', '106', '107']							L.Haimberger	0
531	0-20000-0-48431	0	532	[48431]	3	NAKHON RATCHASIMA			0	102.09	14.97		19680426	20110105	1	0	63	NMS		Nakhon Ratchasima									['38', '85', '106', '107']							L.Haimberger	0
532	0-20000-0-38328	0	533	[38328]	3	SHYMKENT			0	69.71	42.35		19660610	19680429	1	0	63	NMS		Shymkent									['38', '85', '106', '107']							L.Haimberger	0
533	0-20000-0-67774	0	534	[67775]	3	HARARE (BELVEDERE)			0	31.02	-17.83		19660707	20020316	1	0	63	NMS		Chitungwiza									['38', '85', '106', '107']							L.Haimberger	0
534	0-20000-0-07280	0	535	[7280]	3	DIJON-LONGVIC			0	5.09	47.27		19680501	20030618	1	0	63	NMS	205	Chenove									['38', '85', '106', '107']							L.Haimberger	0
535	0-20000-0-67633	0	536	[67633]	3	MONGU			0	23.15	-15.25		19680501	19911028	1	0	63	NMS	136	Mongu									['38', '85', '106', '107']							L.Haimberger	0
536	0-20000-0-06418	0	537	[6410]	3	ZEEBRUGGE			0	3.2	51.35		19520202	19550911	1	0	63	NMS		Knokke-Heist									['38', '85', '106', '107']							L.Haimberger	0
537	0-20000-0-06081	0	538	[6086]	3	BLAAVANDSHUK FYR			0	8.08	55.56		20120910	20200901	1	0	63	NMS		Varde									['38', '85', '106', '107']							L.Haimberger	0
538	0-20000-0-47651	0	539	[47651]	3	TSU			0	136.52	34.73		19341018	19410615	1	0	63	NMS		Hisai									['38', '85', '106', '107']							L.Haimberger	0
539	0-20300-0-78949	0	540	[78949]	3	VIEUX FORT			0	-60.98	13.75		19561001	19570131	1	0	63	NMS		None									['38', '85', '106', '107']							L.Haimberger	0
540	0-20000-0-80337	0	541	[80337]	3	TUMACO *			0	-78.77	1.85		19760121	19850404	1	0	63	NMS	9	None									['38', '85', '106', '107']							L.Haimberger	0
541	0-20000-0-64931	0	542	[64931]	3	BATOURI			0	14.37	4.47		19630806	19940629	1	0	63	NMS	161	Batouri									['38', '85', '106', '107']							L.Haimberger	0
542	0-20000-0-42260	0	543	[42260]	3	AGRA (42260-0)			0	77.97	27.15		19710106	20191215	1	0	63	NMS		Agra									['38', '85', '106', '107']							L.Haimberger	0
543	0-20000-0-72783	0	544	[72783]	3	LEWISTON/LEWISTON-NEZ PERCE CO., ID.			0	-117.02	46.38		19620305	19721229	1	0	63	NMS		None									['38', '85', '106', '107']							L.Haimberger	0
544	0-20000-0-43367	0	545	[43368]	3	CAR NICOBAR			0	92.83	9.17		19720429	19971020	1	0	63	NMS		Port Blair									['38', '85', '106', '107']							L.Haimberger	0
545	0-20000-0-63533	0	546	[63533]	3	NEGHELLE			0	39.57	5.33		19940224	20081006	1	0	63	NMS		Shakiso									['38', '85', '106', '107']							L.Haimberger	0
546	0-20000-0-47632	0	547	[47632]	3	GIFU			0	136.76	35.4		19370820	19410729	1	0	63	NMS		Kasamatsu									['38', '85', '106', '107']							L.Haimberger	0
547	0-20300-0-74479	0	548	[74479]	3	PITTSBURGH/EMSU			0	-80.0	40.433		19711116	19730511	1	0	63	NMS	9	None									['38', '85', '106', '107']							L.Haimberger	0
548	0-20300-0-62840	0	549	[62840]	3	MALKAL			0	31.65	9.55		19600901	19790815	1	0	63	NMS	221	Malakal									['38', '85', '106', '107']							L.Haimberger	0
549	0-20000-0-72434	0	550	[72434]	3	ST.LOUIS/LAMBERT,  ST.LOUIS INT., MO.			0	-90.37	38.75		19690723	19730411	1	0	63	NMS		None									['38', '85', '106', '107']							L.Haimberger	0
550	0-20000-0-57067	0	551	[57067]	3	LUSHI			0	111.07	34.08		19640923	19911028	1	0	63	NMS		Sanmenxia									['38', '85', '106', '107']							L.Haimberger	0
551	0-20000-0-64510	0	552	[64510]	3	BITAM			0	11.48	2.08		19641002	20040513	1	0	63	NMS	25	Bitam									['38', '85', '106', '107']							L.Haimberger	0
552	0-20000-0-63801	0	553	[63801]	3	KIGOMA			0	29.67	-4.89		19570701	19941212	1	0	63	NMS	61	Kigoma									['38', '85', '106', '107']							L.Haimberger	0
553	0-20000-0-10646	0	554	[10657]	3	NEUHUETTEN-SPESSART			0	9.42	50.01		19710903	19900829	1	0	63	NMS	205	Wertheim									['38', '85', '106', '107']							L.Haimberger	0
554	0-20000-0-24966	0	555	[24966]	3	UST'-MAJYA			0	134.45	60.38		19630718	19701030	1	0	63	NMS		Markha									['38', '85', '106', '107']							L.Haimberger	0
555	0-20000-0-57731	0	556	[57731]	3	SINAN			0	108.25	27.95		19810801	19870622	1	0	63	NMS		Tongren									['38', '85', '106', '107']							L.Haimberger	0
556	0-20000-0-47606	0	557	[47606]	3	FUSHIKI			0	137.06	36.79		19330413	19400805	1	0	63	NMS		Shimminato									['38', '85', '106', '107']							L.Haimberger	0
557	0-20300-0-20357	0	558	[20357]	3	RUSSKAJA GAVAN			0	62.5667	76.1833		19530219	19541231	1	0	63	NMS	190	None									['38', '85', '106', '107']							L.Haimberger	0
558	0-20000-0-70266	0	559	[70266]	3	FORT GREELY, AK			0	-145.7	63.97		19650208	19870306	1	0	63	NMS		None									['38', '85', '106', '107']							L.Haimberger	0
559	0-20000-0-15260	0	560	[15260]	3	SIBIU			0	24.09	45.79		19730323	19910331	1	0	63	NMS	192	Sibiu									['38', '85', '106', '107']							L.Haimberger	0
560	0-20000-0-95966	0	561	[94968]	3	LAUNCESTON AIRPORT			0	147.21	-41.55		19681018	19911029	1	0	63	NMS		Launceston									['38', '85', '106', '107']							L.Haimberger	0
561	0-20000-0-76160	0	562	[76160]	3	HERMOSILLO, SON.			0	-110.93	29.08		19620304	19671225	1	0	63	NMS		None									['38', '85', '106', '107']							L.Haimberger	0
562	0-20000-0-47762	0	563	[47762]	3	SHIMONOSEKI			0	130.93	33.95		19380103	19410127	1	0	63	NMS		Shimonoseki									['38', '85', '106', '107']							L.Haimberger	0
563	0-20300-0-53420	0	564	[53420]	3	XAMBA			0	107.17	40.97		19560820	19581205	1	0	63	NMS		Haibowan									['38', '85', '106', '107']							L.Haimberger	0
564	0-20000-0-63729	0	565	[63729]	3	BUKOBA			0	31.82	-1.33		19630321	19900702	1	0	63	NMS	61	Bukoba									['38', '85', '106', '107']							L.Haimberger	0
565	0-20000-0-70222	0	566	[70222]	3	GALENA A.			0	-156.93	64.73		19620311	19790718	1	0	63	NMS		None									['38', '85', '106', '107']							L.Haimberger	0
566	0-20300-0-24793	0	567	[24793]	3	SHTURMOVOY			0	149.76	62.85		19550426	19611121	1	0	63	NMS		Magadan									['38', '85', '106', '107']							L.Haimberger	0
567	0-20000-0-54423	0	568	[54423]	3	CHENGDE			0	117.92	40.97		19641007	19881022	1	0	63	NMS		Chengde									['38', '85', '106', '107']							L.Haimberger	0
568	0-20000-0-72544	0	569	[72544]	3	MOLINE/QUAD CITY, IL.			0	-90.52	41.45		19620303	19690219	1	0	63	NMS		None									['38', '85', '106', '107']							L.Haimberger	0
569	0-20000-0-60640	0	570	[60640]	3	ILLIZI			0	8.42	26.5		19570702	20021102	1	0	63	NMS	252	Gat									['38', '85', '106', '107']							L.Haimberger	0
570	0-20500-0-53868	0	571	[53868]	3	OAK RIDGE ASOS			0	-83.77	36.02		19580701	19591231	1	0	63	NMS	9	Linfen									['38', '85', '106', '107']							L.Haimberger	0
571	0-20000-0-41624	0	572	[41624]	3	DERA ISMAIL KHAN			0	70.92	31.82		19870408	20110105	1	0	63	NMS		Dera Ismail Khan									['38', '85', '106', '107']							L.Haimberger	0
572	0-20000-0-78700	0	573	[78700]	3	AMAPALA			0	-87.65	13.27		19570705	19581111	1	0	63	NMS	9	None									['38', '85', '106', '107']							L.Haimberger	0
573	0-20000-0-60160	0	574	[60160]	3	IFRANE			0	-5.17	33.5		19620403	20021124	1	0	63	NMS	227	None									['38', '85', '106', '107']							L.Haimberger	0
574	0-20000-0-67215	0	575	[67215]	3	PEMBA			0	40.53	-12.98		19660605	19831030	1	0	63	NMS		Pemba									['38', '85', '106', '107']							L.Haimberger	0
575	0-20000-0-61202	0	576	[61202]	3	TESSALIT			0	0.98	20.2		19740312	20100322	1	0	63	NMS	39	Kidal									['38', '85', '106', '107']							L.Haimberger	0
576	0-20000-0-63654	0	577	[63654]	3	MASINDI			0	31.72	1.68		19631002	19780121	1	0	63	NMS	61	Masindi									['38', '85', '106', '107']							L.Haimberger	0
577	0-20000-0-47688	0	578	[47688]	3	TATEYAMA AB			0	139.83	34.99		19700601	20020809	1	0	63	NMS		Tateyama									['38', '85', '106', '107']							L.Haimberger	0
578	0-20000-0-97340	0	579	[97340]	3	WAINGAPU/MAU HAU			0	120.3	-9.67		19800325	20110105	1	0	63	NMS		Waingapu									['38', '85', '106', '107']							L.Haimberger	0
579	0-20000-0-96109	0	580	[96109]	3	PEKAN BARU/SIMPANGTIGA			0	101.45	0.47		19760107	20110105	1	0	63	NMS		Balaipungut									['38', '85', '106', '107']							L.Haimberger	0
580	0-20000-0-96797	0	581	[96797]	3	TEGAL			0	109.15	-6.85		19911003	20110104	1	0	63	NMS		Tegal									['38', '85', '106', '107']							L.Haimberger	0
581	0-20000-0-44218	0	582	[44218]	3	HOVD			0	91.63	48.0		19700410	19931213	1	0	63	NMS		Ulaangom									['38', '85', '106', '107']							L.Haimberger	0
582	0-20000-0-40588	0	583	[40588]	3	FAILAKAH ISLAND			0	48.33	29.45		19490217	19541112	1	0	63	NMS	228	Bajil									['38', '85', '106', '107']							L.Haimberger	0
583	0-20000-0-71851	0	584	[71851]	3	PORTAGE SOUTHPORT, MAN			0	-98.28	49.9		19980304	20030911	1	0	63	NMS		None									['38', '85', '106', '107']							L.Haimberger	0
584	0-20000-0-60735	0	585	[60735]	3	KAIROUAN			0	10.1	35.67		19731226	19980814	1	0	63	NMS	68	Masakin									['38', '85', '106', '107']							L.Haimberger	0
585	0-20000-0-74545	0	586	[74545]	3	SMOKEY HILL GUNNERY RANGE, KS.			0	-97.8	38.65		19700211	19720830	1	0	63	NMS		None									['38', '85', '106', '107']							L.Haimberger	0
586	0-20300-0-72497	0	587	[72497]	3	CHICO MUNI			0	-121.85	39.7833		19691204	19720523	1	0	63	NMS		None									['38', '85', '106', '107']							L.Haimberger	0
587	0-20000-0-57584	0	588	[57584]	3	YUEYANG			0	113.08	29.38		19670210	19870621	1	0	63	NMS		Yueyang									['38', '85', '106', '107']							L.Haimberger	0
588	0-20000-0-48480	0	589	[48480]	3	CHANTHA BURI			0	102.1	12.61		19690329	20110103	1	0	63	NMS		Chanthaburi									['38', '85', '106', '107']							L.Haimberger	0
589	0-20000-0-40938	0	590	[40938]	3	HERAT			0	62.22	34.22		19780601	19890802	1	0	63	NMS	190	Herat									['38', '85', '106', '107']							L.Haimberger	0
590	0-20000-0-93309	0	591	[93308]	3	NEW PLYMOUTH AERO AWS			0	174.18	-39.01		19800506	19920113	1	0	63	NMS		New Plymouth									['38', '85', '106', '107']							L.Haimberger	0
591	0-20000-0-72508	0	592	[72508]	3	HARTFORD/BRADLEY INTNL., CT			0	-72.68	41.93		19620304	19721227	1	0	63	NMS	9	None									['38', '85', '106', '107']							L.Haimberger	0
592	0-20000-0-26850	0	593	[26851]	3	MINSK			0	27.64	53.93		19500427	19560130	1	0	63	NMS	107	Minsk									['38', '85', '106', '107']							L.Haimberger	0
593	0-20300-0-67019	0	594	[67019]	3	ANALALAVA			0	47.766999999999996	-14.633		19660510	20000421	1	0	63	NMS		Antsohihy									['38', '85', '106', '107']							L.Haimberger	0
594	0-20000-0-62062	0	595	[62063]	3	TOBRUK			0	23.96	32.1		19640711	19840417	1	0	63	NMS	64	Tubruq									['38', '85', '106', '107']							L.Haimberger	0
595	0-20000-0-07535	0	596	[7535]	3	GOURDON			0	1.4	44.74		19700309	19720826	1	0	63	NMS		Cahors									['38', '85', '106', '107']							L.Haimberger	0
596	0-20000-0-58251	0	597	[58251]	3	DONGTAI			0	120.28	32.85		19561101	19591231	1	0	63	NMS		Dongtai									['38', '85', '106', '107']							L.Haimberger	0
597	0-20300-0-48858	0	598	[48858]	3	PLEIKU AB			0	108.0167	14.0		19660920	19711104	1	0	63	NMS		Play Cu									['38', '85', '106', '107']							L.Haimberger	0
598	0-20000-0-47938	0	599	[47938]	3	IEJIMA (US BASE)			0	127.78	26.72		19680101	20000223	1	0	63	NMS		Nago									['38', '85', '106', '107']							L.Haimberger	0
599	0-20000-0-03469	0	600	[3470]	3	HOLBEACH NO 2			0	0.14	52.87		19691113	19780307	1	0	63	NMS		Boston									['38', '85', '106', '107']							L.Haimberger	0
600	0-20000-0-37575	0	601	[37575]	3	ZAKATALA			0	46.65	41.67		19661202	19780705	1	0	63	NMS	190	Zaqatala									['38', '85', '106', '107']							L.Haimberger	0
601	0-20000-0-44239	0	602	[44239]	3	BULGAN			0	103.52	48.82		19700406	19830824	1	0	63	NMS		Bulgan									['38', '85', '106', '107']							L.Haimberger	0
602	0-20000-0-60120	0	603	[60120]	3	KENITRA			0	-6.59	34.3		19491127	20020203	1	0	63	NMS	227	None									['38', '85', '106', '107']							L.Haimberger	0
603	0-20000-0-41859	0	604	[41859]	3	RANGPUR			0	89.23	25.73		19840821	20110105	1	0	63	NMS		Rangpur									['38', '85', '106', '107']							L.Haimberger	0
604	0-20000-0-63887	0	605	[63887]	3	IRINGA			0	35.75	-7.67		19691016	19900625	1	0	63	NMS		Iringa									['38', '85', '106', '107']							L.Haimberger	0
605	0-20000-0-66422	0	606	[66422]	3	MOCAMEDES			0	12.15	-15.2		19540614	19710111	1	0	63	NMS	92	Namibe									['38', '85', '106', '107']							L.Haimberger	0
606	0-20000-0-85041	0	607	[85041]	3	COBIJA			0	-68.78	-11.03		20020517	20040214	1	0	63	NMS		None									['38', '85', '106', '107']							L.Haimberger	0
607	0-20000-0-60769	0	608	[60769]	3	DJERBA MELLITA			0	10.77	33.87		19741221	19941120	1	0	63	NMS	195	Jarjis									['38', '85', '106', '107']							L.Haimberger	0
608	0-20000-0-97300	0	609	[97300]	3	MAUMERE/WAI OTI			0	122.24	-8.64		19810826	20110104	1	0	63	NMS		Maumere									['38', '85', '106', '107']							L.Haimberger	0
609	0-20000-0-98426	0	610	[98426]	3	SUBIC BAY WEATHER STATION			0	120.28	14.81		19890630	19920113	1	0	63	NMS		Olongapo									['38', '85', '106', '107']							L.Haimberger	0
610	0-20000-0-41506	0	611	[41506]	3	CHITRAL			0	71.83	35.85		19870513	20110105	1	0	63	NMS		Chitral									['38', '85', '106', '107']							L.Haimberger	0
611	0-20000-0-42895	0	612	[42895]	3	BALASORE			0	86.93	21.52		19770622	20190322	1	0	63	NMS		Baleshwar									['38', '85', '106', '107']							L.Haimberger	0
612	0-20000-0-36397	0	613	[36403]	3	ZHALGYZTOBE			0	81.22	49.22		19670101	19680430	1	0	63	NMS		Oskemen									['38', '85', '106', '107']							L.Haimberger	0
613	0-20000-0-72326	0	614	[72326]	3	KNOXVILLE/MUN., TN.			0	-83.98	35.82		19620303	19721003	1	0	63	NMS	9	None									['38', '85', '106', '107']							L.Haimberger	0
614	0-20000-0-15490	0	615	[15490]	3	TURNU-MAGURELE			0	24.88	43.76		19760520	20130323	1	0	63	NMS	192	Turnu Magurele									['38', '85', '106', '107']							L.Haimberger	0
615	0-20000-0-41923	0	616	[41920]	3	DHAKA			0	90.38	23.77		19620701	19630131	1	0	63	NMS		Dhaka									['38', '85', '106', '107']							L.Haimberger	0
616	0-20000-0-87257	0	617	[87257]	3	CERES AERO			0	-61.94	-29.88		19541119	19720531	1	0	63	NMS		None									['38', '85', '106', '107']							L.Haimberger	0
