	primary_id	primary_id_scheme	record_number	secondary_id	secondary_id_scheme	station_name	station_abbreviation	alternative_name	station_crs	longitude	latitude	local_gravity	start_date	end_date	station_type	platform_type	platform_sub_type	operating_institute	operating_territory	city	contact	role	observing_frequency	reporting_time	telecommunication_method	station_automation	measuring_system_model	measuring_system_id	observed_variables	comment	optional_data	bbox_min_longitude	bbox_max_longitude	bbox_min_latitude	bbox_max_latitude	metadata_contact	metadata_contact_role
0	0-20000-0-66450	0	1	66450	3	BAIA DOS TIGRES			0	11.716666666666667	-16.6		20141023	20141023	1	0	63	NMS	8	Namibe									['38', '85', '106', '107']							L.Haimberger	0
1	0-20500-0-15606	0	2	71098	3	INDIAN HOUSE LAKE			0	-64.73	56.23		19620306	19620906	1	0	63	NMS	37	None									['38', '85', '106', '107']							L.Haimberger	0
2	0-20000-0-89601	0	3	89601	3	OAZIC BANGERA			0	100.74611111111109	-66.27444444444444		19570630	19581117	1	0	63	NMS	214	None									['38', '85', '106', '107']							L.Haimberger	0
3	0-20000-0-60607	0	4	60607	3	TIMIMOUN			0	0.2833333333333333	29.25		19840319	19890820	1	0	63	NMS	61	Adrar									['38', '85', '106', '107']							L.Haimberger	0
4	0-20000-0-94995	0	5	93995	3	LORD HOWE ISLAND AERO			0	159.07861111111112	-31.54222222222223		19490101	19551231	1	0	63	NMS	13	None									['38', '85', '106', '107']							L.Haimberger	0
5	0-20000-0-91690	0	6	91690	3	LAUTHALA BAY			0	178.45	-18.15		19690309	19790726	1	0	63	NMS	70	None									['38', '85', '106', '107']							L.Haimberger	0
6	0-20000-0-50603	0	7	50603	3	XIN BARAG YOUQI			0	116.81	48.67888888888889		19730409	19911029	1	0	63	NMS	47	Manzhouli									['38', '85', '106', '107']							L.Haimberger	0
7	0-20000-0-67975	0	8	67975	3	MASVINGO			0	30.86666666666667	-20.066666666666666		19811107	20100810	1	0	63	NMS	248	Masvingo									['38', '85', '106', '107']							L.Haimberger	0
8	0-20000-0-97096	0	9	97096	3	POSO/KASIGUNCU			0	120.65694444444445	-1.4202777777777778		20180101	20211230	1	0	63	NMS	100	Poso									['38', '85', '106', '107']							L.Haimberger	0
9	0-20500-0-26460	0	10	70268	3	BLAIR LKS BMB RNG AF			0	-147.65	64.33		19780425	19900502	1	0	63	NMS	231	Fairbanks									['38', '85', '106', '107']							L.Haimberger	0
10	0-20000-0-74638	0	11	74638	3	MELROSE GUNNERY RANGE, NM.			0	-103.8	34.3		19700211	19730823	1	0	63	NMS	231	Portales									['38', '85', '106', '107']							L.Haimberger	0
11	0-20000-0-70296	0	12	70296	3	CORDOVA/MILE 13			0	-145.5	60.5		19620304	19640729	1	0	63	NMS	231	Anchorage									['38', '85', '106', '107']							L.Haimberger	0
12	0-20000-0-96091	0	13	96091	3	TANJUNG PINANG/KIJANG			0	104.53	0.9186111111111109		19820813	20110105	1	0	63	NMS	100	Kijang									['38', '85', '106', '107']							L.Haimberger	0
13	0-20000-0-41466	0	14	41390	3	TAIZ			0	44.13333333333333	13.683333333333335		19830729	19840718	1	0	63	NMS	243	Ibb									['38', '85', '106', '107']							L.Haimberger	0
14	0-20000-0-64705	0	15	64705	3	BOUSSO			0	16.716666666666665	10.483333333333333		20121220	20121220	1	0	63	NMS	213	Bousso									['38', '85', '106', '107']							L.Haimberger	0
15	0-20000-0-48887	0	16	48887	3	PHAN THIET			0	108.1	10.933333333333335		20090326	20110104	1	0	63	NMS	239	Phan Thiet									['38', '85', '106', '107']							L.Haimberger	0
16	0-20000-0-55279	0	17	55279	3	BAINGOIN			0	90.01666666666668	31.36666666666667		19730429	19970702	1	0	63	NMS	47	Lasa									['38', '85', '106', '107']							L.Haimberger	0
17	0-20000-0-47101	0	18	47101	3	CHUNCHEON			0	127.73583333333332	37.9025		20120906	20200117	1	0	63	NMS	121	Seoul									['38', '85', '106', '107']							L.Haimberger	0
18	0-20000-0-41431	0	19	41360	3	HODEIDAH			0	42.98333333333333	14.75		19830801	19870119	1	0	63	NMS	243	Bajil									['38', '85', '106', '107']							L.Haimberger	0
19	0-20000-0-74531	0	20	74531	3	AIR FORCE ACADEMY,  CO.			0	-104.81666666666666	38.96666666666667		19690222	19911027	1	0	63	NMS	231	Black Forest									['38', '85', '106', '107']							L.Haimberger	0
20	0-20000-0-68024	0	21	68024	3	GHANZI			0	21.65	-21.7		19730813	20050107	1	0	63	NMS	34	Ghanzi									['38', '85', '106', '107']							L.Haimberger	0
21	0-20000-0-63887	0	22	63887	3	IRINGA			0	35.75	-7.666666666666668		19691016	19900625	1	0	63	NMS	227	Iringa									['38', '85', '106', '107']							L.Haimberger	0
22	0-20000-0-03023	0	23	3023	3	SOUTH UIST RANGE			0	-7.385000000000002	57.3575		20180118	20211201	1	0	63	NMS	76	Inverness									['38', '85', '106', '107']							L.Haimberger	0
23	0-20000-0-60360	0	24	60360	3	ANNABA			0	7.816666666666666	36.833333333333336		19620312	19911028	1	0	63	NMS	61	Tabarqah									['38', '85', '106', '107']							L.Haimberger	0
24	0-20000-0-60611	0	25	60611	3	IN-AMENAS			0	9.633333333333333	28.05		19730123	19960210	1	0	63	NMS	61	Gat									['38', '85', '106', '107']							L.Haimberger	0
25	0-20000-0-91190	0	26	91190	3	KAHULUI AIRPORT, MAUI, HAWAII			0	-156.43333333333334	20.9		19680616	19911029	1	0	63	NMS	231	Kahului									['38', '85', '106', '107']							L.Haimberger	0
26	0-20000-0-32540	0	27	32583	3	PETROPAVLOVSK-KAMCHATSKIJ (32540-0)			0	158.58333333333334	53.08333333333334		19490125	19561128	1	0	63	NMS	190	Petropavlovsk-Kamchatskiy									['38', '85', '106', '107']							L.Haimberger	0
27	0-20000-0-47131	0	28	47131	3	CHEONGJU			0	127.44055555555555	36.63916666666667		19800205	20000314	1	0	63	NMS	121	Seoul									['38', '85', '106', '107']							L.Haimberger	0
28	0-20000-0-40255	0	29	40230	3	IRBED			0	35.85	32.55		19760207	19930526	1	0	63	NMS	112	Irbid									['38', '85', '106', '107']							L.Haimberger	0
29	0-20000-0-30603	0	30	30603	3	ZIMA			0	102.05	53.93333333333333		19620810	19640917	1	0	63	NMS	190	Zima									['38', '85', '106', '107']							L.Haimberger	0
30	0-20000-0-71842	0	31	71842	3	SIOUX LOOKOUT A, ONT			0	-91.9	50.11666666666667		19620304	19621012	1	0	63	NMS	37	Kenora									['38', '85', '106', '107']							L.Haimberger	0
31	0-20000-0-56287	0	32	56287	3	YA'AN			0	103.0	29.98333333333333		19560820	19580531	1	0	63	NMS	47	Yaan									['38', '85', '106', '107']							L.Haimberger	0
32	0-20000-0-67561	0	33	67561	3	NDOLA			0	28.65	-13.0		19700308	19851114	1	0	63	NMS	247	Ndola									['38', '85', '106', '107']							L.Haimberger	0
33	0-20000-0-54843	0	34	54843	3	WEIFANG			0	119.18333333333334	36.766666666666666		19600618	19610314	1	0	63	NMS	47	Weifang									['38', '85', '106', '107']							L.Haimberger	0
34	0-20000-0-47762	0	35	47762	3	SHIMONOSEKI			0	130.92638888888888	33.948611111111106		19380103	19410127	1	0	63	NMS	113	Shimonoseki									['38', '85', '106', '107']							L.Haimberger	0
35	0-20000-0-55472	0	36	55472	3	XAINZA			0	88.63333333333334	30.95		19770410	19911029	1	0	63	NMS	47	Lasa									['38', '85', '106', '107']							L.Haimberger	0
36	0-20000-0-78547	0	37	78547	3	CHRISTIANSTED/ALEX. HAMILTON FIELD,  ST. CROIX			0	-64.8	17.7		19620304	19680217	1	0	63	NMS	238	Fajardo									['38', '85', '106', '107']							L.Haimberger	0
37	0-20000-0-71579	0	38	71843	3	WINNIPEG THE FORKS, MAN			0	-97.12944444444445	49.88833333333334		20180604	20210817	1	0	63	NMS	37	Winnipeg									['38', '85', '106', '107']							L.Haimberger	0
38	0-20000-0-76750	0	39	76750	3	CHETUMAL, Q.R.			0	-88.32777777777777	18.500555555555557		19620309	19671229	1	0	63	NMS	156	Chetumal									['38', '85', '106', '107']							L.Haimberger	0
39	0-20000-0-87374	0	40	87374	3	PARANA AERO			0	-60.48416666666667	-31.79027777777777		19460101	19571012	1	0	63	NMS	10	Parana									['38', '85', '106', '107']							L.Haimberger	0
40	0-20000-0-08190	0	41	8181	3	BARCELONA SERVEI			0	2.118055555555556	41.38444444444443		19680705	19720126	1	0	63	NMS	67	El Prat De Llobregat									['38', '85', '106', '107']							L.Haimberger	0
41	0-20300-0-72497	0	42	72497	3	CHICO MUNI			0	-121.85	39.7833		19691009	19720523	1	0	63	NMS	231	Chico									['38', '85', '106', '107']							L.Haimberger	0
42	0-20000-0-12140	0	43	12150	3	GDANSK PORT PN.			0	18.697777777777773	54.39972222222222		19670513	19890123	1	0	63	NMS	178	Gdansk									['38', '85', '106', '107']							L.Haimberger	0
43	0-20000-0-47101	0	44	47101	3	CHUNCHEON			0	127.73583333333332	37.9025		20120906	20200117	1	0	63	NMS	121	Seoul									['38', '85', '106', '107']							L.Haimberger	0
44	0-20000-0-42734	0	45	42734	3	JAMNAGAR			0	70.08333333333333	22.45		19691020	20030925	1	0	63	NMS	104	Jamnagar									['38', '85', '106', '107']							L.Haimberger	0
45	0-20000-0-95805	0	46	94805	3	CAPE BORDA			0	136.59583333333333	-35.755		19710616	19781102	1	0	63	NMS	13	Port Lincoln									['38', '85', '106', '107']							L.Haimberger	0
46	0-20000-0-42416	0	47	42416	3	TEZPUR/BINDUKURI			0	92.8	26.716666666666665		19700114	19750707	1	0	63	NMS	104	Tezpur									['38', '85', '106', '107']							L.Haimberger	0
47	0-20000-0-63533	0	48	63533	3	NEGHELLE			0	39.56666666666667	5.333333333333333		19940224	20081006	1	0	63	NMS	68	Shakiso									['38', '85', '106', '107']							L.Haimberger	0
48	0-20000-0-59358	0	49	46742	3	TAINAN			0	120.21666666666668	23.0		19610504	19640930	1	0	63	NMS	226	Tainan									['38', '85', '106', '107']							L.Haimberger	0
49	0-20000-0-91176	0	50	91176	3	KANEOHE BAY (MCAS),  OAHU, HAWAII			0	-157.76666666666668	21.45		19810724	20080709	1	0	63	NMS	231	Kaneohe									['38', '85', '106', '107']							L.Haimberger	0
50	0-20000-0-63971	0	51	63971	3	MTWARA			0	40.18333333333333	-10.266666666666667		19570701	19941208	1	0	63	NMS	227	Mtwara									['38', '85', '106', '107']							L.Haimberger	0
51	0-20000-0-94653	0	52	94653	3	CEDUNA AMO			0	133.6975	-32.12972222222222		20180101	20211227	1	0	63	NMS	13	Flinders									['38', '85', '106', '107']							L.Haimberger	0
52	0-20000-0-41624	0	53	41624	3	DERA ISMAIL KHAN			0	70.91666666666667	31.816666666666666		19870408	20110105	1	0	63	NMS	177	Dera Ismail Khan									['38', '85', '106', '107']							L.Haimberger	0
53	0-20000-0-41529	0	54	41529	3	PESHAWAR			0	71.93333333333334	34.03333333333333		20141002	20141002	1	0	63	NMS	177	Amangarh									['38', '85', '106', '107']							L.Haimberger	0
54	0-20000-0-65467	0	55	65467	3	TAKORADI			0	-1.7666666666666666	4.883333333333333		19660527	20000913	1	0	63	NMS	81	Takoradi									['38', '85', '106', '107']							L.Haimberger	0
55	0-20000-0-60220	0	56	60220	3	ESSAOUIRA			0	-9.773333333333332	31.51		19681105	19700528	1	0	63	NMS	136	Asfi									['38', '85', '106', '107']							L.Haimberger	0
56	0-20000-0-80425	0	57	80425	3	MENE GRANDE			0	-70.93333333333334	9.816666666666666		19700204	19850207	1	0	63	NMS	236	Bachaquero									['38', '85', '106', '107']							L.Haimberger	0
57	0-20000-0-91212	0	58	91215	3	WEATHER FORECAST OFFICE, GUAM, MARIANA IS.			0	144.79444444444445	13.476666666666668		19490104	19501030	1	0	63	NMS	91	None									['38', '85', '106', '107']							L.Haimberger	0
58	0-20500-0-41006	0	59	48910	3	VINH LONG			0	105.95	10.25		19710616	20010818	1	0	63	NMS	239	Vinh Long									['38', '85', '106', '107']							L.Haimberger	0
59	0-20000-0-38599	0	60	38599	3	KHUDJANT			0	69.73333333333333	40.21666666666667		19730205	19780207	1	0	63	NMS	217	Gafurov									['38', '85', '106', '107']							L.Haimberger	0
60	0-20000-0-72344	0	61	72344	3	FORT SMITH/MUN., AR.			0	-94.36666666666666	35.333333333333336		19630415	19640216	1	0	63	NMS	231	Fort Smith									['38', '85', '106', '107']							L.Haimberger	0
61	0-20000-0-71579	0	62	71843	3	WINNIPEG THE FORKS, MAN			0	-97.12944444444445	49.88833333333334		20180604	20210817	1	0	63	NMS	37	Winnipeg									['38', '85', '106', '107']							L.Haimberger	0
62	0-20000-0-07618	0	63	7630	3	TOULOUSE RW			0	1.3744444444444446	43.57694444444446		19710427	19840803	1	0	63	NMS	74	Blagnac									['38', '85', '106', '107']							L.Haimberger	0
63	0-20300-0-56533	0	64	56533	3	LA WANG/TZUKEI			0	98.3833	27.6667		19590320	19611027	1	0	63	NMS	47	Tezu									['38', '85', '106', '107']							L.Haimberger	0
64	0-20000-0-60720	0	65	60720	3	KELIBIA			0	11.083333333333336	36.85		19820202	19921216	1	0	63	NMS	221	Manzil Tamim									['38', '85', '106', '107']							L.Haimberger	0
65	0-20000-0-82578	0	66	82579	3	TERESINA (82578-0)			0	-42.81666666666667	-5.083333333333333		19710102	20010628	1	0	63	NMS	30	Teresina									['38', '85', '106', '107']							L.Haimberger	0
66	0-20000-0-63695	0	67	63695	3	MERU			0	37.65083333333333	0.05166666666666666		19790503	19951116	1	0	63	NMS	114	Meru									['38', '85', '106', '107']							L.Haimberger	0
67	0-20500-0-94109	0	68	71885	3	CARMI			0	-119.08	49.5		19620312	19620910	1	0	63	NMS	37	Penticton									['38', '85', '106', '107']							L.Haimberger	0
68	0-20300-0-04876	0	69	71916	3	CHESTERFIELD INLET			0	-90.7	63.5		19620303	19701216	1	0	63	NMS	37	None									['38', '85', '106', '107']							L.Haimberger	0
69	0-20000-0-51334	0	70	51334	3	JINGHE (51334-0)			0	82.81666666666666	44.56666666666667		19660720	20000912	1	0	63	NMS	47	Yining									['38', '85', '106', '107']							L.Haimberger	0
70	0-20000-0-17609	0	71	17609	3	LARNACA AIRPORT			0	33.617222222222225	34.87333333333333		19810701	20110105	1	0	63	NMS	53	Larnaca									['38', '85', '106', '107']							L.Haimberger	0
71	0-20000-0-63654	0	72	63654	3	MASINDI			0	31.716666666666665	1.6833333333333331		19631002	19780121	1	0	63	NMS	229	Masindi									['38', '85', '106', '107']							L.Haimberger	0
72	0-20000-0-74545	0	73	74545	3	SMOKEY HILL GUNNERY RANGE, KS.			0	-97.8	38.65		19700211	19720830	1	0	63	NMS	231	Salina									['38', '85', '106', '107']							L.Haimberger	0
73	0-20000-0-41950	0	74	41932	3	BARISAL			0	90.36666666666666	22.75		19671114	19820121	1	0	63	NMS	19	Barisal									['38', '85', '106', '107']							L.Haimberger	0
74	0-20000-0-41466	0	75	41390	3	TAIZ			0	44.13333333333333	13.683333333333335		19830729	19840718	1	0	63	NMS	243	Ibb									['38', '85', '106', '107']							L.Haimberger	0
75	0-20000-0-48379	0	76	48379	3	PHETCHABUN			0	101.15166666666669	16.434722222222227		19670102	20130105	1	0	63	NMS	216	Phetchabun									['38', '85', '106', '107']							L.Haimberger	0
76	0-20000-0-38328	0	77	38328	3	SHYMKENT			0	69.71000000000001	42.34777777777778		19660610	19680429	1	0	63	NMS	124	Shymkent									['38', '85', '106', '107']							L.Haimberger	0
77	0-20000-0-82280	0	78	82276	3	SAO LUIZ			0	-44.3	-2.533333333333333		19990907	20021221	1	0	63	NMS	30	Sao Luis									['38', '85', '106', '107']							L.Haimberger	0
78	0-20000-0-97530	0	79	97530	3	MANOKWARI/RENDANI			0	134.05055555555558	-0.8922222222222221		20180110	20211231	1	0	63	NMS	100	Manokwari									['38', '85', '106', '107']							L.Haimberger	0
79	0-20000-0-40621	0	80	69792	3	KIRKUK			0	44.4	35.46666666666667		20060417	20080512	1	0	63	NMS	106	Kirkuk									['38', '85', '106', '107']							L.Haimberger	0
80	0-20000-0-78730	0	81	78730	3	PUERTO CABEZAS			0	-83.63333333333334	14.066666666666665		19750828	19970418	1	0	63	NMS	164	Puerto Cabezas									['38', '85', '106', '107']							L.Haimberger	0
81	0-20000-0-62752	0	82	62752	3	GEDAREF			0	35.4	14.033333333333333		19691018	19750605	1	0	63	NMS	195	Doka									['38', '85', '106', '107']							L.Haimberger	0
82	0-20000-0-67072	0	83	67072	3	SAINTE-MARIE AERODROME			0	49.81666666666667	-17.083333333333332		19661203	20131024	1	0	63	NMS	141	Ambodifototra									['38', '85', '106', '107']							L.Haimberger	0
83	0-20000-0-71199	0	84	72953	3	WATSON LAKE (AUT), YT			0	-128.82194444444445	60.117777777777775		19730103	19760801	1	0	63	NMS	37	None									['38', '85', '106', '107']							L.Haimberger	0
84	0-20000-0-94693	0	85	94693	3	MILDURA AIRPORT			0	142.08666666666667	-34.23583333333333		19780728	19911029	1	0	63	NMS	13	Mildura									['38', '85', '106', '107']							L.Haimberger	0
85	0-20000-0-51379	0	86	51379	3	QITAI			0	89.56666666666666	44.01666666666666		19740812	19901104	1	0	63	NMS	47	Urumqi									['38', '85', '106', '107']							L.Haimberger	0
86	0-20000-0-47938	0	87	47938	3	IEJIMA (US BASE)			0	127.78333333333332	26.716666666666665		19680101	20000223	1	0	63	NMS	113	Nago									['38', '85', '106', '107']							L.Haimberger	0
87	0-20000-0-71851	0	88	71851	3	PORTAGE SOUTHPORT, MAN			0	-98.28388888888887	49.90305555555555		19980304	20030911	1	0	63	NMS	37	Winnipeg									['38', '85', '106', '107']							L.Haimberger	0
88	0-20000-0-71742	0	89	72803	3	GANDER AIRPORT CS, NFLD			0	-54.56694444444446	48.94611111111111		19730101	19760304	1	0	63	NMS	37	Bay Roberts									['38', '85', '106', '107']							L.Haimberger	0
89	0-20300-0-62056	0	90	62056	3	SHAHAT			0	21.883000000000003	32.8		19630808	19850604	1	0	63	NMS	135	Darnah									['38', '85', '106', '107']							L.Haimberger	0
90	0-20000-0-07535	0	91	7535	3	GOURDON			0	1.3966666666666667	44.745		19700309	19720826	1	0	63	NMS	74	Cahors									['38', '85', '106', '107']							L.Haimberger	0
91	0-20000-0-28552	0	92	28552	3	SADRINSK			0	63.65	56.06666666666667		19730515	20020708	1	0	63	NMS	190	Shadrinsk									['38', '85', '106', '107']							L.Haimberger	0
92	0-20000-0-96009	0	93	96009	3	LHOKSEUMAWE/MALIKUSSALEH			0	96.9475	5.228611111111111		19831108	20110105	1	0	63	NMS	100	Lhokseumawe									['38', '85', '106', '107']							L.Haimberger	0
93	0-20000-0-41506	0	94	41506	3	CHITRAL			0	71.83333333333333	35.85		19870513	20110105	1	0	63	NMS	177	Chitral									['38', '85', '106', '107']							L.Haimberger	0
94	0-20000-0-97300	0	95	97300	3	MAUMERE/WAI OTI			0	122.2375	-8.635833333333332		19810826	20110104	1	0	63	NMS	100	Maumere									['38', '85', '106', '107']							L.Haimberger	0
95	0-20000-0-62641	0	96	62641	3	PORT SUDAN			0	37.21666666666667	19.58333333333333		19660312	20030101	1	0	63	NMS	195	Sawakin									['38', '85', '106', '107']							L.Haimberger	0
96	0-20000-0-47407	0	97	47407	3	ASAHIKAWA			0	142.37222222222226	43.756944444444436		19220710	19410721	1	0	63	NMS	113	Asahikawa									['38', '85', '106', '107']							L.Haimberger	0
97	0-20000-0-37004	0	98	37004	3	GELENDZHIK			0	38.083333333333336	44.56666666666667		19770422	20021231	1	0	63	NMS	190	Gelendzhik									['38', '85', '106', '107']							L.Haimberger	0
98	0-20000-0-91212	0	99	91215	3	WEATHER FORECAST OFFICE, GUAM, MARIANA IS.			0	144.79444444444445	13.476666666666668		19490104	19501030	1	0	63	NMS	91	None									['38', '85', '106', '107']							L.Haimberger	0
99	0-20000-0-71946	0	100	71946	3	FORT SIMPSON A, NWT			0	-121.23666666666666	61.76027777777777		19620305	19620915	1	0	63	NMS	37	None									['38', '85', '106', '107']							L.Haimberger	0
100	0-20000-0-40621	0	101	69792	3	KIRKUK			0	44.4	35.46666666666667		20060417	20080512	1	0	63	NMS	106	Kirkuk									['38', '85', '106', '107']							L.Haimberger	0
101	0-20300-0-67019	0	102	67019	3	ANALALAVA			0	47.766999999999996	-14.633		19660510	20000421	1	0	63	NMS	141	Antsohihy									['38', '85', '106', '107']							L.Haimberger	0
102	0-20000-0-53529	0	103	53529	3	OTOG QI			0	107.98333333333332	39.1		19710119	19870622	1	0	63	NMS	47	Wuda									['38', '85', '106', '107']							L.Haimberger	0
103	0-20000-0-60566	0	104	60566	3	GHARDAIA			0	3.8	32.4		19751028	19911029	1	0	63	NMS	61	Warqla									['38', '85', '106', '107']							L.Haimberger	0
104	0-20000-0-41943	0	105	41943	3	FENI (41943-0)			0	91.41666666666669	23.03333333333333		19890113	20110105	1	0	63	NMS	19	Feni									['38', '85', '106', '107']							L.Haimberger	0
105	0-20000-0-60620	0	106	60620	3	ADRAR			0	-0.18333333333333326	27.816666666666666		19680202	20000629	1	0	63	NMS	61	Adrar									['38', '85', '106', '107']							L.Haimberger	0
106	0-20000-0-41715	0	107	41715	3	JACOBABAD			0	68.46666666666667	28.3		19770624	20110105	1	0	63	NMS	177	Jacobabad									['38', '85', '106', '107']							L.Haimberger	0
107	0-20000-0-87257	0	108	87257	3	CERES AERO			0	-61.93611111111111	-29.875555555555557		19541119	19720531	1	0	63	NMS	10	Rafaela									['38', '85', '106', '107']							L.Haimberger	0
108	0-20300-0-48849	0	109	48849	3	DONG HA			0	107.0833	16.8167		19660301	19680223	1	0	63	NMS	239	Hue									['38', '85', '106', '107']							L.Haimberger	0
109	0-20000-0-47648	0	110	47648	3	CHOSHI			0	140.85722222222222	35.73972222222222		19350107	19441028	1	0	63	NMS	113	Choshi									['38', '85', '106', '107']							L.Haimberger	0
110	0-20000-0-91348	0	111	91347	3	WEATHER SERVICE OFFICE, POHNPEI, CAROLINE IS.			0	158.20666666666662	6.961944444444446		19900902	19930723	1	0	63	NMS	72	None									['38', '85', '106', '107']							L.Haimberger	0
111	0-20000-0-08330	0	112	8330	3	BADAJOZ/TALAVERA LA REAL			0	-6.813888888888888	38.88333333333333		19680103	19771103	1	0	63	NMS	67	Badajoz									['38', '85', '106', '107']							L.Haimberger	0
112	0-20000-0-87436	0	113	87436	3	SAN LUIS AERO			0	-66.35138888888888	-33.27444444444444		19570806	19720422	1	0	63	NMS	10	San Luis									['38', '85', '106', '107']							L.Haimberger	0
113	0-20000-0-96749	0	114	96739	3	JAKARTA/SOEKARNO-HATTA			0	106.65472222222223	-6.122222222222222		19790102	20101229	1	0	63	NMS	100	Curug									['38', '85', '106', '107']							L.Haimberger	0
114	0-20000-0-47140	0	115	47141	3	GUNSAN			0	126.76138888888887	36.005277777777785		19620304	19900423	1	0	63	NMS	121	Seoul									['38', '85', '106', '107']							L.Haimberger	0
115	0-20000-0-91232	0	116	91232	3	SAIPAN (CG), MARIANA IS.			0	145.73333333333332	15.116666666666667		19670212	19920329	1	0	63	NMS	148	None									['38', '85', '106', '107']							L.Haimberger	0
116	0-20000-0-54423	0	117	54423	3	CHENGDE			0	117.91666666666669	40.96666666666667		19641007	19881022	1	0	63	NMS	47	Chengde									['38', '85', '106', '107']							L.Haimberger	0
117	0-20000-0-72344	0	118	72344	3	FORT SMITH/MUN., AR.			0	-94.36666666666666	35.333333333333336		19630415	19640216	1	0	63	NMS	231	Fort Smith									['38', '85', '106', '107']							L.Haimberger	0
118	0-20000-0-59358	0	119	46743	3	TAINAN			0	120.21666666666668	23.0		19870207	19981026	1	0	63	NMS	226	Tainan									['38', '85', '106', '107']							L.Haimberger	0
119	0-20000-0-43497	0	120	43497	3	HAMBANTOTA			0	81.13333333333334	6.116666666666666		19780614	20110105	1	0	63	NMS	129	Hambantota									['38', '85', '106', '107']							L.Haimberger	0
120	0-20000-0-38001	0	121	38001	3	FORT SHEVCHENKO			0	50.243055555555564	44.548055555555564		19530219	19860309	1	0	63	NMS	124	Aktau									['38', '85', '106', '107']							L.Haimberger	0
121	0-20000-0-27459	0	122	27467	3	NIZHNIJ NOVGOROD			0	44.0	56.26666666666666		19500514	19530215	1	0	63	NMS	190	Nizhniy Novgorod									['38', '85', '106', '107']							L.Haimberger	0
122	0-20000-0-12560	0	123	12560	3	KATOWICE-MUCHOWEC			0	19.032777777777774	50.24055555555557		19670801	19710924	1	0	63	NMS	178	Katowice									['38', '85', '106', '107']							L.Haimberger	0
123	0-20000-0-58715	0	124	58715	3	NANCHENG			0	116.65	27.58333333333333		19580901	20010405	1	0	63	NMS	47	Linchuan									['38', '85', '106', '107']							L.Haimberger	0
124	0-20000-0-47616	0	125	47616	3	FUKUI			0	136.2225	36.05555555555555		19380601	19410625	1	0	63	NMS	113	Maruoka									['38', '85', '106', '107']							L.Haimberger	0
125	0-20000-0-60135	0	126	60135	3	RABAT-SALE			0	-6.758055555555557	34.04611111111111		19661101	19691219	1	0	63	NMS	136	Rabat									['38', '85', '106', '107']							L.Haimberger	0
126	0-20000-0-67002	0	127	67002	3	HAHAYA INT. AIRPORT			0	43.26666666666666	-11.533333333333333		20180226	20210505	1	0	63	NMS	118	Moroni									['38', '85', '106', '107']							L.Haimberger	0
127	0-20000-0-54027	0	128	54027	3	LINDONG			0	119.31666666666666	43.95		19800731	19870622	1	0	63	NMS	47	Chifeng									['38', '85', '106', '107']							L.Haimberger	0
128	0-20000-0-16687	0	129	16689	3	ARAXOS (AIRPORT)			0	21.422222222222224	38.149166666666666		19491001	19530221	1	0	63	NMS	88	Patrai									['38', '85', '106', '107']							L.Haimberger	0
129	0-20000-0-67217	0	130	67217	3	LICHINGA			0	35.23333333333333	-13.3		19670504	19820902	1	0	63	NMS	158	Lichinga									['38', '85', '106', '107']							L.Haimberger	0
130	0-20000-0-48940	0	131	48940	3	VIENTIANE			0	102.56666666666666	17.95		19680714	19870614	1	0	63	NMS	216	Si Chiang Mai									['38', '85', '106', '107']							L.Haimberger	0
131	0-20000-0-63866	0	132	63866	3	MOROGORO			0	37.65	-6.833333333333332		19730814	19960925	1	0	63	NMS	227	Morogoro									['38', '85', '106', '107']							L.Haimberger	0
132	0-20000-0-16460	0	133	16460	3	CATANIA FONTANAROSSA			0	15.06388888888889	37.46666666666667		19620303	19670618	1	0	63	NMS	109	Catania									['38', '85', '106', '107']							L.Haimberger	0
133	0-20000-0-60740	0	134	60740	3	MONASTIR-SKANES			0	10.75	35.666666666666664		19710224	19971230	1	0	63	NMS	221	Susah									['38', '85', '106', '107']							L.Haimberger	0
134	0-20000-0-63789	0	135	63789	3	ARUSHA			0	36.62583333333333	-3.3675		19610211	19720927	1	0	63	NMS	227	Arusha									['38', '85', '106', '107']							L.Haimberger	0
135	0-20000-0-48620	0	136	48620	3	SITIAWAN			0	100.7	4.216666666666667		19730221	20110105	1	0	63	NMS	157	Lumut									['38', '85', '106', '107']							L.Haimberger	0
136	0-20300-0-96075	0	137	96075	3	GUNUNG SITOLI/BINAKA			0	97.6	1.2667		19911007	20110104	1	0	63	NMS	100	Sibolga									['38', '85', '106', '107']							L.Haimberger	0
137	0-20000-0-78948	0	138	78949	3	HEWANORRA INT'L AIRPORT			0	-60.95	13.75		19561001	19570131	1	0	63	NMS	127	Castries									['38', '85', '106', '107']							L.Haimberger	0
138	0-20000-0-96221	0	139	96221	3	PALEMBANG/ST. M. BADARUDIN II			0	104.7	-2.9		19760705	20110103	1	0	63	NMS	100	Palembang									['38', '85', '106', '107']							L.Haimberger	0
139	0-20300-0-96947	0	140	96947	3	MALANG/ABDUL (AFB)			0	112.7	-7.9670000000000005		19730127	19951006	1	0	63	NMS	100	Malang									['38', '85', '106', '107']							L.Haimberger	0
140	0-20000-0-83096	0	141	83096	3	ARACAJU (83096-0)			0	-37.05	-10.916666666666664		19730817	19791228	1	0	63	NMS	30	Aracaju									['38', '85', '106', '107']							L.Haimberger	0
141	0-20300-0-56533	0	142	56533	3	LA WANG/TZUKEI			0	98.3833	27.6667		19590307	19611026	1	0	63	NMS	47	Tezu									['38', '85', '106', '107']							L.Haimberger	0
142	0-20300-0-46736	0	143	46736	3	CHINMEM/SHATOU(AFB)			0	118.43299999999999	24.433000000000003		19720923	19911027	1	0	63	NMS	226	Xiamen									['38', '85', '106', '107']							L.Haimberger	0
143	0-20000-0-67489	0	144	67489	3	MZUZU			0	34.016666666666666	-11.45		19740623	20020813	1	0	63	NMS	155	Nkhata Bay									['38', '85', '106', '107']							L.Haimberger	0
144	0-20000-0-60725	0	145	60725	3	JENDOUBA			0	8.8	36.48333333333333		19700205	20000310	1	0	63	NMS	221	Jundubah									['38', '85', '106', '107']							L.Haimberger	0
145	0-20000-0-91490	0	146	91492	3	CHRISTMAS ISLAND (91490-0)			0	-157.48333333333332	1.9833333333333332		19870325	19911029	1	0	63	NMS	117	None									['38', '85', '106', '107']							L.Haimberger	0
146	0-20000-0-78948	0	147	78949	3	HEWANORRA INT'L AIRPORT			0	-60.95	13.75		19561001	19570131	1	0	63	NMS	127	Castries									['38', '85', '106', '107']							L.Haimberger	0
147	0-20000-0-27595	0	148	27596	3	KAZAN' (27595-0)			0	49.204444444444455	55.74		19490103	19560131	1	0	63	NMS	190	Kazan									['38', '85', '106', '107']							L.Haimberger	0
148	0-20000-0-28552	0	149	28552	3	SADRINSK			0	63.65	56.06666666666667		19730502	20020708	1	0	63	NMS	190	Shadrinsk									['38', '85', '106', '107']							L.Haimberger	0
149	0-20001-0-72403	0	150	72413	3	STERLING, VA.			0	-77.48583333333333	38.97666666666667		20190709	20211227	1	0	63	NMS	231	Herndon									['38', '85', '106', '107']							L.Haimberger	0
150	0-20500-0-40201	0	151	97404	3	MOROTAI AAF			0	128.3	2.03		19540705	19580315	1	0	63	NMS	100	Ternate									['38', '85', '106', '107']							L.Haimberger	0
151	0-20000-0-54909	0	152	54906	3	DINGTAO			0	115.51666666666668	35.083333333333336		19710509	19870621	1	0	63	NMS	47	Heze									['38', '85', '106', '107']							L.Haimberger	0
152	0-20000-0-03377	0	153	3377	3	WADDINGTON			0	-0.5233333333333334	53.17527777777778		20020111	20060214	1	0	63	NMS	76	Lincoln									['38', '85', '106', '107']							L.Haimberger	0
153	0-20000-0-42105	0	154	42105	3	CHANDIGARH			0	76.88333333333334	30.73333333333333		20160101	20190607	1	0	63	NMS	104	Chandigarh									['38', '85', '106', '107']							L.Haimberger	0
154	0-20000-0-54715	0	155	54714	3	LINGXIAN			0	116.56666666666666	37.333333333333336		19591004	19610311	1	0	63	NMS	47	Dezhou									['38', '85', '106', '107']							L.Haimberger	0
155	0-20000-0-30683	0	156	30683	3	EROFEJ PAVLOVIC			0	121.93333333333334	53.96666666666667		19730414	19971120	1	0	63	NMS	190	Skovorodino									['38', '85', '106', '107']							L.Haimberger	0
156	0-20000-0-54539	0	157	54539	3	LETING			0	118.9	39.43333333333333		19710223	19980222	1	0	63	NMS	47	Changli									['38', '85', '106', '107']							L.Haimberger	0
157	0-20000-0-34866	0	158	34866	3	YASHKUL'			0	45.35	46.18333333333333		19500927	19571103	1	0	63	NMS	190	Elista									['38', '85', '106', '107']							L.Haimberger	0
158	0-20000-0-43295	0	159	43296	3	BANGALORE			0	77.58333333333333	12.966666666666667		19540720	19680227	1	0	63	NMS	104	Bangalore									['38', '85', '106', '107']							L.Haimberger	0
159	0-20000-0-28900	0	160	28901	3	SAMARA (OGMS)			0	50.21666666666667	53.25		19490102	19560130	1	0	63	NMS	190	Samara									['38', '85', '106', '107']							L.Haimberger	0
160	0-20300-0-63641	0	161	63641	3	MARSABIT			0	37.983000000000004	2.333		19680201	20060828	1	0	63	NMS	114	Marsabit									['38', '85', '106', '107']							L.Haimberger	0
161	0-20000-0-60419	0	162	60419	3	CONSTANTINE			0	6.616666666666667	36.28333333333333		19770324	19911027	1	0	63	NMS	61	Constantine									['38', '85', '106', '107']							L.Haimberger	0
162	0-20000-0-41749	0	163	41749	3	NAWABSHAH			0	68.36666666666666	26.25		19870328	20110105	1	0	63	NMS	177	Nawabshah									['38', '85', '106', '107']							L.Haimberger	0
163	0-20000-0-15260	0	164	15260	3	SIBIU			0	24.09138888888889	45.789444444444435		19730323	19910331	1	0	63	NMS	188	Sibiu									['38', '85', '106', '107']							L.Haimberger	0
164	0-20000-0-63962	0	165	63962	3	SONGEA			0	35.583333333333336	-10.683333333333334		19570701	19860830	1	0	63	NMS	227	Songea									['38', '85', '106', '107']							L.Haimberger	0
165	0-20000-0-64570	0	166	64565	3	MVENGUE			0	13.433333333333335	-1.65		19661119	19840802	1	0	63	NMS	75	Moanda									['38', '85', '106', '107']							L.Haimberger	0
166	0-20000-0-78925	0	167	78925	3	LAMENTIN-AERO			0	-60.99555555555556	14.595277777777778		19750926	19870622	1	0	63	NMS	74	Le Lamentin									['38', '85', '106', '107']							L.Haimberger	0
167	0-20000-0-97086	0	168	97086	3	LUWUK/BUBUNG			0	122.77111111111113	-1.0413888888888891		20090326	20110104	1	0	63	NMS	100	Luwuk									['38', '85', '106', '107']							L.Haimberger	0
168	0-20000-0-72306	0	169	72306	3	RALEIGH/RALEIGH-DURHAM, NC.			0	-78.78333333333333	35.86666666666667		19630904	19741214	1	0	63	NMS	231	Cary									['38', '85', '106', '107']							L.Haimberger	0
169	0-20000-0-41506	0	170	41506	3	CHITRAL			0	71.83333333333333	35.85		20180103	20211221	1	0	63	NMS	177	Chitral									['38', '85', '106', '107']							L.Haimberger	0
170	0-20000-0-42435	0	171	42435	3	BARMER			0	71.38333333333334	25.75		20180101	20211231	1	0	63	NMS	104	Barmer									['38', '85', '106', '107']							L.Haimberger	0
171	0-20000-0-97690	0	172	97690	3	JAYAPURA/SENTANI			0	140.51833333333335	-2.575833333333333		19780413	20101212	1	0	63	NMS	100	Vanimo									['38', '85', '106', '107']							L.Haimberger	0
172	0-20000-0-70222	0	173	70222	3	GALENA A.			0	-156.93333333333334	64.73333333333333		19620311	19790718	1	0	63	NMS	231	None									['38', '85', '106', '107']							L.Haimberger	0
173	0-20000-0-97876	0	174	97876	3	TANAH MERAH			0	140.3	-6.1		20180104	20211227	1	0	63	NMS	100	Kiunga									['38', '85', '106', '107']							L.Haimberger	0
174	0-20000-0-65082	0	175	65082	3	MAIDUGURI			0	13.083333333333336	11.85		20130318	20130318	1	0	63	NMS	163	Maiduguri									['38', '85', '106', '107']							L.Haimberger	0
175	0-20000-0-42675	0	176	42675	3	JABALPUR			0	79.95	23.2		20190731	20200914	1	0	63	NMS	104	Jabalpur									['38', '85', '106', '107']							L.Haimberger	0
176	0-20000-0-82784	0	177	82784	3	BARBALHA (82784-0)			0	-39.3	-7.316666666666666		19760124	19791204	1	0	63	NMS	30	Barbalha									['38', '85', '106', '107']							L.Haimberger	0
177	0-20000-0-60559	0	178	60559	3	EL-OUED			0	6.783333333333332	33.5		19740622	19911228	1	0	63	NMS	61	Tuggurt									['38', '85', '106', '107']							L.Haimberger	0
178	0-20000-0-22768	0	179	22768	3	SHENKURSK			0	42.9	62.1		19530216	19541231	1	0	63	NMS	190	Mirnyy									['38', '85', '106', '107']							L.Haimberger	0
179	0-20000-0-63260	0	180	63260	3	MOGADISCIO			0	45.35	2.033333333333333		19650504	19930103	1	0	63	NMS	205	Mogadishu									['38', '85', '106', '107']							L.Haimberger	0
180	0-20000-0-72409	0	181	72409	3	LAKEHURST/NAS, NJ.			0	-74.31666666666666	40.03333333333333		19620303	19690131	1	0	63	NMS	231	Lakewood									['38', '85', '106', '107']							L.Haimberger	0
181	0-20000-0-72537	0	182	72537	3	DETROIT/METROPOLITAN, MI.			0	-83.33333333333333	42.23333333333333		19720908	19730227	1	0	63	NMS	231	Romulus									['38', '85', '106', '107']							L.Haimberger	0
182	0-20000-0-91162	0	183	91162	3	BARKING SANDS (BONHAM AUX.LDNG.FLD), KAUAI HAWAII			0	-159.78333333333333	22.066666666666666		19681023	19720414	1	0	63	NMS	231	Kapaa									['38', '85', '106', '107']							L.Haimberger	0
183	0-20000-0-97086	0	184	97086	3	LUWUK/BUBUNG			0	122.77111111111113	-1.0413888888888891		20180101	20211229	1	0	63	NMS	100	Luwuk									['38', '85', '106', '107']							L.Haimberger	0
184	0-20000-0-37736	0	185	37735	3	GYANCA AIRPORT			0	46.4	40.73333333333333		19670113	19911013	1	0	63	NMS	16	Xanlar									['38', '85', '106', '107']							L.Haimberger	0
185	0-20000-0-41718	0	186	41718	3	KHANPUR			0	70.68333333333334	28.65		20180718	20211231	1	0	63	NMS	177	Khanpur									['38', '85', '106', '107']							L.Haimberger	0
186	0-20300-0-70489	0	187	70489	3	DUTCH HARBOR			0	-166.53	53.9		19510202	19540331	1	0	63	NMS	231	None									['38', '85', '106', '107']							L.Haimberger	0
187	0-20000-0-48991	0	188	48991	3	PHNOM-PENH (KHMOUGH)			0	104.86666666666666	11.6		19650304	20011117	1	0	63	NMS	116	Phnum Penh									['38', '85', '106', '107']							L.Haimberger	0
188	0-20000-0-06081	0	189	6086	3	BLAAVANDSHUK FYR			0	8.082777777777778	55.5575		20120910	20210826	1	0	63	NMS	58	Varde									['38', '85', '106', '107']							L.Haimberger	0
189	0-20300-0-60535	0	190	60535	3	DJELFA			0	3.25	34.6833		19810521	19870621	1	0	63	NMS	61	Birin									['38', '85', '106', '107']							L.Haimberger	0
190	0-20400-0-5976	0	191	85295	3	Uyuni			0	-66.83	-20.47		20020705	20031227	1	0	63	NMS	29	Uyuni									['38', '85', '106', '107']							L.Haimberger	0
191	0-20000-0-62650	0	192	62650	3	DONGOLA			0	30.48333333333333	19.166666666666668		19691018	20090517	1	0	63	NMS	195	Marawi									['38', '85', '106', '107']							L.Haimberger	0
192	0-20000-0-17248	0	193	17248	3	EREGLI/KONYA			0	34.048611111111114	37.52555555555556		19750710	20030509	1	0	63	NMS	223	Eregli									['38', '85', '106', '107']							L.Haimberger	0
193	0-20000-0-48078	0	194	48078	3	TOUNGOO			0	96.46666666666668	18.916666666666668		19700212	19980928	1	0	63	NMS	145	Toungoo									['38', '85', '106', '107']							L.Haimberger	0
194	0-20000-0-12772	0	195	12772	3	MISKOLC			0	20.726666666666667	48.094722222222224		19730325	19820429	1	0	63	NMS	99	Miskolc									['38', '85', '106', '107']							L.Haimberger	0
195	0-20000-0-12942	0	196	12942	3	PÉCS/POGÁNY			0	18.235	45.995		19691016	19820429	1	0	63	NMS	99	Pecs									['38', '85', '106', '107']							L.Haimberger	0
196	0-20000-0-78637	0	197	78637	3	PUERTO BARRIOS			0	-88.6	15.716666666666667		19760123	19790311	1	0	63	NMS	90	Puerto Barrios									['38', '85', '106', '107']							L.Haimberger	0
197	0-20000-0-47606	0	198	47606	3	FUSHIKI			0	137.05611111111114	36.79222222222222		19330413	19400805	1	0	63	NMS	113	Shimminato									['38', '85', '106', '107']							L.Haimberger	0
198	0-20000-0-67743	0	199	67743	3	LIVINGSTONE			0	25.816666666666666	-17.816666666666666		19670608	19871026	1	0	63	NMS	247	Livingstone									['38', '85', '106', '107']							L.Haimberger	0
199	0-20000-0-60402	0	200	60402	3	BEJAIA-AEROPORT			0	5.066666666666666	36.71666666666667		19780106	19870611	1	0	63	NMS	61	Timizart									['38', '85', '106', '107']							L.Haimberger	0
200	0-20000-0-57902	0	201	57902	3	XINGREN			0	105.18333333333334	25.43333333333333		19690222	19870622	1	0	63	NMS	47	Xingyi									['38', '85', '106', '107']							L.Haimberger	0
201	0-20000-0-62781	0	202	62781	3	EN NAHUD			0	28.43333333333333	12.7		19660204	19800408	1	0	63	NMS	195	Abu Zabad									['38', '85', '106', '107']							L.Haimberger	0
202	0-20000-0-91929	0	203	91930	3	BORA-BORA-MOTU-AERO			0	-151.75194444444443	-16.44527777777778		19680417	19911029	1	0	63	NMS	174	Faaa									['38', '85', '106', '107']							L.Haimberger	0
203	0-20000-0-78700	0	204	78700	3	AMAPALA			0	-87.65	13.266666666666667		19570705	19581111	1	0	63	NMS	96	San Lorenzo									['38', '85', '106', '107']							L.Haimberger	0
204	0-20300-0-91946	0	205	91946	3	TUREIA			0	-138.55	-20.7667		19700211	19710604	1	0	63	NMS	174	None									['38', '85', '106', '107']							L.Haimberger	0
205	0-20000-0-97270	0	206	97270	3	BIMA/M.SALAHUDDIN			0	118.69305555555556	-8.5425		19911002	20110105	1	0	63	NMS	100	Bima									['38', '85', '106', '107']							L.Haimberger	0
206	0-20000-0-06700	0	207	6700	3	GENEVE / COINTRIN			0	6.127777777777778	46.2475		19520301	19610828	1	0	63	NMS	42	Vernier									['38', '85', '106', '107']							L.Haimberger	0
207	0-20000-0-41764	0	208	41764	3	HYDERABAD			0	68.41666666666667	25.38333333333333		20080831	20211015	1	0	63	NMS	177	Hyderabad									['38', '85', '106', '107']							L.Haimberger	0
208	0-20000-0-48877	0	209	48877	3	NHA TRANG			0	109.21666666666668	12.216666666666667		19680510	20110102	1	0	63	NMS	239	Nha Trang									['38', '85', '106', '107']							L.Haimberger	0
209	0-20000-0-80457	0	210	80457	3	PUERTO AYACUCHO			0	-67.5	5.6		19590905	19811204	1	0	63	NMS	236	Puerto Ayacucho									['38', '85', '106', '107']							L.Haimberger	0
210	0-20000-0-93546	0	211	93545	3	NELSON AERO AWS			0	173.21583333333336	-41.30055555555556		19820127	19911028	1	0	63	NMS	170	Nelson									['38', '85', '106', '107']							L.Haimberger	0
211	0-20000-0-47688	0	212	47673	3	TATEYAMA AB			0	139.83194444444445	34.987500000000004		19341231	19410815	1	0	63	NMS	113	Tateyama									['38', '85', '106', '107']							L.Haimberger	0
212	0-20000-0-51716	0	213	51716	3	BACHU			0	78.56666666666666	39.8		19740409	19870622	1	0	63	NMS	47	Shache									['38', '85', '106', '107']							L.Haimberger	0
213	0-20000-0-41416	0	214	40588	3	KAMARAN			0	42.583333333333336	15.366666666666667		19490217	19541112	1	0	63	NMS	243	Bajil									['38', '85', '106', '107']							L.Haimberger	0
214	0-20001-0-72520	0	215	74479	3	PITTSBURGH, PA.			0	-80.21722222222222	40.531666666666666		19711116	19730511	1	0	63	NMS	231	Pittsburgh									['38', '85', '106', '107']							L.Haimberger	0
215	0-404-300-472781389CO63741	0	216	63742	3	DAGORETTI CORNER			0	36.759722222222216	-1.3013888888888892		19610313	19630923	1	0	63	NMS	114	Nairobi									['38', '85', '106', '107']							L.Haimberger	0
216	0-20000-0-48855	0	217	48856	3	DA NANG			0	108.35	16.066666666666666		19660405	19670731	1	0	63	NMS	239	Da Nang									['38', '85', '106', '107']							L.Haimberger	0
217	0-20000-0-47631	0	218	47631	3	TSURUGA			0	136.06222222222223	35.65333333333333		19380803	19410610	1	0	63	NMS	113	Tsuruga									['38', '85', '106', '107']							L.Haimberger	0
218	0-20000-0-15145	0	219	15145	3	TARGU-MURES			0	24.5225	46.52805555555555		19760125	19961020	1	0	63	NMS	188	Targu-Mures									['38', '85', '106', '107']							L.Haimberger	0
219	0-20000-0-84200	0	220	84111	3	SALINAS AEROPUERTO			0	-80.98583333333333	-2.2077777777777783		19420711	19460130	1	0	63	NMS	62	Salinas									['38', '85', '106', '107']							L.Haimberger	0
220	0-20000-0-83236	0	221	83236	3	BARREIRAS (83236-0)			0	-45.0	-12.15		19700102	19800328	1	0	63	NMS	30	Barreiras									['38', '85', '106', '107']							L.Haimberger	0
221	0-20000-0-07354	0	222	7354	3	CHATEAUROUX DEOLS			0	1.7411111111111113	46.86972222222222		19620304	19640805	1	0	63	NMS	74	Chateauroux									['38', '85', '106', '107']							L.Haimberger	0
222	0-20000-0-72312	0	223	72312	3	GREENVILLE/GREENVILLE SPARTANBURG, SC.			0	-82.21666666666667	34.9		19620306	19650129	1	0	63	NMS	231	Mauldin									['38', '85', '106', '107']							L.Haimberger	0
223	0-20000-0-53898	0	224	53898	3	ANYANG			0	114.13333333333334	36.05		19660527	20020603	1	0	63	NMS	47	Anyang									['38', '85', '106', '107']							L.Haimberger	0
224	0-20300-0-W5331	0	225	65333	3	TCHAOUROU			0	2.6	8.8667		19640109	19641228	1	0	63	NMS	25	Tchaourou									['38', '85', '106', '107']							L.Haimberger	0
225	0-20300-0-88967	0	226	88967	3	GENERAL BELGRANO			0	-38.8	-77.9667		19700520	19750610	1	0	63	NMS	89	None									['38', '85', '106', '107']							L.Haimberger	0
226	0-20000-0-96109	0	227	96109	3	PEKAN BARU/SIMPANGTIGA			0	101.45	0.4666666666666667		19760107	20110105	1	0	63	NMS	100	Balaipungut									['38', '85', '106', '107']							L.Haimberger	0
227	0-20000-0-37575	0	228	37575	3	ZAKATALA			0	46.65	41.66666666666666		19661202	19780705	1	0	63	NMS	16	Zaqatala									['38', '85', '106', '107']							L.Haimberger	0
228	0-20000-0-26850	0	229	26851	3	MINSK			0	27.635277777777773	53.92861111111111		19490101	19560130	1	0	63	NMS	35	Minsk									['38', '85', '106', '107']							L.Haimberger	0
229	0-20000-0-03414	0	230	3414	3	SHAWBURY			0	-2.6647222222222218	52.79472222222223		19990908	20060301	1	0	63	NMS	76	Shrewsbury									['38', '85', '106', '107']							L.Haimberger	0
230	0-20000-0-71036	0	231	71855	3	DAUPHIN, MAN			0	-100.0525	51.10083333333333		19620305	19940826	1	0	63	NMS	37	Brandon									['38', '85', '106', '107']							L.Haimberger	0
231	0-20000-0-56951	0	232	56951	3	LINCANG			0	100.16666666666669	23.95		19670922	19870622	1	0	63	NMS	47	Simao									['38', '85', '106', '107']							L.Haimberger	0
232	0-20000-0-70086	0	233	71086	3	BARTER ISLAND			0	-143.63333333333333	70.13333333333334		19620304	19640630	1	0	63	NMS	231	None									['38', '85', '106', '107']							L.Haimberger	0
233	0-20000-0-87393	0	234	87393	3	MONTE CASEROS AERO			0	-57.63888888888889	-30.26166666666667		19490209	19911015	1	0	63	NMS	10	Bella Union									['38', '85', '106', '107']							L.Haimberger	0
234	0-20000-0-83063	0	235	83063	3	PORTO NACIONAL (AERO)			0	-48.4	-10.7		19691020	19800119	1	0	63	NMS	30	Porto Nacional									['38', '85', '106', '107']							L.Haimberger	0
235	0-20000-0-42415	0	236	42415	3	TEZPUR			0	92.78333333333332	26.61666666666667		19560202	19710529	1	0	63	NMS	104	Tezpur									['38', '85', '106', '107']							L.Haimberger	0
236	0-20000-0-85041	0	237	85041	3	COBIJA			0	-68.78333333333333	-11.033333333333333		20020517	20040214	1	0	63	NMS	29	Cobija									['38', '85', '106', '107']							L.Haimberger	0
237	0-20000-0-60540	0	238	60540	3	EL-KHEITER			0	0.06666666666666668	34.15		19570701	19581229	1	0	63	NMS	61	Wahran									['38', '85', '106', '107']							L.Haimberger	0
238	0-20000-0-60750	0	239	60750	3	SFAX EL-MAOU			0	10.683333333333334	34.71666666666667		19680905	19980323	1	0	63	NMS	221	Safaqis									['38', '85', '106', '107']							L.Haimberger	0
239	0-20000-0-31388	0	240	31388	3	NORSK			0	129.91666666666666	52.35		19620815	19680304	1	0	63	NMS	190	Shimanovsk									['38', '85', '106', '107']							L.Haimberger	0
240	0-20000-0-60355	0	241	60355	3	SKIKDA			0	6.9	36.88333333333333		19760120	20030712	1	0	63	NMS	61	Constantine									['38', '85', '106', '107']							L.Haimberger	0
241	0-20000-0-72693	0	242	72693	3	EUGENE/MAHLON SWEET, OR.			0	-123.21666666666668	44.11666666666667		19691014	19721223	1	0	63	NMS	231	Eugene									['38', '85', '106', '107']							L.Haimberger	0
242	0-20300-0-70489	0	243	70489	3	DUTCH HARBOR			0	-166.53	53.9		19510202	19540327	1	0	63	NMS	231	None									['38', '85', '106', '107']							L.Haimberger	0
243	0-20300-0-52313	0	244	52313	3	XING-XING-XIA			0	95.1333	41.7833		19590101	19591016	1	0	63	NMS	47	Hami									['38', '85', '106', '107']							L.Haimberger	0
244	0-20000-0-15080	0	245	15080	3	ORADEA			0	21.89583333333333	47.03583333333333		19730323	20030613	1	0	63	NMS	188	Oradea									['38', '85', '106', '107']							L.Haimberger	0
245	0-20000-0-42367	0	246	42367	3	KANPUR/CHAKERI			0	80.4	26.4		19760910	20160318	1	0	63	NMS	104	Kanpur									['38', '85', '106', '107']							L.Haimberger	0
246	0-20000-0-50353	0	247	50353	3	HUMA			0	126.63333333333334	51.73333333333333		19631216	19900129	1	0	63	NMS	47	Shimanovsk									['38', '85', '106', '107']							L.Haimberger	0
247	0-20000-0-33587	0	248	33587	3	Uman			0	30.232777777777773	48.766944444444434		19500104	19501031	1	0	63	NMS	228	Zhashkiv									['38', '85', '106', '107']							L.Haimberger	0
248	0-20000-0-68104	0	249	68100	3	WALVIS BAY (PELICAN POINT)			0	14.433333333333335	-22.88333333333333		19570812	19581231	1	0	63	NMS	159	Swakopmund									['38', '85', '106', '107']							L.Haimberger	0
249	0-20000-0-03066	0	250	3066	3	KINLOSS			0	-3.563611111111111	57.645555555555546		20020403	20060331	1	0	63	NMS	76	Elgin									['38', '85', '106', '107']							L.Haimberger	0
250	0-20300-0-72497	0	251	72497	3	CHICO MUNI			0	-121.85	39.7833		19691204	19720523	1	0	63	NMS	231	Chico									['38', '85', '106', '107']							L.Haimberger	0
251	0-20000-0-60135	0	252	60135	3	RABAT-SALE			0	-6.758055555555557	34.04611111111111		19570701	19691219	1	0	63	NMS	136	Rabat									['38', '85', '106', '107']							L.Haimberger	0
252	0-20000-0-30688	0	253	30688	3	POKROVKA			0	121.55	53.35		19620813	19641228	1	0	63	NMS	190	Mogocha									['38', '85', '106', '107']							L.Haimberger	0
253	0-20000-0-47768	0	254	47768	3	OKAYAMA			0	133.92527777777778	34.68583333333333		19360811	19410530	1	0	63	NMS	113	Soja									['38', '85', '106', '107']							L.Haimberger	0
254	0-20000-0-72643	0	255	72643	3	LA CROSSE/MUN., WI.			0	-91.25	43.86666666666667		19620305	19640530	1	0	63	NMS	231	Onalaska									['38', '85', '106', '107']							L.Haimberger	0
255	0-20000-0-60445	0	256	60445	3	SETIF/AIN ARNAT			0	5.316666666666666	36.16666666666666		19860628	19870623	1	0	63	NMS	61	Tazmalt									['38', '85', '106', '107']							L.Haimberger	0
256	0-20300-0-46746	0	257	46767	3	CHIAYI (TW-AFB)			0	120.383	23.467		19920311	19990531	1	0	63	NMS	226	Potzu									['38', '85', '106', '107']							L.Haimberger	0
257	0-20000-0-87791	0	258	87790	3	VIEDMA AERO			0	-63.006944444444436	-40.863333333333344		19570701	19571017	1	0	63	NMS	10	Viedma									['38', '85', '106', '107']							L.Haimberger	0
258	0-20000-0-62062	0	259	62063	3	TOBRUK			0	23.95888888888889	32.095555555555556		19640711	19840417	1	0	63	NMS	135	Tubruq									['38', '85', '106', '107']							L.Haimberger	0
259	0-20000-0-57265	0	260	57265	3	LAOHEKOU			0	111.73333333333332	32.43333333333333		19571031	20000614	1	0	63	NMS	47	Laohekou									['38', '85', '106', '107']							L.Haimberger	0
260	0-20000-0-72578	0	261	72578	3	POCATELLO/MUN., ID.			0	-112.6	42.91666666666666		19620304	19680126	1	0	63	NMS	231	Chubbuck									['38', '85', '106', '107']							L.Haimberger	0
261	0-20300-0-67194	0	262	67194	3	FAUX-CAP			0	45.533	-25.55		19700310	19790329	1	0	63	NMS	141	Tsihombe									['38', '85', '106', '107']							L.Haimberger	0
262	0-20000-2-29842	0	263	29843	3	Novokuznetsk			0	87.10166666666666	53.89527777777778		19550102	19561230	1	0	63	NMS	190	Novokuznetsk									['38', '85', '106', '107']							L.Haimberger	0
263	0-20000-0-57662	0	264	57662	3	CHANGDE			0	111.68333333333334	29.05		19710409	19870618	1	0	63	NMS	47	Changde									['38', '85', '106', '107']							L.Haimberger	0
264	0-20300-0-37260	0	265	37189	3	SUKHUMI (AGMS)			0	41.033	43.016999999999996		19470403	19530701	1	0	63	NMS	78	Sukhumi									['38', '85', '106', '107']							L.Haimberger	0
265	0-20000-0-74509	0	266	74505	3	MOUNTAIN VIEW (SUNNY-VALE)/MOFFETT NAS,  CA.			0	-122.05	37.41666666666666		19711013	19720628	1	0	63	NMS	231	San Jose									['38', '85', '106', '107']							L.Haimberger	0
266	0-20000-0-31989	0	267	31989	3	PREOBRAZHENIE			0	133.9	42.9		19750105	19930604	1	0	63	NMS	190	Partizansk									['38', '85', '106', '107']							L.Haimberger	0
267	0-20000-0-96607	0	268	96607	3	SAMARINDA/TEMINDUNG			0	117.15638888888891	-0.4827777777777778		20090326	20110104	1	0	63	NMS	100	Loa Janan									['38', '85', '106', '107']							L.Haimberger	0
268	0-20000-0-96791	0	269	96791	3	CIREBON/JATIWANGI			0	108.26666666666668	-6.75		19911002	20110103	1	0	63	NMS	100	Jatiwangi									['38', '85', '106', '107']							L.Haimberger	0
269	0-20000-0-62760	0	270	62760	3	EL FASHER			0	25.33333333333333	13.616666666666667		19730207	20090801	1	0	63	NMS	195	Umm Kaddadah									['38', '85', '106', '107']							L.Haimberger	0
270	0-20000-0-48966	0	271	48966	3	SIEMREAP			0	103.85	13.366666666666667		19540701	19710420	1	0	63	NMS	116	Pousat									['38', '85', '106', '107']							L.Haimberger	0
271	0-20000-0-87509	0	272	87509	3	SAN RAFAEL AERO			0	-68.40166666666667	-34.590833333333336		19690913	19720420	1	0	63	NMS	10	San Rafael									['38', '85', '106', '107']							L.Haimberger	0
272	0-20000-0-63230	0	273	63230	3	GALCAYO			0	47.26666666666666	6.85		19570630	19581231	1	0	63	NMS	205	Hobyo									['38', '85', '106', '107']							L.Haimberger	0
273	0-20000-0-10637	0	274	10639	3	FRANKFURT/MAIN			0	8.52138888888889	50.02583333333333		19720804	19731025	1	0	63	NMS	56	Darmstadt									['38', '85', '106', '107']							L.Haimberger	0
274	0-20000-0-43181	0	275	43181	3	VIJAYAWADA /GANNAVARAM			0	80.8	16.533333333333335		19690121	19820923	1	0	63	NMS	104	Gannavaram									['38', '85', '106', '107']							L.Haimberger	0
275	0-20000-0-67027	0	276	67027	3	MAHAJANGA			0	46.35	-15.666666666666664		19740309	20101231	1	0	63	NMS	141	Mahajanga									['38', '85', '106', '107']							L.Haimberger	0
276	0-20000-0-61017	0	277	61017	3	BILMA			0	12.916666666666664	18.683333333333334		19820526	19950525	1	0	63	NMS	161	Agadez									['38', '85', '106', '107']							L.Haimberger	0
277	0-20000-0-67441	0	278	67441	3	MWINILUNGA			0	24.43333333333333	-11.75		19701006	19830120	1	0	63	NMS	247	Mwinilunga									['38', '85', '106', '107']							L.Haimberger	0
278	0-20000-0-60120	0	279	60120	3	KENITRA			0	-6.594722222222222	34.300277777777765		19491127	20020203	1	0	63	NMS	136	Kenitra									['38', '85', '106', '107']							L.Haimberger	0
279	0-20000-0-91356	0	280	91356	3	KOSRAE AIRPORT VICE LELU, KOSRAE ATOLL, CAROLINE IS.			0	163.03333333333333	5.333333333333333		19510308	19540331	1	0	63	NMS	72	None									['38', '85', '106', '107']							L.Haimberger	0
280	0-20000-0-42361	0	281	42359	3	GWALIOR			0	78.25	26.23333333333333		19640609	19670731	1	0	63	NMS	104	Morar									['38', '85', '106', '107']							L.Haimberger	0
281	0-20000-0-15490	0	282	15490	3	TURNU-MAGURELE			0	24.87833333333333	43.76027777777777		20130323	20130323	1	0	63	NMS	188	Turnu Magurele									['38', '85', '106', '107']							L.Haimberger	0
282	0-20000-0-72223	0	283	72223	3	MOBILE/BATES FIELD,  AL.			0	-88.25	30.68333333333333		19620304	19720429	1	0	63	NMS	231	Mobile									['38', '85', '106', '107']							L.Haimberger	0
283	0-20000-0-97008	0	284	97008	3	NAHA/TAHUNA			0	125.52888888888887	3.6858333333333335		20180105	20211217	1	0	63	NMS	100	Bitung									['38', '85', '106', '107']							L.Haimberger	0
284	0-20000-0-41431	0	285	41360	3	HODEIDAH			0	42.98333333333333	14.75		19830801	19870119	1	0	63	NMS	243	Bajil									['38', '85', '106', '107']							L.Haimberger	0
285	0-20000-0-66152	0	286	66152	3	DUNDO			0	20.816666666666666	-7.4		19660510	20020914	1	0	63	NMS	8	Tshikapa									['38', '85', '106', '107']							L.Haimberger	0
286	0-20000-0-87765	0	287	87765	3	BARILOCHE AERO			0	-71.16416666666667	-41.1475		19460103	19581231	1	0	63	NMS	10	San Carlos De Bariloche									['38', '85', '106', '107']							L.Haimberger	0
287	0-20000-0-07607	0	288	7607	3	MONT-DE-MARSAN			0	-0.5002777777777778	43.90972222222222		19691113	19960709	1	0	63	NMS	74	Mont-De-Marsan									['38', '85', '106', '107']							L.Haimberger	0
288	0-20000-0-54753	0	289	54753	3	LONGKOU			0	120.31666666666666	37.61666666666667		19740914	19870622	1	0	63	NMS	47	Longkou									['38', '85', '106', '107']							L.Haimberger	0
289	0-20001-0-72403	0	290	72413	3	STERLING, VA.			0	-77.48583333333333	38.97666666666667		20190709	20211227	1	0	63	NMS	231	Herndon									['38', '85', '106', '107']							L.Haimberger	0
290	0-20300-0-63619	0	291	63619	3	MOYALE			0	39.05	3.533		19880929	19910908	1	0	63	NMS	68	Moyale									['38', '85', '106', '107']							L.Haimberger	0
291	0-20000-0-08055	0	292	8055	3	LEON/VIRGEN DEL CAMINO			0	-5.6511111111111125	42.588333333333345		19700401	19770510	1	0	63	NMS	67	San Andres Del Rabanedo									['38', '85', '106', '107']							L.Haimberger	0
292	0-20300-0-63641	0	293	63641	3	MARSABIT			0	37.983000000000004	2.333		19680201	20060828	1	0	63	NMS	114	Marsabit									['38', '85', '106', '107']							L.Haimberger	0
293	0-20000-0-74630	0	294	74630	3	STALLION AAF, NM			0	-106.66666666666669	33.81666666666667		20210317	20210629	1	0	63	NMS	231	Los Lunas									['38', '85', '106', '107']							L.Haimberger	0
294	0-20000-0-48500	0	295	48500	3	PRACHUAP KHIRIKHAN			0	99.81027777777777	11.835		19680107	20110104	1	0	63	NMS	216	Prachuap Khiri Khan									['38', '85', '106', '107']							L.Haimberger	0
295	0-20500-0-43015	0	296	52856	3	QINGHAI PROV AIR SAM			0	100.92	36.27		19660527	19990830	1	0	63	NMS	47	Xining									['38', '85', '106', '107']							L.Haimberger	0
296	0-20300-0-91945	0	297	91945	3	HEREHERETUE			0	-144.9494	-19.9061		19700415	20101128	1	0	63	NMS	174	Papara									['38', '85', '106', '107']							L.Haimberger	0
297	0-20000-0-30802	0	298	30802	3	MONDY			0	100.98333333333332	51.68333333333333		19620813	19641230	1	0	63	NMS	190	Slyudyanka									['38', '85', '106', '107']							L.Haimberger	0
298	0-20000-0-91356	0	299	91356	3	KOSRAE AIRPORT VICE LELU, KOSRAE ATOLL, CAROLINE IS.			0	163.03333333333333	5.333333333333333		19510308	19540331	1	0	63	NMS	72	None									['38', '85', '106', '107']							L.Haimberger	0
299	0-20000-0-41571	0	300	41571	3	ISLAMABAD AIRPORT			0	73.1	33.61666666666667		19761217	20090629	1	0	63	NMS	177	Rawalpindi									['38', '85', '106', '107']							L.Haimberger	0
300	0-20000-0-47651	0	301	47651	3	TSU			0	136.51972222222224	34.73416666666667		19341018	19410615	1	0	63	NMS	113	Hisai									['38', '85', '106', '107']							L.Haimberger	0
301	0-20000-0-72411	0	302	72411	3	ROANOKE/MUN., VA.			0	-79.96666666666667	37.31666666666667		19620304	19640331	1	0	63	NMS	231	Roanoke									['38', '85', '106', '107']							L.Haimberger	0
302	0-20000-0-72423	0	303	72423	3	LOUISVILLE/STANDIFORD, KY.			0	-85.73333333333333	38.18333333333333		19680117	19730615	1	0	63	NMS	231	Okolona									['38', '85', '106', '107']							L.Haimberger	0
303	0-20000-0-93891	0	304	93890	3	DUNEDIN AERO AWS			0	170.19666666666666	-45.92666666666666		19700428	19911028	1	0	63	NMS	170	Dunedin									['38', '85', '106', '107']							L.Haimberger	0
304	0-20000-0-06484	0	305	6480	3	BUZENOL			0	5.5875	49.62027777777778		19490109	19500731	1	0	63	NMS	20	Virton									['38', '85', '106', '107']							L.Haimberger	0
305	0-20300-0-54339	0	306	54339	3	AN SHAN			0	122.95	41.1167		19600602	19620828	1	0	63	NMS	47	Jiupu									['38', '85', '106', '107']							L.Haimberger	0
306	0-20000-0-07255	0	307	7255	3	BOURGES			0	2.3597222222222225	47.05916666666666		19820228	19911022	1	0	63	NMS	74	Bourges									['38', '85', '106', '107']							L.Haimberger	0
307	0-20000-0-71861	0	308	71861	3	BROADVIEW, SASK			0	-102.57083333333333	50.368055555555564		19870327	20001015	1	0	63	NMS	37	Yorkton									['38', '85', '106', '107']							L.Haimberger	0
308	0-20000-0-96491	0	309	96491	3	SANDAKAN			0	118.06666666666666	5.9		19700930	20101213	1	0	63	NMS	157	Sandakan									['38', '85', '106', '107']							L.Haimberger	0
309	0-20000-0-06081	0	310	6086	3	BLAAVANDSHUK FYR			0	8.082777777777778	55.5575		20120910	20210826	1	0	63	NMS	58	Varde									['38', '85', '106', '107']							L.Haimberger	0
310	0-20000-0-61766	0	311	61766	3	BISSAU AEROPORTO			0	-15.65	11.883333333333333		19650420	19670616	1	0	63	NMS	92	Bissau									['38', '85', '106', '107']							L.Haimberger	0
311	0-20000-0-41710	0	312	41710	3	NOKKUNDI			0	62.75	28.816666666666666		19691016	20181222	1	0	63	NMS	177	Rudbar									['38', '85', '106', '107']							L.Haimberger	0
312	0-20000-0-42452	0	313	42452	3	KOTA AERODROME			0	75.85	25.15		20180117	20211216	1	0	63	NMS	104	Kota									['38', '85', '106', '107']							L.Haimberger	0
313	0-20000-0-93615	0	314	93614	3	HOKITIKA AERO AWS			0	170.98444444444442	-42.71305555555556		19740406	20090421	1	0	63	NMS	170	Christchurch									['38', '85', '106', '107']							L.Haimberger	0
314	0-20000-0-74630	0	315	74630	3	STALLION AAF, NM			0	-106.66666666666669	33.81666666666667		20210317	20210629	1	0	63	NMS	231	Los Lunas									['38', '85', '106', '107']							L.Haimberger	0
315	0-20000-0-87178	0	316	87178	3	POSADAS AERO			0	-55.96694444444446	-27.391111111111112		19490125	19970913	1	0	63	NMS	10	Posadas									['38', '85', '106', '107']							L.Haimberger	0
316	0-20000-0-87320	0	317	87320	3	CHAMICAL AERO			0	-66.2961111111111	-30.347777777777768		19630522	19680417	1	0	63	NMS	10	La Rioja									['38', '85', '106', '107']							L.Haimberger	0
317	0-20000-0-91371	0	318	91371	3	WOTJE ATOLL, MARSHALL IS.			0	170.25	9.466666666666667		19730811	20010726	1	0	63	NMS	142	None									['38', '85', '106', '107']							L.Haimberger	0
318	0-20000-0-60745	0	319	60745	3	GAFSA			0	8.816666666666666	34.416666666666664		19791112	20071111	1	0	63	NMS	221	Qafsah									['38', '85', '106', '107']							L.Haimberger	0
319	0-20000-0-10126	0	320	10122	3	WITTMUNDHAVEN			0	7.667222222222222	53.55027777777778		19490405	19520804	1	0	63	NMS	56	Schortens									['38', '85', '106', '107']							L.Haimberger	0
320	0-20000-0-61600	0	321	61600	3	SAINT-LOUIS			0	-16.449722222222224	16.05		19680410	20140131	1	0	63	NMS	204	Saint-Louis									['38', '85', '106', '107']							L.Haimberger	0
321	0-20000-0-38232	0	322	38232	3	AKKUDUK			0	54.095	42.97055555555556		19620318	19691125	1	0	63	NMS	124	Zhanaozen									['38', '85', '106', '107']							L.Haimberger	0
322	0-20000-0-67475	0	323	67475	3	KASAMA			0	31.13333333333333	-10.216666666666667		19710505	19911028	1	0	63	NMS	247	Kasama									['38', '85', '106', '107']							L.Haimberger	0
323	0-20000-0-67843	0	324	67843	3	VICTORIA FALLS			0	25.85	-18.1		19810819	19961009	1	0	63	NMS	248	Victoria Falls									['38', '85', '106', '107']							L.Haimberger	0
324	0-20000-0-87480	0	325	87480	3	ROSARIO AERO			0	-60.782222222222224	-32.908055555555556		19460101	19540812	1	0	63	NMS	10	Rosario									['38', '85', '106', '107']							L.Haimberger	0
325	0-20000-0-41744	0	326	41744	3	KHUZDAR			0	66.63333333333334	27.83333333333333		19730613	20110103	1	0	63	NMS	177	Khuzdar									['38', '85', '106', '107']							L.Haimberger	0
326	0-20000-0-07130	0	327	7130	3	RENNES-SAINT JACQUES			0	-1.7338888888888893	48.06888888888889		19680310	20020801	1	0	63	NMS	74	Rennes									['38', '85', '106', '107']							L.Haimberger	0
327	0-20000-0-30822	0	328	30822	3	BABUSKIN			0	105.85194444444444	51.70833333333334		19670922	19680618	1	0	63	NMS	190	Selenginsk									['38', '85', '106', '107']							L.Haimberger	0
328	0-20000-0-96195	0	329	96195	3	JAMBI/SULTAN TAHA			0	103.65	-1.6333333333333333		19770120	20110103	1	0	63	NMS	100	Jambi									['38', '85', '106', '107']							L.Haimberger	0
329	0-20000-0-91831	0	330	91830	3	AITUTAKI AWS			0	-159.76666666666668	-18.83333333333333		19710619	19911029	1	0	63	NMS	44	Avarua									['38', '85', '106', '107']							L.Haimberger	0
330	0-20000-0-07072	0	331	7070	3	REIMS-PRUNAY			0	4.155277777777778	49.209722222222226		19680407	19720911	1	0	63	NMS	74	Reims									['38', '85', '106', '107']							L.Haimberger	0
331	0-20000-0-59082	0	332	59082	3	SHAOGUAN			0	113.6	24.66666666666667		19580719	19610314	1	0	63	NMS	47	Shaoguan									['38', '85', '106', '107']							L.Haimberger	0
332	0-20000-0-07471	0	333	7470	3	LE PUY-LOUDES			0	3.763888888888889	45.07444444444446		19691018	19830929	1	0	63	NMS	74	Firminy									['38', '85', '106', '107']							L.Haimberger	0
333	0-20000-0-94238	0	334	94240	3	TENNANT CREEK AIRPORT			0	134.18333333333334	-19.642222222222227		19700211	19700517	1	0	63	NMS	13	Alice Springs									['38', '85', '106', '107']							L.Haimberger	0
334	0-20000-0-53487	0	335	53487	3	DATONG			0	113.41666666666669	40.083333333333336		19641007	19871116	1	0	63	NMS	47	Datong									['38', '85', '106', '107']							L.Haimberger	0
335	0-20000-0-60461	0	336	60490	3	ORAN-PORT			0	-0.65	35.7		19621217	19970615	1	0	63	NMS	61	Wahran									['38', '85', '106', '107']							L.Haimberger	0
336	0-20000-0-87270	0	337	87270	3	RECONQUISTA AERO			0	-59.69333333333333	-29.205		19570701	19581009	1	0	63	NMS	10	Reconquista									['38', '85', '106', '107']							L.Haimberger	0
337	0-20000-0-48480	0	338	48480	3	CHANTHA BURI			0	102.10388888888887	12.609444444444444		19690329	20110103	1	0	63	NMS	216	Chanthaburi									['38', '85', '106', '107']							L.Haimberger	0
338	0-20000-0-15302	0	339	15302	3	PREDEAL			0	25.58361111111111	45.50638888888889		19760204	19980115	1	0	63	NMS	188	Rasnov									['38', '85', '106', '107']							L.Haimberger	0
339	0-20000-0-87548	0	340	87548	3	JUNIN AERO			0	-60.93138888888889	-34.552499999999995		19460101	19540528	1	0	63	NMS	10	Junin									['38', '85', '106', '107']							L.Haimberger	0
340	0-20000-0-72387	0	341	74614	3	MERCURY/DESERT ROCK, NV.			0	-116.01666666666668	36.61666666666667		19661025	19710426	1	0	63	NMS	231	Pahrump									['38', '85', '106', '107']							L.Haimberger	0
341	0-20000-0-44272	0	342	44272	3	ULIASTAI (44272-0)			0	96.8475	47.727222222222224		19700602	20020928	1	0	63	NMS	146	Moron									['38', '85', '106', '107']							L.Haimberger	0
342	0-20000-0-51811	0	343	51811	3	SHACHE			0	77.26666666666667	38.43333333333333		19730623	19930923	1	0	63	NMS	47	Shache									['38', '85', '106', '107']							L.Haimberger	0
343	0-20000-0-48453	0	344	48456	3	BANGNA AGROMET			0	100.60611111111109	13.666388888888891		19710901	19781007	1	0	63	NMS	216	Pak Kret									['38', '85', '106', '107']							L.Haimberger	0
344	0-20000-0-74370	0	345	74370	3	FORT DRUM/WHEELER-SACK AAF, NY			0	-75.73333333333333	44.05		19890510	19960208	1	0	63	NMS	231	Watertown									['38', '85', '106', '107']							L.Haimberger	0
345	0-20000-0-81250	0	346	81250	3	TAFELBERG			0	-56.15	3.783333333333333		19760129	19860319	1	0	63	NMS	206	Lelydorp									['38', '85', '106', '107']							L.Haimberger	0
346	0-20000-0-87155	0	347	87166	3	RESISTENCIA AERO			0	-59.04611111111111	-27.43888888888889		19460101	19560731	1	0	63	NMS	10	Corrientes									['38', '85', '106', '107']							L.Haimberger	0
347	0-20000-0-74413	0	348	74413	3	SAYLOR CREEK GUNNERY RANGE, ID.			0	-115.7	42.53333333333333		19700212	19710716	1	0	63	NMS	231	Mountain Home									['38', '85', '106', '107']							L.Haimberger	0
348	0-20000-0-37686	0	349	37686	3	GYUMRI			0	43.85583333333334	40.76277777777778		19680403	19790922	1	0	63	NMS	6	Gyumri									['38', '85', '106', '107']							L.Haimberger	0
349	0-20000-0-57766	0	350	57766	3	SHAOYANG			0	111.45	27.18333333333333		19591001	19591130	1	0	63	NMS	47	Shaoyang									['38', '85', '106', '107']							L.Haimberger	0
350	0-20000-0-47759	0	351	47759	3	KYOTO			0	135.73277777777778	35.014722222222225		19290109	19410830	1	0	63	NMS	113	Muko									['38', '85', '106', '107']							L.Haimberger	0
351	0-20000-0-65387	0	352	65387	3	LOME			0	1.25	6.166666666666668		19781018	20110102	1	0	63	NMS	215	Aflao									['38', '85', '106', '107']							L.Haimberger	0
352	0-20000-0-42516	0	353	42516	3	SHILLONG			0	91.88333333333334	25.566666666666666		19530427	19550721	1	0	63	NMS	104	Shillong									['38', '85', '106', '107']							L.Haimberger	0
353	0-20000-0-04231	0	354	4231	3	MITTARFIK KANGERLUSSUAQ (SDR. STROEMFJORD LUFTHAVN)			0	-50.71666666666667	67.01666666666667		19490103	19651205	1	0	63	NMS	83	Nuuk									['38', '85', '106', '107']							L.Haimberger	0
354	0-20000-0-58040	0	355	58040	3	GANYU			0	119.13333333333334	34.85		19790122	19870622	1	0	63	NMS	47	Xinpu									['38', '85', '106', '107']							L.Haimberger	0
355	0-20000-0-71869	0	356	71869	3	PRINCE ALBERT A, SASK			0	-105.66666666666669	53.21666666666667		19640129	19911028	1	0	63	NMS	37	Prince Albert									['38', '85', '106', '107']							L.Haimberger	0
356	0-20000-0-07280	0	357	7280	3	DIJON-LONGVIC			0	5.088333333333333	47.26777777777777		19680501	20030618	1	0	63	NMS	74	Chenove									['38', '85', '106', '107']							L.Haimberger	0
357	0-20000-0-63533	0	358	63533	3	NEGHELLE			0	39.56666666666667	5.333333333333333		19940224	20081006	1	0	63	NMS	68	Shakiso									['38', '85', '106', '107']							L.Haimberger	0
358	0-20000-0-68240	0	359	68244	3	SERETSE KHAMA INTERNATIONAL AIRPORT			0	25.91666666666667	-24.55		19700408	19841221	1	0	63	NMS	34	Gaborone									['38', '85', '106', '107']							L.Haimberger	0
359	0-20000-0-41598	0	360	41598	3	JHELUM			0	73.71666666666667	32.93333333333333		20180930	20211230	1	0	63	NMS	177	Jhelum									['38', '85', '106', '107']							L.Haimberger	0
360	0-20000-0-57071	0	361	57073	3	MENGJIN			0	112.46666666666668	34.8		19641217	19750909	1	0	63	NMS	47	Luoyang									['38', '85', '106', '107']							L.Haimberger	0
361	0-20000-0-15360	0	362	15360	3	SULINA			0	29.72694444444444	45.162222222222226		19730323	19980605	1	0	63	NMS	188	Kiliya									['38', '85', '106', '107']							L.Haimberger	0
362	0-20000-0-22165	0	363	22165	3	KANIN NOS			0	43.2875	68.65527777777778		19530228	19630205	1	0	63	NMS	190	Arkhangelsk									['38', '85', '106', '107']							L.Haimberger	0
363	0-20000-0-72514	0	364	72514	3	WILLIAMSPORT/LYCOMING COUNTY, PA.			0	-76.91666666666667	41.25		19640209	19721229	1	0	63	NMS	231	Williamsport									['38', '85', '106', '107']							L.Haimberger	0
364	0-20000-0-47755	0	365	47755	3	HAMADA			0	132.07055555555556	34.89666666666667		19381201	19410610	1	0	63	NMS	113	Hamada									['38', '85', '106', '107']							L.Haimberger	0
365	0-20000-0-74618	0	366	74618	3	CUDDLEBACK GUNNERY RANGE, CA.			0	-117.43333333333334	35.266666666666666		19680126	19691224	1	0	63	NMS	231	Ridgecrest									['38', '85', '106', '107']							L.Haimberger	0
366	0-20000-0-61257	0	367	61257	3	KAYES			0	-11.433333333333335	14.433333333333335		19731227	19961017	1	0	63	NMS	144	Kayes									['38', '85', '106', '107']							L.Haimberger	0
367	0-20000-0-87774	0	368	87774	3	MAQUINCHAO			0	-68.70638888888891	-41.24388888888889		19570726	19581225	1	0	63	NMS	10	San Carlos De Bariloche									['38', '85', '106', '107']							L.Haimberger	0
368	0-20000-0-64387	0	369	64387	3	KIGALI			0	30.132777777777783	-1.965		19810722	19920204	1	0	63	NMS	191	Kigali									['38', '85', '106', '107']							L.Haimberger	0
369	0-20300-0-20357	0	370	20357	3	RUSSKAJA GAVAN			0	62.5667	76.1833		19530219	19541231	1	0	63	NMS	190	None									['38', '85', '106', '107']							L.Haimberger	0
370	0-20000-0-74504	0	371	74504	3	PILAR POINT AFS, CA.			0	-122.5	37.5		19831216	19970521	1	0	63	NMS	231	Half Moon Bay									['38', '85', '106', '107']							L.Haimberger	0
371	0-20000-0-63726	0	372	63726	3	KABALE			0	29.98333333333333	-1.25		19570702	19940307	1	0	63	NMS	229	Kabale									['38', '85', '106', '107']							L.Haimberger	0
372	0-20000-0-47771	0	373	47771	3	OSAKA INTERNATIONAL AIRPORT			0	135.4391666666667	34.78444444444444		19400601	19501103	1	0	63	NMS	113	Ikeda									['38', '85', '106', '107']							L.Haimberger	0
373	0-20000-0-70291	0	374	70291	3	NORTHWAY			0	-141.93333333333334	62.96666666666667		19510202	19520630	1	0	63	NMS	231	None									['38', '85', '106', '107']							L.Haimberger	0
374	0-20000-0-67597	0	375	67597	3	SALIMA			0	34.583333333333336	-13.75		19891002	20000911	1	0	63	NMS	155	Salima									['38', '85', '106', '107']							L.Haimberger	0
375	0-20000-0-64510	0	376	64510	3	BITAM			0	11.483333333333333	2.083333333333333		19641002	20040513	1	0	63	NMS	75	Bitam									['38', '85', '106', '107']							L.Haimberger	0
376	0-20000-0-87925	0	377	87925	3	RIO GALLEGOS AERO			0	-69.30805555555554	-51.61166666666666		19370103	19551219	1	0	63	NMS	10	Rio Gallegos									['38', '85', '106', '107']							L.Haimberger	0
377	0-20000-0-58754	0	378	58754	3	FUDING			0	120.2	27.33333333333333		19710319	19870622	1	0	63	NMS	47	Jinxiang									['38', '85', '106', '107']							L.Haimberger	0
378	0-20000-0-41696	0	379	41696	3	KALAT			0	66.58333333333333	29.03333333333333		20060418	20100106	1	0	63	NMS	177	Kalat									['38', '85', '106', '107']							L.Haimberger	0
379	0-20000-0-57916	0	380	57916	3	LUODIAN			0	106.76666666666668	25.43333333333333		19710103	20020320	1	0	63	NMS	47	Xiaoweizhai									['38', '85', '106', '107']							L.Haimberger	0
380	0-20000-0-97008	0	381	97008	3	NAHA/TAHUNA			0	125.52888888888887	3.6858333333333335		19911002	20110103	1	0	63	NMS	100	Bitung									['38', '85', '106', '107']							L.Haimberger	0
381	0-20000-0-83971	0	382	83967	3	PORTO ALEGRE (AERO)			0	-51.18333333333333	-30.0		19500605	19541222	1	0	63	NMS	30	Cachoeirinha									['38', '85', '106', '107']							L.Haimberger	0
382	0-20000-0-87828	0	383	87828	3	TRELEW AERO			0	-65.28222222222222	-43.20888888888889		19460101	19570824	1	0	63	NMS	10	Trelew									['38', '85', '106', '107']							L.Haimberger	0
383	0-20000-0-59007	0	384	59007	3	GUANGNAN			0	105.06666666666666	24.066666666666666		19730702	19910523	1	0	63	NMS	47	Kaihua									['38', '85', '106', '107']							L.Haimberger	0
384	0-20000-0-82288	0	385	82287	3	PARNAIBA (AERO)			0	-41.75	-2.9166666666666665		19760121	19791226	1	0	63	NMS	30	Parnaiba									['38', '85', '106', '107']							L.Haimberger	0
385	0-20000-0-30729	0	386	30729	3	KABANSK			0	106.64166666666668	52.05416666666667		19620809	19641231	1	0	63	NMS	190	Selenginsk									['38', '85', '106', '107']							L.Haimberger	0
386	0-20000-0-96565	0	387	96565	3	PUTUSSIBAU/PAGSUMA			0	112.93333333333334	0.8833333333333333		20180103	20211231	1	0	63	NMS	100	Kapit									['38', '85', '106', '107']							L.Haimberger	0
387	0-20000-0-10763	0	388	10764	3	NUERNBERG			0	11.055	49.50305555555556		19850611	19901107	1	0	63	NMS	56	Feucht									['38', '85', '106', '107']							L.Haimberger	0
388	0-20000-0-41744	0	389	41744	3	KHUZDAR			0	66.63333333333334	27.83333333333333		19700103	20181224	1	0	63	NMS	177	Khuzdar									['38', '85', '106', '107']							L.Haimberger	0
389	0-20000-0-93247	0	390	93246	3	ROTORUA AERO AWS			0	176.31472222222226	-38.105833333333344		19870325	19911025	1	0	63	NMS	170	Tokoroa									['38', '85', '106', '107']							L.Haimberger	0
390	0-20000-0-89058	0	391	89056	3	GREAT WALL			0	-58.96666666666667	-62.21666666666667		20171202	20190930	1	0	63	NMS	9	None									['38', '85', '106', '107']							L.Haimberger	0
391	0-20000-0-11968	0	392	11968	3	KOSICE			0	21.216666666666665	48.66666666666666		20170308	20170308	1	0	63	NMS	201	Kosice									['38', '85', '106', '107']							L.Haimberger	0
392	0-20000-0-06490	0	393	6490	3	SPA/LA SAUVENIERE			0	5.91	50.478611111111114		19510101	19560630	1	0	63	NMS	20	Spa									['38', '85', '106', '107']							L.Haimberger	0
393	0-20000-0-42591	0	394	42591	3	GAYA (42591-0)			0	84.95	24.75		19770207	20110103	1	0	63	NMS	104	Gaya									['38', '85', '106', '107']							L.Haimberger	0
394	0-20000-0-25282	0	395	25282	3	MYS VANKAREM			0	-175.83333333333337	67.83333333333333		19800322	20001231	1	0	63	NMS	190	None									['38', '85', '106', '107']							L.Haimberger	0
395	0-20000-0-81209	0	396	81209	3	STOELMANSEILAND			0	-54.41666666666666	4.35		19761103	19860312	1	0	63	NMS	74	Lelydorp									['38', '85', '106', '107']							L.Haimberger	0
396	0-20000-0-89058	0	397	89056	3	GREAT WALL			0	-58.96666666666667	-62.21666666666667		20171202	20190930	1	0	63	NMS	9	None									['38', '85', '106', '107']							L.Haimberger	0
397	0-20000-0-40039	0	398	40039	3	RAQQA			0	39.016666666666666	35.93333333333333		19700505	19760806	1	0	63	NMS	210	Manbij									['38', '85', '106', '107']							L.Haimberger	0
398	0-20000-0-63043	0	399	63043	3	ASSAB			0	42.71666666666667	13.066666666666665		19490217	19601213	1	0	63	NMS	66	Zabid									['38', '85', '106', '107']							L.Haimberger	0
399	0-20000-0-70381	0	400	70381	3	JUNEAU			0	-134.58333333333334	58.36666666666667		19490225	19520630	1	0	63	NMS	231	Juneau									['38', '85', '106', '107']							L.Haimberger	0
400	0-20000-0-57237	0	401	57237	3	WANYUAN			0	108.03333333333332	32.06666666666667		19640620	20050123	1	0	63	NMS	47	Daxian									['38', '85', '106', '107']							L.Haimberger	0
401	0-20000-0-63023	0	402	63023	3	MASSAWA			0	39.45	15.616666666666667		19490203	19630915	1	0	63	NMS	66	Ginda									['38', '85', '106', '107']							L.Haimberger	0
402	0-20000-0-72221	0	403	74777	3	VALPARAISO/EGLIN AFB, FL.			0	-86.51666666666668	30.48333333333333		19870616	20120412	1	0	63	NMS	231	Wright									['38', '85', '106', '107']							L.Haimberger	0
403	0-20000-0-94346	0	404	94346	3	LONGREACH AERO			0	144.27694444444447	-23.437222222222218		19700113	19911029	1	0	63	NMS	13	Townsville									['38', '85', '106', '107']							L.Haimberger	0
404	0-20000-0-66285	0	405	66285	3	LUENA (LUSO)			0	19.916666666666668	-11.783333333333333		19550205	19750306	1	0	63	NMS	8	Luena									['38', '85', '106', '107']							L.Haimberger	0
405	0-20000-0-26850	0	406	26851	3	MINSK			0	27.635277777777773	53.92861111111111		19500427	19560130	1	0	63	NMS	35	Minsk									['38', '85', '106', '107']							L.Haimberger	0
406	0-20000-0-57046	0	407	57046	3	HUA SHAN			0	110.08333333333331	34.48333333333333		19730118	19850429	1	0	63	NMS	47	Weinan									['38', '85', '106', '107']							L.Haimberger	0
407	0-20000-0-87178	0	408	87178	3	POSADAS AERO			0	-55.96694444444446	-27.391111111111112		19811226	19980306	1	0	63	NMS	10	Posadas									['38', '85', '106', '107']							L.Haimberger	0
408	0-20000-0-91385	0	409	91385	3	PALMYRA ISLAND			0	-162.05	5.883333333333333		19510330	19621030	1	0	63	NMS	117	None									['38', '85', '106', '107']							L.Haimberger	0
409	0-20000-0-12580	0	410	12580	3	RZESZOW-JASIONKA			0	22.02	50.1113888888889		19691020	19741117	1	0	63	NMS	178	Rzeszow									['38', '85', '106', '107']							L.Haimberger	0
410	0-20000-0-71608	0	411	71892	3	VANCOUVER SEA ISLAND CCG, BC			0	-123.18722222222223	49.1825		19700316	19911003	1	0	63	NMS	37	Vancouver									['38', '85', '106', '107']							L.Haimberger	0
411	0-20000-0-37736	0	412	37735	3	GYANCA AIRPORT			0	46.4	40.73333333333333		19700407	19911013	1	0	63	NMS	16	Xanlar									['38', '85', '106', '107']							L.Haimberger	0
412	0-20000-0-41992	0	413	41992	3	COX'S BAZAR			0	91.93333333333334	21.433333333333334		19830111	20110105	1	0	63	NMS	19	Teknaf									['38', '85', '106', '107']							L.Haimberger	0
413	0-20000-0-47772	0	414	47772	3	OSAKA			0	135.51916666666668	34.682222222222215		19621029	20020101	1	0	63	NMS	113	Moriguchi									['38', '85', '106', '107']							L.Haimberger	0
414	0-20000-0-80336	0	415	80337	3	TUMACO/LA FLORIDA			0	-78.75	1.8166666666666669		19760121	19850404	1	0	63	NMS	48	Tumaco									['38', '85', '106', '107']							L.Haimberger	0
415	0-20000-0-54602	0	416	54602	3	BAODING			0	115.48333333333332	38.73333333333333		19670403	20011203	1	0	63	NMS	47	Baoding									['38', '85', '106', '107']							L.Haimberger	0
416	0-20000-0-06418	0	417	6410	3	ZEEBRUGGE			0	3.2016666666666667	51.34722222222222		19520202	19550911	1	0	63	NMS	20	Knokke-Heist									['38', '85', '106', '107']							L.Haimberger	0
417	0-20000-0-91385	0	418	91385	3	PALMYRA ISLAND			0	-162.05	5.883333333333333		19510330	19621030	1	0	63	NMS	117	None									['38', '85', '106', '107']							L.Haimberger	0
418	0-20000-0-42071	0	419	42071	3	AMRITSAR			0	74.86666666666666	31.63333333333333		20200213	20210621	1	0	63	NMS	104	Raja Sansi									['38', '85', '106', '107']							L.Haimberger	0
419	0-20000-0-57799	0	420	57799	3	JI'AN (57799-0)			0	114.96666666666668	27.11666666666667		19710421	20020330	1	0	63	NMS	47	Jian									['38', '85', '106', '107']							L.Haimberger	0
420	0-20000-0-48991	0	421	48991	3	PHNOM-PENH (KHMOUGH)			0	104.86666666666666	11.6		19691226	20011117	1	0	63	NMS	116	Phnum Penh									['38', '85', '106', '107']							L.Haimberger	0
421	0-20000-0-83182	0	422	83182	3	IRECE (83182-0)			0	-41.86666666666667	-11.3		19760121	19791002	1	0	63	NMS	30	Irece									['38', '85', '106', '107']							L.Haimberger	0
422	0-20000-0-74504	0	423	74504	3	PILAR POINT AFS, CA.			0	-122.5	37.5		19831216	19970521	1	0	63	NMS	231	Half Moon Bay									['38', '85', '106', '107']							L.Haimberger	0
423	0-20000-0-97530	0	424	97530	3	MANOKWARI/RENDANI			0	134.05055555555558	-0.8922222222222221		20090417	20110104	1	0	63	NMS	100	Manokwari									['38', '85', '106', '107']							L.Haimberger	0
424	0-20000-0-67152	0	425	67152	3	RANOHIRA			0	45.4	-22.55		19680514	20170115	1	0	63	NMS	141	Ihosy									['38', '85', '106', '107']							L.Haimberger	0
425	0-20000-0-28676	0	426	28679	3	PETROPAVLOVSK (28676-0)			0	69.11749999999999	54.7925		19660610	20010202	1	0	63	NMS	124	Petropavl									['38', '85', '106', '107']							L.Haimberger	0
426	0-20000-0-96001	0	427	96001	3	SABANG/CUT BAU			0	95.31666666666666	5.866666666666667		19731031	19901122	1	0	63	NMS	100	Sabang									['38', '85', '106', '107']							L.Haimberger	0
427	0-20000-0-52713	0	428	52713	3	DA-QAIDAM			0	95.36666666666666	37.85		19730106	19870622	1	0	63	NMS	47	Yumen									['38', '85', '106', '107']							L.Haimberger	0
428	0-20000-0-48551	0	429	48551	3	SURAT THANI			0	99.15194444444445	9.134166666666664		19701019	20101227	1	0	63	NMS	216	Surat Thani									['38', '85', '106', '107']							L.Haimberger	0
429	0-20000-0-40676	0	430	40676	3	NASIRIYA			0	46.23333333333333	31.016666666666666		19490202	19791013	1	0	63	NMS	106	Susangerd									['38', '85', '106', '107']							L.Haimberger	0
430	0-20000-0-81202	0	431	81202	3	NICKERIE			0	-57.03333333333333	5.95		19761127	19860227	1	0	63	NMS	206	Nieuw Nickerie									['38', '85', '106', '107']							L.Haimberger	0
431	0-20000-0-64601	0	432	64601	3	BOUAR			0	15.633333333333333	5.966666666666668		19760429	19911021	1	0	63	NMS	40	Bouar									['38', '85', '106', '107']							L.Haimberger	0
432	0-20000-0-61080	0	433	61080	3	MARADI			0	7.083333333333332	13.466666666666667		19870325	20030517	1	0	63	NMS	161	Maradi									['38', '85', '106', '107']							L.Haimberger	0
433	0-20000-0-47629	0	434	47629	3	MITO			0	140.46805555555557	36.38111111111111		19691019	19701229	1	0	63	NMS	113	Oarai									['38', '85', '106', '107']							L.Haimberger	0
434	0-724-0-0000000000008087	0	435	8087	3	BARDENAS REALES			0	-1.475	42.19861111111111		19760120	20030519	1	0	63	NMS	67	Tudela									['38', '85', '106', '107']							L.Haimberger	0
435	0-20000-0-30731	0	436	30731	3	GORJACINSK			0	108.29111111111109	52.986111111111114		19620814	19641124	1	0	63	NMS	190	Onokhoy									['38', '85', '106', '107']							L.Haimberger	0
436	0-20000-0-03023	0	437	3023	3	SOUTH UIST RANGE			0	-7.385000000000002	57.3575		20180118	20211201	1	0	63	NMS	76	Inverness									['38', '85', '106', '107']							L.Haimberger	0
437	0-20000-0-53564	0	438	53564	3	HEQU			0	111.21166666666667	39.365		19671215	19900301	1	0	63	NMS	47	Dongsheng									['38', '85', '106', '107']							L.Haimberger	0
438	0-20000-0-47887	0	439	47887	3	MATSUYAMA			0	132.77722222222224	33.84333333333333		19371025	19410616	1	0	63	NMS	113	Masaki									['38', '85', '106', '107']							L.Haimberger	0
439	0-20000-0-14307	0	440	13209	3	PULA AERODROME			0	13.931944444444444	44.89638888888889		19820301	19820505	1	0	63	NMS	97	Pula									['38', '85', '106', '107']							L.Haimberger	0
440	0-20000-0-88986	0	441	88946	3	SOUTH THULE IS.			0	-27.316666666666666	-59.45		19800605	19811230	1	0	63	NMS	89	None									['38', '85', '106', '107']							L.Haimberger	0
441	0-20000-0-59134	0	442	59137	3	XIAMEN			0	118.08333333333331	24.48333333333333		19600503	19601231	1	0	63	NMS	47	Xiamen									['38', '85', '106', '107']							L.Haimberger	0
442	0-20500-0-10707	0	443	78805	3	LA CHORRERA			0	-79.78	8.85		19630415	19631230	1	0	63	NMS	172	El Coco									['38', '85', '106', '107']							L.Haimberger	0
443	0-20300-0-37409	0	444	37409	3	SAKARA			0	43.033	42.133		19691101	19791217	1	0	63	NMS	78	Tkibuli									['38', '85', '106', '107']							L.Haimberger	0
444	0-20000-0-54094	0	445	54094	3	MUDANJIANG			0	129.66666666666666	44.5		19730611	19870622	1	0	63	NMS	47	Mudanjiang									['38', '85', '106', '107']							L.Haimberger	0
445	0-20000-0-87938	0	446	87938	3	USHUAIA AERO			0	-68.30333333333333	-54.84		19570702	19680308	1	0	63	NMS	10	Ushuaia									['38', '85', '106', '107']							L.Haimberger	0
446	0-20000-0-86068	0	447	86068	3	MARISCAL ESTIGARRIBIA			0	-60.61666666666667	-22.016666666666666		20001214	20050928	1	0	63	NMS	185	Porto Murtinho									['38', '85', '106', '107']							L.Haimberger	0
447	0-20000-0-59134	0	448	59137	3	XIAMEN			0	118.08333333333331	24.48333333333333		19600502	19610730	1	0	63	NMS	47	Xiamen									['38', '85', '106', '107']							L.Haimberger	0
448	0-20000-0-87909	0	449	87909	3	SAN JULIAN AERO			0	-67.80305555555556	-49.30833333333333		19460101	19550729	1	0	63	NMS	10	Rio Gallegos									['38', '85', '106', '107']							L.Haimberger	0
449	0-20000-0-87311	0	450	87312	3	SAN JUAN AERO			0	-68.4225	-31.574722222222217		19570701	19581216	1	0	63	NMS	10	San Juan									['38', '85', '106', '107']							L.Haimberger	0
450	0-20000-0-94926	0	451	94926	3	CANBERRA AIRPORT			0	149.20027777777776	-35.30888888888889		19690506	19911029	1	0	63	NMS	13	Canberra									['38', '85', '106', '107']							L.Haimberger	0
451	0-20000-0-97028	0	452	97028	3	TOLI-TOLI/LALOS			0	120.79416666666668	1.1213888888888892		19911002	20110104	1	0	63	NMS	100	Palu									['38', '85', '106', '107']							L.Haimberger	0
452	0-20000-0-52908	0	453	52908	3	WUDAOLIANG			0	93.08333333333331	35.21666666666667		19730315	19870622	1	0	63	NMS	47	Yumen									['38', '85', '106', '107']							L.Haimberger	0
453	0-20000-0-43367	0	454	43368	3	CAR NICOBAR			0	92.83333333333331	9.166666666666666		19720429	19971020	1	0	63	NMS	104	Port Blair									['38', '85', '106', '107']							L.Haimberger	0
454	0-20000-0-96797	0	455	96797	3	TEGAL			0	109.15	-6.85		19911003	20110104	1	0	63	NMS	100	Tegal									['38', '85', '106', '107']							L.Haimberger	0
455	0-20000-0-41718	0	456	41718	3	KHANPUR			0	70.68333333333334	28.65		19760422	20110105	1	0	63	NMS	177	Khanpur									['38', '85', '106', '107']							L.Haimberger	0
456	0-20000-0-72503	0	457	72503	3	NEW YORK/LA GUARDIA, NY.			0	-73.9	40.766666666666666		19690801	19720612	1	0	63	NMS	231	Cliffside Park									['38', '85', '106', '107']							L.Haimberger	0
457	0-20000-0-88903	0	458	88903	3	GRYTVIKEN,  SOUTH GEORGIA			0	-36.49638888888889	-54.283888888888896		19511018	19620831	1	0	63	NMS	89	None									['38', '85', '106', '107']							L.Haimberger	0
458	0-20000-0-47167	0	459	47167	3	YEOSU AIRPORT			0	127.61666666666666	34.833333333333336		20121001	20200117	1	0	63	NMS	121	Hirado									['38', '85', '106', '107']							L.Haimberger	0
459	0-20000-0-03091	0	460	3091	3	DYCE			0	-2.2052777777777783	57.20500000000001		19891109	20000126	1	0	63	NMS	76	Aberdeen									['38', '85', '106', '107']							L.Haimberger	0
460	0-20000-0-47655	0	461	47655	3	OMAEZAKI			0	138.2133333333333	34.60472222222222		19670616	19880219	1	0	63	NMS	113	Oyama									['38', '85', '106', '107']							L.Haimberger	0
461	0-20000-0-87534	0	462	87534	3	LABOULAYE AERO			0	-63.3675	-34.12777777777778		19570701	19581203	1	0	63	NMS	10	Venado Tuerto									['38', '85', '106', '107']							L.Haimberger	0
462	0-20000-0-71807	0	463	72807	3	ARGENTIA (AUT), NFLD			0	-53.99333333333333	47.293888888888894		19540101	19690710	1	0	63	NMS	37	Bay Roberts									['38', '85', '106', '107']							L.Haimberger	0
463	0-20000-0-03257	0	464	3257	3	LEEMING			0	-1.5330555555555554	54.296944444444435		19961207	20100502	1	0	63	NMS	76	Northallerton									['38', '85', '106', '107']							L.Haimberger	0
464	0-20000-0-24966	0	465	24966	3	UST'-MAJYA			0	134.45	60.38333333333333		19630718	19701030	1	0	63	NMS	190	Markha									['38', '85', '106', '107']							L.Haimberger	0
465	0-20000-0-80453	0	466	80453	3	TUMEREMO			0	-61.45	7.3		19760120	19841110	1	0	63	NMS	236	Upata									['38', '85', '106', '107']							L.Haimberger	0
466	0-20000-0-07558	0	467	7558	3	MILLAU			0	3.0194444444444444	44.118611111111115		19660301	19840626	1	0	63	NMS	74	Millau									['38', '85', '106', '107']							L.Haimberger	0
467	0-20000-0-93309	0	468	93308	3	NEW PLYMOUTH AERO AWS			0	174.1836111111111	-39.007777777777775		19800506	19920113	1	0	63	NMS	170	New Plymouth									['38', '85', '106', '107']							L.Haimberger	0
468	0-20000-0-56116	0	469	56116	3	DENGQEN			0	95.6	31.41666666666667		19661112	19991217	1	0	63	NMS	47	Along									['38', '85', '106', '107']							L.Haimberger	0
469	0-20000-0-87344	0	470	87347	3	CORDOBA AERO			0	-64.21194444444444	-31.29666666666667		19460111	19540926	1	0	63	NMS	10	Cordoba									['38', '85', '106', '107']							L.Haimberger	0
470	0-20300-0-51495	0	471	51495	3	SHISANJIANFANG			0	91.633	43.483000000000004		19710402	20000220	1	0	63	NMS	47	Hami									['38', '85', '106', '107']							L.Haimberger	0
471	0-20000-0-95966	0	472	94968	3	LAUNCESTON AIRPORT			0	147.21444444444444	-41.549166666666665		19681018	19911029	1	0	63	NMS	13	Launceston									['38', '85', '106', '107']							L.Haimberger	0
472	0-20000-0-43295	0	473	43296	3	BANGALORE			0	77.58333333333333	12.966666666666667		19610310	19680228	1	0	63	NMS	104	Bangalore									['38', '85', '106', '107']							L.Haimberger	0
473	0-20000-0-63756	0	474	63756	3	MWANZA			0	32.916666666666664	-2.466666666666667		19601008	19850828	1	0	63	NMS	227	Mwanza									['38', '85', '106', '107']							L.Haimberger	0
474	0-20000-0-62019	0	475	62019	3	SIRTE			0	16.571944444444444	31.20833333333333		19780613	19970904	1	0	63	NMS	135	Surt									['38', '85', '106', '107']							L.Haimberger	0
475	0-20000-0-58527	0	476	58527	3	JINGDEZHEN			0	117.16861111111113	29.312222222222218		19700103	20020220	1	0	63	NMS	47	Jingdezhen									['38', '85', '106', '107']							L.Haimberger	0
476	0-20000-0-07603	0	477	7603	3	DAX			0	-1.07	43.68972222222222		19691103	19840712	1	0	63	NMS	74	Dax									['38', '85', '106', '107']							L.Haimberger	0
477	0-20000-0-14031	0	478	13030	3	MURSKA SOBOTA			0	16.191388888888888	46.65194444444445		19570601	19591225	1	0	63	NMS	199	Murska Sobota									['38', '85', '106', '107']							L.Haimberger	0
478	0-20000-0-32150	0	479	32152	3	JUZHNO-SAHALINSK			0	142.71666666666667	46.95		19550702	19570831	1	0	63	NMS	190	Korsakov									['38', '85', '106', '107']							L.Haimberger	0
479	0-20000-0-60640	0	480	60640	3	ILLIZI			0	8.416666666666666	26.5		19570702	20021102	1	0	63	NMS	61	Gat									['38', '85', '106', '107']							L.Haimberger	0
480	0-20000-0-47167	0	481	47167	3	YEOSU AIRPORT			0	127.61666666666666	34.833333333333336		20121001	20200117	1	0	63	NMS	121	Hirado									['38', '85', '106', '107']							L.Haimberger	0
481	0-20300-0-89522	0	482	89522	3	BASE ROI BAUDOUIN			0	24.3167	-70.4333		19580210	19591231	1	0	63	NMS	246	None									['38', '85', '106', '107']							L.Haimberger	0
482	0-20000-0-76160	0	483	76160	3	HERMOSILLO, SON.			0	-110.9302777777778	29.07833333333333		19620304	19671225	1	0	63	NMS	156	Hermosillo									['38', '85', '106', '107']							L.Haimberger	0
483	0-20000-0-91487	0	484	91487	3	FANNING ISLAND (91487-0)			0	-159.36666666666667	3.85		19771014	19790630	1	0	63	NMS	117	None									['38', '85', '106', '107']							L.Haimberger	0
484	0-20000-0-61233	0	485	61233	3	NARA (61233-0)			0	-7.283333333333332	15.166666666666664		19801117	19971118	1	0	63	NMS	144	Nara									['38', '85', '106', '107']							L.Haimberger	0
485	0-20000-0-55696	0	486	55696	3	LHUNZE			0	92.46666666666668	28.41666666666667		19730214	19911217	1	0	63	NMS	47	Ziro									['38', '85', '106', '107']							L.Haimberger	0
486	0-20000-0-56106	0	487	56106	3	SOG XIAN			0	93.78333333333332	31.88333333333333		19740218	19960812	1	0	63	NMS	47	Lasa									['38', '85', '106', '107']							L.Haimberger	0
487	0-20000-0-60030	0	488	60030	3	LAS PALMAS DE GRAN CANARIA/GANDO			0	-15.389444444444445	27.9225		19630705	20020401	1	0	63	NMS	67	Ingenio									['38', '85', '106', '107']							L.Haimberger	0
488	0-20000-0-59417	0	489	59417	3	LONGZHOU			0	106.75	22.36666666666667		19680211	19870622	1	0	63	NMS	47	Lang Son									['38', '85', '106', '107']							L.Haimberger	0
489	0-20000-0-32540	0	490	32583	3	PETROPAVLOVSK-KAMCHATSKIJ (32540-0)			0	158.58333333333334	53.08333333333334		19500325	19561128	1	0	63	NMS	190	Petropavlovsk-Kamchatskiy									['38', '85', '106', '107']							L.Haimberger	0
490	0-20000-0-91487	0	491	91487	3	FANNING ISLAND (91487-0)			0	-159.36666666666667	3.85		19771014	19790630	1	0	63	NMS	117	None									['38', '85', '106', '107']							L.Haimberger	0
491	0-20000-0-11968	0	492	11968	3	KOSICE			0	21.216666666666665	48.66666666666666		20170308	20170308	1	0	63	NMS	201	Kosice									['38', '85', '106', '107']							L.Haimberger	0
492	0-20000-0-54471	0	493	54471	3	YINGKOU			0	122.16666666666669	40.66666666666666		19590920	19591231	1	0	63	NMS	47	Dashiqiao									['38', '85', '106', '107']							L.Haimberger	0
493	0-20000-0-61090	0	494	61090	3	ZINDER			0	8.983333333333333	13.783333333333333		19701018	20110105	1	0	63	NMS	161	Zinder									['38', '85', '106', '107']							L.Haimberger	0
494	0-20000-0-35188	0	495	35188	3	ASTANA			0	71.39416666666669	51.17027777777778		19740816	19931022	1	0	63	NMS	124	Astana									['38', '85', '106', '107']							L.Haimberger	0
495	0-20000-0-14445	0	496	13333	3	SPLIT/MARJAN			0	16.42638888888889	43.50833333333333		19691101	19710627	1	0	63	NMS	97	Split									['38', '85', '106', '107']							L.Haimberger	0
496	0-20000-0-72231	0	497	72231	3	NEW ORLEANS/MOISANT INT., LA.			0	-90.25	29.98333333333333		19650921	19670927	1	0	63	NMS	231	Kenner									['38', '85', '106', '107']							L.Haimberger	0
497	0-20000-0-07690	0	498	7690	3	NICE			0	7.208888888888889	43.64888888888889		19990915	20020927	1	0	63	NMS	74	Saint-Laurent-Du-Var									['38', '85', '106', '107']							L.Haimberger	0
498	0-20000-0-47159	0	499	47154	3	BUSAN			0	129.03194444444443	35.10472222222222		19620304	19920701	1	0	63	NMS	121	Fukuma									['38', '85', '106', '107']							L.Haimberger	0
499	0-20000-0-28900	0	500	28901	3	SAMARA (OGMS)			0	50.21666666666667	53.25		19500511	19560130	1	0	63	NMS	190	Samara									['38', '85', '106', '107']							L.Haimberger	0
500	0-20000-0-10641	0	501	10642	3	OFFENBACH-WETTERPARK			0	8.786111111111111	50.09		19670611	19920305	1	0	63	NMS	56	Erlensee									['38', '85', '106', '107']							L.Haimberger	0
501	0-20500-0-13773	0	502	74401	3	QUANTICO MCAS			0	-77.3	38.5		19620308	19671215	1	0	63	NMS	231	Montclair									['38', '85', '106', '107']							L.Haimberger	0
502	0-20000-0-82586	0	503	82586	3	QUIXERAMOBIM (82586-0)			0	-39.3	-5.2		19760610	19791211	1	0	63	NMS	30	Quixeramobim									['38', '85', '106', '107']							L.Haimberger	0
503	0-20300-0-96801	0	504	96801	3	CIBEUREM/TASIK(AFB)			0	108.25	-7.332999999999999		19580317	20140510	1	0	63	NMS	100	Tasikmalaya									['38', '85', '106', '107']							L.Haimberger	0
504	0-20000-0-65592	0	505	65592	3	TABOU			0	-7.366666666666666	4.416666666666667		19760511	19911214	1	0	63	NMS	43	Tabou									['38', '85', '106', '107']							L.Haimberger	0
505	0-20000-0-96323	0	506	96323	3	KUALA BELAIT			0	114.2	4.583333333333333		20180103	20210614	1	0	63	NMS	28	Miri									['38', '85', '106', '107']							L.Haimberger	0
506	0-20000-0-64600	0	507	64600	3	BERBERATI			0	15.8	4.25		19630722	19981211	1	0	63	NMS	40	Berberati									['38', '85', '106', '107']							L.Haimberger	0
507	0-20000-0-15090	0	508	15090	3	IASI			0	27.62722222222223	47.16333333333333		19730327	19960513	1	0	63	NMS	188	Iasi									['38', '85', '106', '107']							L.Haimberger	0
508	0-20000-0-64450	0	509	64450	3	BRAZZAVILLE /MAYA-MAYA			0	15.25	-4.25		19680622	20140614	1	0	63	NMS	39	Brazzaville									['38', '85', '106', '107']							L.Haimberger	0
509	0-20000-0-56374	0	510	56374	3	KANGDING			0	101.96666666666668	30.05		19730108	20010508	1	0	63	NMS	47	Yaan									['38', '85', '106', '107']							L.Haimberger	0
510	0-20000-0-72698	0	511	72698	3	PORTLAND/INT., OR.			0	-122.6	45.6		19721031	19730618	1	0	63	NMS	231	Vancouver									['38', '85', '106', '107']							L.Haimberger	0
511	0-20000-0-72305	0	512	72309	3	NEWPORT, NC.			0	-76.87666666666667	34.77611111111111		19620506	19710614	1	0	63	NMS	231	Havelock									['38', '85', '106', '107']							L.Haimberger	0
512	0-20000-0-91212	0	513	91218	3	WEATHER FORECAST OFFICE, GUAM, MARIANA IS.			0	144.79444444444445	13.476666666666668		19500525	19990223	1	0	63	NMS	91	None									['38', '85', '106', '107']							L.Haimberger	0
513	0-20000-0-42101	0	514	42103	3	PATIALA			0	76.46666666666667	30.33333333333333		20180201	20210708	1	0	63	NMS	104	Ambala									['38', '85', '106', '107']							L.Haimberger	0
514	0-20000-0-87784	0	515	87784	3	SAN ANTONIO OESTE AERO			0	-65.03083333333333	-40.757222222222225		19460101	19550616	1	0	63	NMS	10	Viedma									['38', '85', '106', '107']							L.Haimberger	0
515	0-20000-0-71299	0	516	71831	3	KAPUSKASING CDA ON, ONT			0	-82.44305555555556	49.405277777777776		19620308	19620915	1	0	63	NMS	37	Timmins									['38', '85', '106', '107']							L.Haimberger	0
516	0-20000-0-71758	0	517	71707	3	SYDNEY CS, NS			0	-60.04166666666666	46.16333333333333		19620305	19700923	1	0	63	NMS	37	Glace Bay									['38', '85', '106', '107']							L.Haimberger	0
517	0-20000-0-96781	0	518	96781	3	BANDUNG/HUSEIN			0	107.58333333333331	-6.9		19610303	19920915	1	0	63	NMS	100	Bandung									['38', '85', '106', '107']							L.Haimberger	0
518	0-20300-0-01020	0	519	1020	3	KINNVIKA STATION			0	18.3	80.05		19570918	19580815	1	0	63	NMS	200	None									['38', '85', '106', '107']							L.Haimberger	0
519	0-152-0-320051	0	520	87400	3	Los Libertadores			0	-70.11916666666666	-32.845555555555556		19360407	19390420	1	0	63	NMS	45	Los Andes									['38', '85', '106', '107']							L.Haimberger	0
520	0-20000-0-43201	0	521	43201	3	GADAG			0	75.63333333333334	15.416666666666664		20190725	20200203	1	0	63	NMS	104	Gadag									['38', '85', '106', '107']							L.Haimberger	0
521	0-20000-0-63791	0	522	63791	3	KILIMANJARO INT			0	37.05805555555556	-3.4247222222222216		19760120	19860321	1	0	63	NMS	227	Kingori									['38', '85', '106', '107']							L.Haimberger	0
522	0-20000-0-80336	0	523	80337	3	TUMACO/LA FLORIDA			0	-78.75	1.8166666666666669		19760124	19850404	1	0	63	NMS	48	Tumaco									['38', '85', '106', '107']							L.Haimberger	0
523	0-20000-0-82640	0	524	82640	3	JACAREACANGA			0	-57.73333333333333	-6.2666666666666675		19580716	19821219	1	0	63	NMS	30	Borba									['38', '85', '106', '107']							L.Haimberger	0
524	0-20000-0-97600	0	525	97600	3	SANANA			0	125.97888888888887	-2.070277777777778		19840509	20110104	1	0	63	NMS	100	Ambon									['38', '85', '106', '107']							L.Haimberger	0
525	0-20000-0-61075	0	526	61075	3	BIRNI-N'KONNI			0	5.25	13.8		19740727	20101224	1	0	63	NMS	161	Illela									['38', '85', '106', '107']							L.Haimberger	0
526	0-20000-0-02974	0	527	2974	3	VANTAA HELSINKI-VANTAA AIRPORT			0	24.95666666666667	60.32666666666667		19500407	19561224	1	0	63	NMS	69	Tuusula									['38', '85', '106', '107']							L.Haimberger	0
527	0-20000-0-44454	0	528	44454	3	KATHMANDU AIRPORT			0	85.36666666666666	27.7		19790330	19800216	1	0	63	NMS	167	Lalitpur									['38', '85', '106', '107']							L.Haimberger	0
528	0-20000-0-03469	0	529	3470	3	HOLBEACH NO 2			0	0.1386111111111111	52.87333333333334		19691113	19780307	1	0	63	NMS	76	Boston									['38', '85', '106', '107']							L.Haimberger	0
529	0-20000-0-40001	0	530	40001	3	KAMISHLI			0	41.21666666666667	37.05		19700526	20000515	1	0	63	NMS	210	Nusaybin									['38', '85', '106', '107']							L.Haimberger	0
530	0-20000-0-41529	0	531	41529	3	PESHAWAR			0	71.93333333333334	34.03333333333333		20180101	20211215	1	0	63	NMS	177	Amangarh									['38', '85', '106', '107']							L.Haimberger	0
531	0-20000-0-61226	0	532	61226	3	GAO			0	-0.05	16.266666666666666		19730827	19931127	1	0	63	NMS	144	Gao									['38', '85', '106', '107']							L.Haimberger	0
532	0-20000-0-07627	0	533	7627	3	SAINT GIRONS			0	1.1069444444444445	43.00527777777778		19691103	19840805	1	0	63	NMS	74	Saint-Gaudens									['38', '85', '106', '107']							L.Haimberger	0
533	0-20000-0-30823	0	534	30823	3	ULAN-UDE			0	107.6	51.83333333333334		19620809	19680831	1	0	63	NMS	190	Ulan-Ude									['38', '85', '106', '107']							L.Haimberger	0
534	0-20000-0-31416	0	535	31416	3	IM POLINY OSIPENKO			0	136.5	52.41666666666666		19620815	19680303	1	0	63	NMS	190	Solnechnyy									['38', '85', '106', '107']							L.Haimberger	0
535	0-20000-0-89070	0	536	88938	3	GABRIEL DE CASTILLA			0	-60.67583333333333	-62.977222222222224		19530102	19580626	1	0	63	NMS	9	None									['38', '85', '106', '107']							L.Haimberger	0
536	0-20000-0-26422	0	537	26423	3	RIGA LU			0	24.116111111111113	56.95055555555556		19510418	19560131	1	0	63	NMS	134	Riga									['38', '85', '106', '107']							L.Haimberger	0
537	0-20000-0-78793	0	538	78793	3	DAVID			0	-82.41666666666667	8.4		20160609	20160920	1	0	63	NMS	172	David									['38', '85', '106', '107']							L.Haimberger	0
538	0-20000-0-96249	0	539	96249	3	TANJUNG PANDAN/BULUH TUMBANG			0	107.75	-2.75		19830313	20110103	1	0	63	NMS	100	Manggar									['38', '85', '106', '107']							L.Haimberger	0
539	0-20300-0-67017	0	540	67017	3	VOHEMAR			0	50.0	-13.367		19691203	20040518	1	0	63	NMS	141	Sambava									['38', '85', '106', '107']							L.Haimberger	0
540	0-20000-0-72536	0	541	72536	3	TOLEDO/EXPRESS, OH.			0	-83.8	41.6		19620304	19720928	1	0	63	NMS	231	Maumee									['38', '85', '106', '107']							L.Haimberger	0
541	0-20000-0-08314	0	542	8314	3	MENORCA/AEROPUERTO			0	4.215555555555556	39.85472222222222		19700501	19760830	1	0	63	NMS	67	Mahon									['38', '85', '106', '107']							L.Haimberger	0
542	0-20000-0-93817	0	543	93817	3	Lauder Observatory			0	169.6838888888889	-45.03777777777778		20171213	20190725	1	0	63	NMS	170	Dunedin									['38', '85', '106', '107']							L.Haimberger	0
543	0-20000-0-40690	0	544	40688	3	BASRAH INT. AIRPORT			0	47.78333333333333	30.516666666666666		19490202	19570321	1	0	63	NMS	106	Khorramshahr									['38', '85', '106', '107']							L.Haimberger	0
544	0-20000-0-47761	0	545	47761	3	HIKONE			0	136.24361111111108	35.27583333333333		19260312	19410609	1	0	63	NMS	113	Hikone									['38', '85', '106', '107']							L.Haimberger	0
545	0-20000-0-48914	0	546	48914	3	CA MAU			0	105.15	9.183333333333334		19770418	20110104	1	0	63	NMS	239	Ca Mau									['38', '85', '106', '107']							L.Haimberger	0
546	0-20500-0-25034	0	547	71920	3	CREE LAKE			0	-107.13	57.35		19870326	19911028	1	0	63	NMS	37	Grand Centre									['38', '85', '106', '107']							L.Haimberger	0
547	0-20000-0-95997	0	548	94997	3	HEARD ISLAND (ATLAS COVE)			0	73.3916666666667	-53.018888888888895		19480209	19541025	1	0	63	NMS	95	None									['38', '85', '106', '107']							L.Haimberger	0
548	0-20000-0-87395	0	549	87395	3	CONCORDIA AERO			0	-58.00138888888889	-31.302222222222227		19490120	19540925	1	0	63	NMS	10	Concordia									['38', '85', '106', '107']							L.Haimberger	0
549	0-20000-0-93817	0	550	93817	3	Lauder Observatory			0	169.6838888888889	-45.03777777777778		20171213	20190725	1	0	63	NMS	170	Dunedin									['38', '85', '106', '107']							L.Haimberger	0
550	0-20000-0-62405	0	551	62405	3	LUXOR			0	32.70638888888889	25.67083333333333		19700519	20030131	1	0	63	NMS	64	Luxor									['38', '85', '106', '107']							L.Haimberger	0
551	0-20000-0-31989	0	552	31989	3	PREOBRAZHENIE			0	133.9	42.9		19750105	19930604	1	0	63	NMS	190	Partizansk									['38', '85', '106', '107']							L.Haimberger	0
552	0-20000-0-07650	0	553	7650	3	MARIGNANE			0	5.216111111111111	43.437777777777775		19620505	19651024	1	0	63	NMS	74	Vitrolles									['38', '85', '106', '107']							L.Haimberger	0
553	0-20000-0-60475	0	554	60475	3	TEBESSA			0	8.116666666666667	35.46666666666667		19780311	19890208	1	0	63	NMS	61	Talah									['38', '85', '106', '107']							L.Haimberger	0
