	primary_id	primary_id_scheme	record_number	secondary_id	secondary_id_scheme	station_name	station_abbreviation	alternative_name	station_crs	longitude	latitude	local_gravity	start_date	end_date	station_type	platform_type	platform_sub_type	operating_institute	operating_territory	city	contact	role	observing_frequency	reporting_time	telecommunication_method	station_automation	measuring_system_model	measuring_system_id	observed_variables	comment	optional_data	bbox_min_longitude	bbox_max_longitude	bbox_min_latitude	bbox_max_latitude	metadata_contact	metadata_contact_role
0	0-20000-0-66285	0	1	[66285]	1	LUENA (LUSO)			0	19.92	-11.78				1	0	63			Luena																L.Haimberger	0
1		0	2	72412	1				0						1	0	63			None																L.Haimberger	0
2		0	3	72519	1				0						1	0	63			None																L.Haimberger	0
3		0	4	72414	1				0						1	0	63			None																L.Haimberger	0
4		0	5	74618	1				0						1	0	63			None																L.Haimberger	0
5		0	6	72462	1				0						1	0	63			None																L.Haimberger	0
6	0-20000-0-64656	0	7	64656	1	BANGASSOU			0	22.83	4.73				1	0	63			Bangassou																L.Haimberger	0
7	0-20000-0-94653	0	8	94653	1	CEDUNA AMO			0	133.7	-32.13				1	0	63			Flinders																L.Haimberger	0
8	0-20000-0-52908	0	9	52908	1	WUDAOLIANG			0	93.08	35.22				1	0	63			Yumen																L.Haimberger	0
9	0-20000-0-32099	0	10	32099	1	MYS TERPENIYA			0	144.73	48.65				1	0	63			Poronaysk																L.Haimberger	0
10	0-20000-0-62459	0	11	62459	1	EL TOR			0	33.65	28.21				1	0	63			Hurghada																L.Haimberger	0
11	0-20000-0-48060	0	12	48060	1	KENGTUNG			0	99.62	21.3				1	0	63			Mae Sai																L.Haimberger	0
12	0-20000-0-64950	0	13	64950	1	YAOUNDE			0	11.52	3.83				1	0	63			Yaounde																L.Haimberger	0
13		0	14	72509	1				0						1	0	63			None																L.Haimberger	0
14	0-20000-0-63801	0	15	63801	1	KIGOMA			0	29.67	-4.89				1	0	63			Kigoma																L.Haimberger	0
15		0	16	72536	1				0						1	0	63			None																L.Haimberger	0
16	0-20000-0-47116	0	17	47111	1	GWANAKSAN			0	126.96	37.45				1	0	63			Seoul																L.Haimberger	0
17		0	18	72581	1				0						1	0	63			None																L.Haimberger	0
18	0-20000-0-94996	0	19	93996	1	NORFOLK ISLAND AERO			0	167.94	-29.04				1	0	63			None																L.Haimberger	0
19	0-20000-0-60425	0	20	60425	1	CHLEF			0	1.33	36.22				1	0	63			Sidi Ali																L.Haimberger	0
20	0-20000-0-65330	0	21	65330	1	PARAKOU			0	2.62	9.35				1	0	63			Parakou																L.Haimberger	0
21		0	22	72257	1				0						1	0	63			None																L.Haimberger	0
22	0-20000-0-41404	0	23	41344	1	SANA'A			0	44.18	15.52				1	0	63			Sayyan																L.Haimberger	0
23		0	24	72465	1				0						1	0	63			None																L.Haimberger	0
24		0	25	60545	1				0						1	0	63			Aflu																L.Haimberger	0
25	0-20000-0-93339	0	26	93337	1	WAIOURU AERO AWS			0	175.66	-39.45				1	0	63			Wanganui																L.Haimberger	0
26	0-20000-0-47887	0	27	47887	1	MATSUYAMA			0	132.78	33.84				1	0	63			Masaki																L.Haimberger	0
27		0	28	46746	1				0						1	0	63			Taipao																L.Haimberger	0
28		0	29	72401	1				0						1	0	63			None																L.Haimberger	0
29		0	30	63737	1				0						1	0	63			Narok																L.Haimberger	0
30		0	31	72455	1				0						1	0	63			None																L.Haimberger	0
31	0-20000-0-95997	0	32	94997	1	HEARD ISLAND (ATLAS COVE)			0	73.39	-53.02				1	0	63			None																L.Haimberger	0
32		0	33	74732	1				0						1	0	63			None																L.Haimberger	0
33	0-20000-0-48532	0	34	48112	1	RANONG			0	98.62	9.98				1	0	63			Ranong																L.Haimberger	0
34	0-20000-0-60714	0	35	60714	1	BIZERTE			0	9.8	37.25				1	0	63			Manzil Jamil																L.Haimberger	0
35	0-20000-0-43424	0	36	43424	1	PUTTALAM			0	79.83	8.03				1	0	63			Anuradhapura																L.Haimberger	0
36	0-20000-0-40980	0	37	40980	1	MOKUR			0	67.78	32.83				1	0	63			Gazni																L.Haimberger	0
37		0	38	53546	1				0						1	0	63			Dongsheng																L.Haimberger	0
38	0-20000-0-40030	0	39	40030	1	HAMA			0	36.75	35.12				1	0	63			Salamiyah																L.Haimberger	0
39		0	40	48875	1				0						1	0	63			Buon Me Thuot																L.Haimberger	0
40		0	41	74732	1				0						1	0	63			None																L.Haimberger	0
41	0-20000-0-98322	0	42	98322	1	CROW VALLEY GUNNERY RANGE			0	120.38	15.32				1	0	63			Mabalacat																L.Haimberger	0
42	0-20000-0-40627	0	43	69009	1	AL-KAEM			0	41.02	34.38				1	0	63			Abu Kamal																L.Haimberger	0
43		0	44	91170	1				0						1	0	63			None																L.Haimberger	0
44	0-20000-0-58477	0	45	58477	1	DINGHAI			0	122.12	30.03				1	0	63			Dinghai																L.Haimberger	0
45		0	46	74638	1				0						1	0	63			None																L.Haimberger	0
46	0-12-20000-60580	0	47	60580	1	OUARGLA			0	5.4	31.93				1	0	63			Warqla																L.Haimberger	0
47	0-20000-0-47636	0	48	47636	1	NAGOYA (47636-0)			0	136.97	35.17				1	0	63			Nisshin																L.Haimberger	0
48	0-20000-0-64931	0	49	64931	1	BATOURI			0	14.37	4.47				1	0	63			Batouri																L.Haimberger	0
49	0-20000-0-67025	0	50	67025	1	ANTALAHA			0	50.25	-14.88				1	0	63			Antalaha																L.Haimberger	0
50	0-20000-0-97388	0	51	97388	1	DILLI/COMORO			0	126.57	-8.55				1	0	63			Atambua																L.Haimberger	0
51		0	52	72228	1				0						1	0	63			None																L.Haimberger	0
52	0-20000-0-43194	0	53	43194	1	GOA/PANJIM			0	73.82	15.48				1	0	63			Mormugao																L.Haimberger	0
53	0-20000-0-66285	0	54	66285	1	LUENA (LUSO)			0	19.92	-11.78				1	0	63			Luena																L.Haimberger	0
54	0-20000-0-60611	0	55	60611	1	IN-AMENAS			0	9.63	28.05				1	0	63			Gat																L.Haimberger	0
55	0-20000-0-42071	0	56	42071	1	AMRITSAR			0	74.87	31.63				1	0	63			Amritsar																L.Haimberger	0
56	0-20000-0-68828	0	57	68828	1	GEORGE AIRPORT			0	22.38	-34.0				1	0	63			George																L.Haimberger	0
57	0-20000-0-54527	0	58	54527	1	TIANJIN			0	117.17	39.1				1	0	63			Tianjin																L.Haimberger	0
58		0	59	72434	1				0						1	0	63			None																L.Haimberger	0
59	0-20000-0-67137	0	60	67137	1	FIANARANTSOA			0	47.1	-21.45				1	0	63			Fianarantsoa																L.Haimberger	0
60	0-20000-0-48383	0	61	48947	1	MUKDAHAN			0	104.72	16.53				1	0	63			Savannakhet																L.Haimberger	0
61	0-20000-0-96529	0	62	96529	1	TANJUNG REDEP/KALIMARAU			0	117.43	2.14				1	0	63			Tarakan																L.Haimberger	0
62		0	63	70266	1				0						1	0	63			None																L.Haimberger	0
63	0-20000-0-58965	0	64	58965	1	TAOYUAN			0	121.22	25.05				1	0	63			Taoyuan																L.Haimberger	0
64		0	65	50873	1				0						1	0	63			Jiamusi																L.Haimberger	0
65	0-20000-0-93339	0	66	93337	1	WAIOURU AERO AWS			0	175.66	-39.45				1	0	63			Wanganui																L.Haimberger	0
66	0-20000-0-47671	0	67	47662	1	TOKYO INTERNATIONAL AIRPORT			0	139.78	35.55				1	0	63			Tokyo																L.Haimberger	0
67	0-20000-0-92087	0	68	94087	1	MISIMA W.O.			0	152.83	-10.68				1	0	63			Alotau																L.Haimberger	0
68	0-20000-0-54094	0	69	54094	1	MUDANJIANG			0	129.67	44.5				1	0	63			Mudanjiang																L.Haimberger	0
69		0	70	24793	1				0						1	0	63			Magadan																L.Haimberger	0
70	0-20000-0-68328	0	71	68328	1	TSABONG			0	22.45	-26.05				1	0	63			Vryburg																L.Haimberger	0
71	0-20000-0-60710	0	72	60710	1	TABARKA			0	8.75	36.95				1	0	63			Tabarqah																L.Haimberger	0
72	0-20000-0-40794	0	73	40795	1	SAFI-ABAD DEZFUL			0	48.42	32.27				1	0	63			Dezful																L.Haimberger	0
73	0-20000-0-17022	0	74	17022	1	ZONGULDAK			0	31.78	41.45				1	0	63			Zonguldak																L.Haimberger	0
74	0-20000-0-68312	0	75	68312	1	KEETMANSHOOP			0	18.12	-26.53				1	0	63			Keetmanshoop																L.Haimberger	0
75	0-20000-0-57584	0	76	57584	1	YUEYANG			0	113.08	29.38				1	0	63			Yueyang																L.Haimberger	0
76	0-20000-0-40690	0	77	40689	1	BASRAH INT. AIRPORT			0	47.78	30.52				1	0	63			Khorramshahr																L.Haimberger	0
77	0-20000-0-98428	0	78	98428	1	SANGLEY POINT			0	120.92	14.5				1	0	63			Cavite																L.Haimberger	0
78	0-20000-0-68032	0	79	68032	1	MAUN			0	23.42	-19.98				1	0	63			Maun																L.Haimberger	0
79	0-20000-0-61202	0	80	61202	1	TESSALIT			0	0.98	20.2				1	0	63			Kidal																L.Haimberger	0
80	0-20000-0-62131	0	81	62131	1	HON			0	15.94	29.13				1	0	63			Hun																L.Haimberger	0
81	0-20000-0-41443	0	82	40586	1	RIYAN			0	49.25	14.58				1	0	63			Qandala																L.Haimberger	0
82	0-20000-0-65201	0	83	65201	1	LAGOS/OSHODI			0	3.38	6.5				1	0	63			Lagos																L.Haimberger	0
83		0	84	72792	1				0						1	0	63			None																L.Haimberger	0
84		0	85	72269	1				0						1	0	63			None																L.Haimberger	0
85	0-20000-0-97530	0	86	97530	1	MANOKWARI/RENDANI			0	134.05	-0.89				1	0	63			Manokwari																L.Haimberger	0
86		0	87	74671	1				0						1	0	63			None																L.Haimberger	0
87	0-20000-0-42079	0	88	42079	1	SUNDERNAGAR			0	76.9	31.53				1	0	63			Sundarnagar																L.Haimberger	0
88		0	89	71625	1				0						1	0	63			None																L.Haimberger	0
89		0	90	72792	1				0						1	0	63			None																L.Haimberger	0
90	0-20000-0-56312	0	91	56312	1	NYINGCHI			0	94.47	29.57				1	0	63			Along																L.Haimberger	0
91	0-20000-0-47764	0	92	47764	1	IWAKUNI			0	132.25	34.14				1	0	63			Iwakuni																L.Haimberger	0
92		0	93	72334	1				0						1	0	63			None																L.Haimberger	0
93	0-20000-0-98653	0	94	98653	1	SURIGAO			0	125.49	9.78				1	0	63			Surigao																L.Haimberger	0
94	0-20000-0-47971	0	95	91030	1	CHICHIJIMA			0	142.19	27.09				1	0	63			None																L.Haimberger	0
95	0-20000-0-40938	0	96	40938	1	HERAT			0	62.22	34.22				1	0	63			Herat																L.Haimberger	0
96	0-20000-0-62941	0	97	62941	1	JUBA			0	31.6	4.87				1	0	63			Juba																L.Haimberger	0
97	0-20000-0-14648	0	98	13349	1	MOSTAR			0	17.79	43.35				1	0	63			Mostar																L.Haimberger	0
98	0-20000-0-36883	0	99	36880	1	ILIYSKY			0	76.98	43.48				1	0	63			Energeticheskiy																L.Haimberger	0
99	0-20000-0-41480	0	100	41467	1	ADEN			0	45.03	12.83				1	0	63			Aden																L.Haimberger	0
100		0	101	72508	1				0						1	0	63			None																L.Haimberger	0
101	0-20000-0-63125	0	102	69004	1	DJIBOUTI			0	43.15	11.55				1	0	63			Jibuti																L.Haimberger	0
102	0-20000-0-47981	0	103	47981	1	IWOTO			0	141.32	24.78				1	0	63			None																L.Haimberger	0
103	0-20000-0-12882	0	104	12882	1	DEBRECEN repülőtér			0	21.61	47.48				1	0	63			Debrecen																L.Haimberger	0
104	0-20000-0-67663	0	105	67666	1	KABWE			0	28.47	-14.45				1	0	63			Lusaka																L.Haimberger	0
105	0-20000-0-59838	0	106	59838	1	DONGFANG			0	108.62	19.1				1	0	63			Lingao																L.Haimberger	0
106	0-20000-0-62760	0	107	62760	1	EL FASHER			0	25.33	13.62				1	0	63			Umm Kaddadah																L.Haimberger	0
107	0-20000-0-60765	0	108	60765	1	GABES			0	10.1	33.88				1	0	63			Qabis																L.Haimberger	0
108		0	109	96881	1				0						1	0	63			Madiun																L.Haimberger	0
109		0	110	74671	1				0						1	0	63			None																L.Haimberger	0
110	0-20000-0-44239	0	111	44239	1	BULGAN			0	103.52	48.82				1	0	63			Bulgan																L.Haimberger	0
111	0-20000-0-70409	0	112	70409	1	ATTU			0	173.18	52.83				1	0	63			None																L.Haimberger	0
112	0-20000-0-10267	0	113	10272	1	KYRITZ			0	12.41	52.94				1	0	63			Wittstock																L.Haimberger	0
113	0-20000-0-63125	0	114	69004	1	DJIBOUTI			0	43.15	11.55				1	0	63			Jibuti																L.Haimberger	0
114	0-20000-0-97686	0	115	97686	1	WAMENA			0	138.95	-4.1				1	0	63			Vanimo																L.Haimberger	0
115		0	116	72257	1				0						1	0	63			None																L.Haimberger	0
116	0-20000-0-67991	0	117	67991	1	BEITBRIDGE			0	30.0	-22.22				1	0	63			Beitbridge																L.Haimberger	0
117	0-20000-0-63714	0	118	63714	1	NAKURU			0	36.1	-0.27				1	0	63			Nakuru																L.Haimberger	0
118	0-20000-0-63612	0	119	63612	1	LODWAR			0	35.59	3.12				1	0	63			Lodwar																L.Haimberger	0
119		0	120	72564	1				0						1	0	63			None																L.Haimberger	0
120	0-20000-0-47981	0	121	47981	1	IWOTO			0	141.32	24.78				1	0	63			None																L.Haimberger	0
121	0-20000-0-34139	0	122	34139	1	KAMENNAJA STEP'			0	40.7	51.05				1	0	63			Talovaya																L.Haimberger	0
122	0-20000-0-40642	0	123	40642	1	RUTBAH			0	40.28	33.03				1	0	63			Abu Kamal																L.Haimberger	0
123		0	124	72408	1				0						1	0	63			None																L.Haimberger	0
124	0-20000-0-59046	0	125	59046	1	LIUZHOU			0	109.47	24.37				1	0	63			Liuzhou																L.Haimberger	0
125	0-20000-0-62176	0	126	62176	1	GIGHBUB			0	24.52	29.75				1	0	63			Tubruq																L.Haimberger	0
126	0-20000-0-60445	0	127	60445	1	SETIF/AIN ARNAT			0	5.32	36.17				1	0	63			Tazmalt																L.Haimberger	0
127	0-20000-0-68479	0	128	68476	1	LADYSMITH			0	29.75	-28.58				1	0	63			Ekuvukeni																L.Haimberger	0
128	0-20000-0-65046	0	129	65046	1	KANO			0	8.53	12.05				1	0	63			Kano																L.Haimberger	0
129	0-20000-0-48687	0	130	48687	1	SINGAPORE/TENGAH			0	103.72	1.38				1	0	63			Johor Bahru																L.Haimberger	0
130		0	131	52856	1				0						1	0	63			Xining																L.Haimberger	0
131	0-20000-0-67663	0	132	67663	1	KABWE			0	28.47	-14.45				1	0	63			Kabwe																L.Haimberger	0
132	0-20000-0-58321	0	133	58321	1	HEFEI			0	117.05	31.95				1	0	63			Hefei																L.Haimberger	0
133		0	134	72688	1				0						1	0	63			None																L.Haimberger	0
134	0-20000-0-47971	0	135	91030	1	CHICHIJIMA			0	142.19	27.09				1	0	63			None																L.Haimberger	0
135	0-20000-0-59658	0	136	59658	1	ZHANJIANG			0	110.3	21.15				1	0	63			Dongli																L.Haimberger	0
136	0-20000-0-14654	0	137	13352	1	SARAJEVO-BJELAVE			0	18.42	43.87				1	0	63			Sarajevo																L.Haimberger	0
137	0-20000-0-64601	0	138	64601	1	BOUAR			0	15.63	5.97				1	0	63			Bouar																L.Haimberger	0
138	0-20000-0-44449	0	139	42382	1	SIMARA AIRPORT			0	84.98	27.17				1	0	63			Raxaul																L.Haimberger	0
139	0-20000-0-03590	0	140	3590	1	WATTISHAM			0	0.96	52.12				1	0	63			Ipswich																L.Haimberger	0
140	0-20000-0-41661	0	141	41661	1	QUETTA (SHEIKH MANDA)			0	66.92	30.27				1	0	63			Quetta																L.Haimberger	0
141	0-20000-0-52436	0	142	52436	1	YUMENZHEN			0	97.03	40.27				1	0	63			Yumen																L.Haimberger	0
142	0-20000-0-06391	0	143	10404	1	ARCEN AWS			0	6.2	51.5				1	0	63			Goch																L.Haimberger	0
143	0-20000-0-67157	0	144	67157	1	FARAFANGANA			0	47.83	-22.8				1	0	63			Farafangana																L.Haimberger	0
144		0	145	72450	1				0						1	0	63			None																L.Haimberger	0
145		0	146	72557	1				0						1	0	63			None																L.Haimberger	0
146	0-20000-0-54909	0	147	54906	1	DINGTAO			0	115.52	35.08				1	0	63			Heze																L.Haimberger	0
147	0-20000-0-59559	0	148	46752	1	HENGCHUN			0	120.75	22.0				1	0	63			Tungkang																L.Haimberger	0
148	0-20000-0-44341	0	149	44341	1	MANDALGOBI			0	106.26	45.74				1	0	63			Mandalgovi																L.Haimberger	0
149	0-20000-0-63832	0	150	63832	1	TABORA AIRPORT			0	32.83	-5.08				1	0	63			Tabora																L.Haimberger	0
150	0-20000-0-67323	0	151	67323	1	INHAMBANE			0	35.38	-23.87				1	0	63			Inhambane																L.Haimberger	0
151		0	152	50834	1				0						1	0	63			Wulanhaote																L.Haimberger	0
152	0-20000-0-51711	0	153	51711	1	AKQI			0	78.45	40.93				1	0	63			At-Bashi																L.Haimberger	0
153		0	154	74790	1				0						1	0	63			None																L.Haimberger	0
154	0-20000-0-42299	0	155	42299	1	GANGTOK			0	88.62	27.33				1	0	63			Gangtok																L.Haimberger	0
155	0-20000-0-42706	0	156	42706	1	BANKURA			0	87.08	23.38				1	0	63			Bankura																L.Haimberger	0
156	0-20000-0-30710	0	157	30719	1	IRKUTSK (30710-0)			0	104.32	52.27				1	0	63			Irkutsk																L.Haimberger	0
157	0-20000-0-98426	0	158	98426	1	SUBIC BAY WEATHER STATION			0	120.28	14.81				1	0	63			Olongapo																L.Haimberger	0
158	0-20000-0-16036	0	159	16037	1	AVIANO (16036-0)			0	12.6	46.03				1	0	63			Porcia																L.Haimberger	0
159	0-20000-0-42623	0	160	42623	1	IMPHAL/TULIHAL			0	93.9	24.77				1	0	63			Imphal																L.Haimberger	0
160		0	161	74695	1				0						1	0	63			None																L.Haimberger	0
161	0-20000-0-01013	0	162	1005	1	ISFJORD RADIO			0	13.62	78.06				1	0	63			None																L.Haimberger	0
162	0-20000-0-65201	0	163	65201	1	LAGOS/OSHODI			0	3.38	6.5				1	0	63			Lagos																L.Haimberger	0
163	0-20000-0-40821	0	164	40821	1	YAZD			0	54.29	31.9				1	0	63			Yazd																L.Haimberger	0
164	0-20000-0-57290	0	165	57290	1	ZHUMADIAN			0	113.92	32.93				1	0	63			Zhumadian																L.Haimberger	0
165	0-20000-0-42474	0	166	42474	1	ALLAHABAD/GHOORPUR			0	81.81	25.31				1	0	63			Allahabad																L.Haimberger	0
166	0-20000-0-55664	0	167	55664	1	TINGRI			0	87.08	28.63				1	0	63			Khandbari																L.Haimberger	0
167	0-20000-0-61972	0	168	61972	1	ILE EUROPA			0	40.34	-22.34				1	0	63			Toliary																L.Haimberger	0
168	0-20000-0-67881	0	169	67881	1	RUSAPE			0	32.13	-18.53				1	0	63			Rusape																L.Haimberger	0
169	0-20000-0-40226	0	170	40165	1	JENIN			0	35.3	32.47				1	0	63			Iksal																L.Haimberger	0
170	0-20000-0-01025	0	171	1030	1	TROMSO/LANGNES			0	18.91	69.68				1	0	63			Tromso																L.Haimberger	0
171		0	172	72464	1				0						1	0	63			None																L.Haimberger	0
172		0	173	72793	1				0						1	0	63			None																L.Haimberger	0
173		0	174	72269	1				0						1	0	63			None																L.Haimberger	0
174	0-20000-0-43049	0	175	43049	1	GOPALPUR			0	84.88	19.27				1	0	63			Brahmapur																L.Haimberger	0
175	0-20000-0-68858	0	176	68858	1	EAST LONDON			0	27.82	-33.04				1	0	63			East London																L.Haimberger	0
176	0-20000-0-06700	0	177	6700	1	GENEVE / COINTRIN			0	6.13	46.25				1	0	63			Vernier																L.Haimberger	0
177		0	178	48902	1				0						1	0	63			Vung Tau																L.Haimberger	0
178	0-20000-0-58754	0	179	58754	1	FUDING			0	120.2	27.33				1	0	63			Jinxiang																L.Haimberger	0
179	0-20000-0-57731	0	180	57731	1	SINAN			0	108.25	27.95				1	0	63			Tongren																L.Haimberger	0
180		0	181	48858	1				0						1	0	63			Play Cu																L.Haimberger	0
181	0-20000-0-41739	0	182	41739	1	PANJGUR			0	64.1	26.97				1	0	63			Turbat																L.Haimberger	0
182	0-20000-0-34866	0	183	34866	1	YASHKUL'			0	45.35	46.18				1	0	63			Elista																L.Haimberger	0
183	0-20000-0-50353	0	184	50353	1	HUMA			0	126.63	51.73				1	0	63			Shimanovsk																L.Haimberger	0
184	0-20000-0-51379	0	185	51379	1	QITAI			0	89.57	44.02				1	0	63			Urumqi																L.Haimberger	0
185	0-20000-0-58251	0	186	58251	1	DONGTAI			0	120.28	32.85				1	0	63			Dongtai																L.Haimberger	0
186	0-20000-0-60525	0	187	60525	1	BISKRA			0	5.73	34.8				1	0	63			Tuggurt																L.Haimberger	0
187	0-20000-0-67843	0	188	67843	1	VICTORIA FALLS			0	25.85	-18.1				1	0	63			Victoria Falls																L.Haimberger	0
188	0-20000-0-10618	0	189	10619	1	IDAR-OBERSTEIN			0	7.33	49.69				1	0	63			Idar-Oberstein																L.Haimberger	0
189	0-20000-0-58321	0	190	58321	1	HEFEI			0	117.05	31.95				1	0	63			Hefei																L.Haimberger	0
190		0	191	72533	1				0						1	0	63			None																L.Haimberger	0
191	0-20000-0-97146	0	192	97146	1	KENDARI/WOLTER MONGINSIDI			0	122.62	-3.96				1	0	63			Kendari																L.Haimberger	0
192	0-20000-0-95997	0	193	94997	1	HEARD ISLAND (ATLAS COVE)			0	73.39	-53.02				1	0	63			None																L.Haimberger	0
193	0-20000-0-61970	0	194	61970	1	ILE JUAN DE NOVA			0	42.71	-17.05				1	0	63			Mocambique																L.Haimberger	0
194		0	195	91162	1				0						1	0	63			None																L.Haimberger	0
195	0-20000-0-02974	0	196	2974	1	VANTAA HELSINKI-VANTAA AIRPORT			0	24.96	60.33				1	0	63			Tuusula																L.Haimberger	0
196	0-20000-0-50603	0	197	50603	1	XIN BARAG YOUQI			0	116.81	48.68				1	0	63			Manzhouli																L.Haimberger	0
197		0	198	72534	1				0						1	0	63			None																L.Haimberger	0
198	0-20000-0-48008	0	199	48008	1	MYITKYINA			0	97.4	25.37				1	0	63			Myitkyina																L.Haimberger	0
199	0-20000-0-12812	0	200	12812	1	SZOMBATHELY			0	16.65	47.2				1	0	63			Szombathely																L.Haimberger	0
200		0	201	60625	1				0						1	0	63			Adrar																L.Haimberger	0
201	0-20000-0-57193	0	202	57193	1	XIHUA			0	114.52	33.78				1	0	63			Xihua																L.Haimberger	0
202		0	203	72222	1				0						1	0	63			None																L.Haimberger	0
203	0-20000-0-26850	0	204	26851	1	MINSK			0	27.64	53.93				1	0	63			Minsk																L.Haimberger	0
204	0-20000-0-11030	0	205	11030	1	WIEN/HOHE WARTE (11035-1)			0	16.36	48.25				1	0	63			Tulln																L.Haimberger	0
205	0-20000-0-64900	0	206	64900	1	YOKO			0	12.37	5.55				1	0	63			Nanga Eboko																L.Haimberger	0
206	0-20000-0-40608	0	207	40608	1	MOSUL			0	43.15	36.32				1	0	63			Tall Kayf																L.Haimberger	0
207		0	208	50834	1				0						1	0	63			Wulanhaote																L.Haimberger	0
208	0-20000-0-54534	0	209	54534	1	TANGSHAN			0	118.1	39.65				1	0	63			Fengrun																L.Haimberger	0
209		0	210	48902	1				0						1	0	63			Vung Tau																L.Haimberger	0
210		0	211	72224	1				0						1	0	63			None																L.Haimberger	0
211		0	212	72278	1				0						1	0	63			None																L.Haimberger	0
212	0-20000-0-68040	0	213	68040	1	LETLHAKANE			0	25.6	-21.42				1	0	63			Letlhakane																L.Haimberger	0
213		0	214	72423	1				0						1	0	63			None																L.Haimberger	0
214	0-20000-0-62600	0	215	62600	1	WADI HALFA			0	31.35	21.82				1	0	63			Aswan																L.Haimberger	0
215	0-20000-0-56312	0	216	56312	1	NYINGCHI			0	94.47	29.57				1	0	63			Along																L.Haimberger	0
216	0-20000-0-65361	0	217	65361	1	SOKODE			0	1.15	8.98				1	0	63			Sokode																L.Haimberger	0
217	0-20000-0-58944	0	218	58944	1	PINGTAN			0	119.78	25.52				1	0	63			Rongcheng																L.Haimberger	0
218		0	219	62840	1				0						1	0	63			Malakal																L.Haimberger	0
219	0-20000-0-63125	0	220	63125	1	DJIBOUTI			0	43.15	11.55				1	0	63			Jibuti																L.Haimberger	0
220	0-20000-0-92014	0	221	94014	1	MADANG W.O.			0	145.8	-5.22				1	0	63			Madang																L.Haimberger	0
221	0-20000-0-42123	0	222	42123	1	GANGANAGAR			0	73.88	29.92				1	0	63			Ganganagar																L.Haimberger	0
222	0-20000-0-62680	0	223	62680	1	ATBARA			0	33.97	17.7				1	0	63			Barbar																L.Haimberger	0
223	0-20000-0-54027	0	224	54027	1	LINDONG			0	119.32	43.95				1	0	63			Chifeng																L.Haimberger	0
224		0	225	70222	1				0						1	0	63			None																L.Haimberger	0
225		0	226	53420	1				0						1	0	63			Haibowan																L.Haimberger	0
226		0	227	72256	1				0						1	0	63			None																L.Haimberger	0
227	0-20000-0-62770	0	228	62770	1	GENINA			0	22.45	13.48				1	0	63			Adre																L.Haimberger	0
228	0-20000-0-66305	0	229	66305	1	LOBITO			0	13.53	-12.37				1	0	63			Catumbela																L.Haimberger	0
229	0-20000-0-47099	0	230	47106	1	PAJU			0	126.77	37.89				1	0	63			Seoul																L.Haimberger	0
230		0	231	72438	1				0						1	0	63			None																L.Haimberger	0
231	0-20000-0-06215	0	232	6210	1	VOORSCHOTEN AWS			0	4.44	52.14				1	0	63			Katwijk																L.Haimberger	0
232	0-20000-0-10513	0	233	10513	1	KOELN/BONN			0	7.16	50.86				1	0	63			Rosrath																L.Haimberger	0
233		0	234	72306	1				0						1	0	63			None																L.Haimberger	0
234	0-20000-0-57411	0	235	57411	1	GAOPING			0	106.13	30.75				1	0	63			Nanchong																L.Haimberger	0
235	0-20000-0-93247	0	236	93246	1	ROTORUA AERO AWS			0	176.31	-38.11				1	0	63			Tokoroa																L.Haimberger	0
236	0-20000-0-47134	0	237	47134	1	YECHEON AB			0	128.35	36.62				1	0	63			Seoul																L.Haimberger	0
237	0-20000-0-16734	0	238	16734	1	METHONI			0	21.7	36.83				1	0	63			Kalamata																L.Haimberger	0
238		0	239	71624	1				0						1	0	63			None																L.Haimberger	0
239	0-20000-0-63708	0	240	63708	1	KISUMU			0	34.74	-0.08				1	0	63			Kisumu																L.Haimberger	0
240		0	241	48904	1				0						1	0	63			Vung Tau																L.Haimberger	0
241		0	242	72781	1				0						1	0	63			None																L.Haimberger	0
242	0-20000-0-56444	0	243	56444	1	DEQEN			0	98.88	28.45				1	0	63			Tezu																L.Haimberger	0
243	0-20000-0-98426	0	244	98426	1	SUBIC BAY WEATHER STATION			0	120.28	14.81				1	0	63			Olongapo																L.Haimberger	0
244		0	245	96853	1				0						1	0	63			Yogyakarta																L.Haimberger	0
245	0-20001-0-29634	0	246	29637	1	NOVOSIBIRSK (29634-1)			0	82.95	54.97				1	0	63			Krasnoobsk																L.Haimberger	0
246	0-20000-0-41977	0	247	41940	1	CHITTAGONG (AMBAGAN)			0	91.82	22.35				1	0	63			Patiya																L.Haimberger	0
247	0-20000-0-67761	0	248	67761	1	KARIBA			0	28.88	-16.52				1	0	63			Kariba																L.Haimberger	0
248	0-20000-0-93678	0	249	93677	1	KAIKOURA AWS			0	173.7	-42.42				1	0	63			Nelson																L.Haimberger	0
249	0-20000-0-47584	0	250	47584	1	MORIOKA			0	141.17	39.7				1	0	63			Shizukuishi																L.Haimberger	0
250	0-20000-0-64893	0	251	64893	1	KOUNDJA			0	10.75	5.65				1	0	63			Foumban																L.Haimberger	0
251		0	252	89671	1				0						1	0	63			None																L.Haimberger	0
252	0-20000-0-42410	0	253	42411	1	GUWAHATI			0	91.58	26.1				1	0	63			Guwahati																L.Haimberger	0
253		0	254	72666	1				0						1	0	63			None																L.Haimberger	0
254	0-20000-0-97876	0	255	97876	1	TANAH MERAH			0	140.3	-6.1				1	0	63			Kiunga																L.Haimberger	0
255	0-20000-0-13586	0	256	13586	1	SKOPJE PETROVEC			0	21.65	41.97				1	0	63			Skopje																L.Haimberger	0
256		0	257	72777	1				0						1	0	63			None																L.Haimberger	0
257	0-20000-0-40676	0	258	40676	1	NASIRIYA			0	46.23	31.02				1	0	63			Susangerd																L.Haimberger	0
258	0-20000-0-41529	0	259	41529	1	PESHAWAR			0	71.93	34.03				1	0	63			Amangarh																L.Haimberger	0
259	0-20000-0-06400	0	260	6400	1	KOKSIJDE			0	2.65	51.09				1	0	63			Veurne																L.Haimberger	0
260		0	261	24793	1				0						1	0	63			Magadan																L.Haimberger	0
261	0-20000-0-96633	0	262	96633	1	BALIKPAPAN/SEPINGGAN			0	116.89	-1.26				1	0	63			Balikpapan																L.Haimberger	0
262	0-20000-0-91650	0	263	91650	1	ROTUMA			0	177.05	-12.5				1	0	63			None																L.Haimberger	0
263	0-20000-0-57014	0	264	57006	1	BEIDAO			0	105.87	34.57				1	0	63			Beidao																L.Haimberger	0
264	0-20000-0-57237	0	265	57237	1	WANYUAN			0	108.03	32.07				1	0	63			Daxian																L.Haimberger	0
265	0-20000-0-41891	0	266	41891	1	SYLHET			0	91.88	24.9				1	0	63			Chhatak																L.Haimberger	0
266	0-20000-0-41594	0	267	41594	1	SARGODHA (41594-0)			0	72.67	32.05				1	0	63			Sargodha																L.Haimberger	0
267		0	268	50838	1				0						1	0	63			Wulanhaote																L.Haimberger	0
268		0	269	72428	1				0						1	0	63			None																L.Haimberger	0
269	0-20000-0-59293	0	270	59293	1	HEYUAN			0	114.73	23.8				1	0	63			Yuancheng																L.Haimberger	0
270	0-20000-0-34139	0	271	34139	1	KAMENNAJA STEP'			0	40.7	51.05				1	0	63			Talovaya																L.Haimberger	0
271	0-20000-0-13588	0	272	13483	1	SKOPJE PETROVEC			0	21.65	41.97				1	0	63			Skopje																L.Haimberger	0
272	0-20000-0-38062	0	273	38061	1	Tasboget AMS			0	65.53	44.77				1	0	63			Tasbuget																L.Haimberger	0
273		0	274	72745	1				0						1	0	63			None																L.Haimberger	0
274	0-20000-0-62772	0	275	62772	1	KOSTI			0	32.67	13.17				1	0	63			Kusti																L.Haimberger	0
275		0	276	52391	1				0						1	0	63			Haibowan																L.Haimberger	0
276		0	277	72767	1				0						1	0	63			None																L.Haimberger	0
277		0	278	72309	1				0						1	0	63			None																L.Haimberger	0
278	0-20000-0-64610	0	279	64610	1	BOSSANGOA			0	17.43	6.48				1	0	63			Bossangoa																L.Haimberger	0
279	0-20000-0-47817	0	280	47817	1	NAGASAKI			0	129.87	32.73				1	0	63			Nagayo																L.Haimberger	0
280	0-20000-0-43555	0	281	43555	1	MALE			0	73.53	4.19				1	0	63			Male																L.Haimberger	0
281	0-20000-0-57604	0	282	57606	1	NAXI			0	105.38	28.78				1	0	63			Tongzi																L.Haimberger	0
282	0-20000-0-47099	0	283	47106	1	PAJU			0	126.77	37.89				1	0	63			Seoul																L.Haimberger	0
283	0-20000-0-59293	0	284	59293	1	HEYUAN			0	114.73	23.8				1	0	63			Yuancheng																L.Haimberger	0
284	0-20000-0-57265	0	285	57265	1	LAOHEKOU			0	111.73	32.43				1	0	63			Laohekou																L.Haimberger	0
285		0	286	62002	1				0						1	0	63			Nalut																L.Haimberger	0
286	0-20000-0-65201	0	287	65202	1	LAGOS/OSHODI			0	3.38	6.5				1	0	63			Lagos																L.Haimberger	0
287	0-20000-0-14370	0	288	13150	1	SLAVONSKI BROD			0	18.0	45.16				1	0	63			Slavonski Brod																L.Haimberger	0
288	0-20000-0-57707	0	289	57707	1	BIJIE			0	105.23	27.3				1	0	63			Bijie																L.Haimberger	0
289	0-20000-0-44241	0	290	44241	1	BARUUNHARAA			0	106.09	48.91				1	0	63			Ulaanbaatar																L.Haimberger	0
290		0	291	32195	1				0						1	0	63			None																L.Haimberger	0
291	0-20000-0-40794	0	292	40795	1	SAFI-ABAD DEZFUL			0	48.42	32.27				1	0	63			Dezful																L.Haimberger	0
292	0-20000-0-06670	0	293	6670	1	ZUERICH / KLOTEN			0	8.54	47.48				1	0	63			Bulach																L.Haimberger	0
293	0-20000-0-41560	0	294	41560	1	PARACHINAR			0	70.08	33.87				1	0	63			Azrow																L.Haimberger	0
294	0-20000-0-51334	0	295	51334	1	JINGHE (51334-0)			0	82.82	44.57				1	0	63			Yining																L.Haimberger	0
295	0-20000-0-47815	0	296	47815	1	OITA			0	131.62	33.24				1	0	63			Beppu																L.Haimberger	0
296	0-20000-0-17195	0	297	17195	1	KAYSERI/ERKILET			0	35.49	38.77				1	0	63			Kayseri																L.Haimberger	0
297	0-20000-0-40642	0	298	69100	1	RUTBAH			0	40.28	33.03				1	0	63			Abu Kamal																L.Haimberger	0
298		0	299	72641	1				0						1	0	63			None																L.Haimberger	0
299	0-20000-0-47656	0	300	47656	1	SHIZUOKA			0	138.4	34.98				1	0	63			Shimizu																L.Haimberger	0
300	0-20000-0-47133	0	301	47132	1	DAEJEON			0	127.37	36.37				1	0	63			Seoul																L.Haimberger	0
301	0-20000-0-47139	0	302	47139	1	POHANG			0	129.38	36.03				1	0	63			Nagato																L.Haimberger	0
302		0	303	52391	1				0						1	0	63			Haibowan																L.Haimberger	0
303	0-20000-0-64501	0	304	64501	1	PORT-GENTIL			0	8.75	-0.7				1	0	63			Port-Gentil																L.Haimberger	0
304		0	305	72515	1				0						1	0	63			None																L.Haimberger	0
305	0-20000-0-45020	0	306	45011	1	MACAO/FORTALEZA DO MONTE			0	113.54	22.2				1	0	63			Zhuhai																L.Haimberger	0
306	0-20000-0-59358	0	307	46743	1	TAINAN			0	120.22	23.0				1	0	63			Tainan																L.Haimberger	0
307		0	308	72455	1				0						1	0	63			None																L.Haimberger	0
308	0-20000-0-57916	0	309	57916	1	LUODIAN			0	106.77	25.43				1	0	63			Xiaoweizhai																L.Haimberger	0
309	0-20000-0-47819	0	310	47819	1	KUMAMOTO			0	130.71	32.81				1	0	63			Ueki																L.Haimberger	0
310	0-20000-0-12105	0	311	12105	1	KOSZALIN			0	16.16	54.2				1	0	63			Koszalin																L.Haimberger	0
311	0-20000-0-47626	0	312	47626	1	KUMAGAYA			0	139.38	36.15				1	0	63			Kumagaya																L.Haimberger	0
312	0-20000-0-13586	0	313	13586	1	SKOPJE PETROVEC			0	21.65	41.97				1	0	63			Skopje																L.Haimberger	0
313	0-20000-0-48930	0	314	48930	1	LUANG-PRABANG			0	102.13	19.88				1	0	63			Luang Prabang																L.Haimberger	0
314		0	315	72421	1				0						1	0	63			None																L.Haimberger	0
315		0	316	62007	1				0						1	0	63			Zuwarah																L.Haimberger	0
316	0-20000-0-59082	0	317	59082	1	SHAOGUAN			0	113.6	24.67				1	0	63			Shaoguan																L.Haimberger	0
317	0-20000-0-96781	0	318	96781	1	BANDUNG/HUSEIN			0	107.58	-6.9				1	0	63			Bandung																L.Haimberger	0
318	0-20000-0-01492	0	319	1492	1	OSLO-BLINDERN (1492-1)			0	10.72	59.94				1	0	63			Oslo																L.Haimberger	0
319	0-20000-0-44272	0	320	44272	1	ULIASTAI (44272-0)			0	96.85	47.73				1	0	63			Moron																L.Haimberger	0
320	0-20000-0-94568	0	321	94568	1	AMBERLEY AMO			0	152.71	-27.63				1	0	63			Brisbane																L.Haimberger	0
321	0-20000-0-56951	0	322	56951	1	LINCANG			0	100.17	23.95				1	0	63			Simao																L.Haimberger	0
322		0	323	72743	1				0						1	0	63			None																L.Haimberger	0
323	0-20000-0-67765	0	324	67765	1	KAROI			0	29.62	-16.83				1	0	63			Karoi																L.Haimberger	0
324	0-20000-0-64453	0	325	64453	1	DJAMBALA			0	14.77	-2.53				1	0	63			Gamboma																L.Haimberger	0
325		0	326	51895	1				0						1	0	63			Hami																L.Haimberger	0
326	0-20000-0-30636	0	327	30636	1	BARGUZIN			0	109.63	53.62				1	0	63			Onokhoy																L.Haimberger	0
327	0-20000-0-57932	0	328	57932	1	RONGJIANG			0	108.53	25.97				1	0	63			Xiaoweizhai																L.Haimberger	0
328	0-20000-0-41404	0	329	41344	1	SANA'A			0	44.18	15.52				1	0	63			Sayyan																L.Haimberger	0
329	0-20000-0-62259	0	330	62259	1	TAZERBO			0	21.09	25.67				1	0	63			Waddan																L.Haimberger	0
330	0-20000-0-42299	0	331	42299	1	GANGTOK			0	88.62	27.33				1	0	63			Gangtok																L.Haimberger	0
331	0-20000-0-16687	0	332	16687	1	ARAXOS (AIRPORT)			0	21.42	38.15				1	0	63			Mesolongion																L.Haimberger	0
332		0	333	50838	1				0						1	0	63			Wulanhaote																L.Haimberger	0
333	0-20000-0-40186	0	334	40186	1	ASHDOD NORTH			0	34.68	31.87				1	0	63			Yavne																L.Haimberger	0
334	0-20000-0-40190	0	335	40191	1	BEER SHEVA CITY			0	34.8	31.25				1	0	63			Ofaqim																L.Haimberger	0
335	0-20000-0-64600	0	336	64600	1	BERBERATI			0	15.8	4.25				1	0	63			Berberati																L.Haimberger	0
336	0-20000-0-47830	0	337	47830	1	MIYAZAKI			0	131.41	31.94				1	0	63			Sadowara																L.Haimberger	0
337	0-20000-0-97760	0	338	97760	1	KAIMANA/UTAROM			0	133.7	-3.64				1	0	63			Nabire																L.Haimberger	0
338	0-20000-0-64654	0	339	64654	1	N'DELE			0	20.65	8.4				1	0	63			Ndele																L.Haimberger	0
339	0-20000-0-42079	0	340	42079	1	SUNDERNAGAR			0	76.9	31.53				1	0	63			Sundarnagar																L.Haimberger	0
340	0-20000-0-10618	0	341	10619	1	IDAR-OBERSTEIN			0	7.33	49.69				1	0	63			Idar-Oberstein																L.Haimberger	0
341	0-20000-0-97390	0	342	97390	1	DILI/DILI AIRPORT			0	125.57	-8.57				1	0	63			Atambua																L.Haimberger	0
342	0-20000-0-57290	0	343	57290	1	ZHUMADIAN			0	113.92	32.93				1	0	63			Zhumadian																L.Haimberger	0
343	0-20000-0-91348	0	344	91347	1	WEATHER SERVICE OFFICE, POHNPEI, CAROLINE IS.			0	158.21	6.96				1	0	63			None																L.Haimberger	0
344		0	345	72439	1				0						1	0	63			None																L.Haimberger	0
345	0-20000-0-58965	0	346	58965	1	TAOYUAN			0	121.22	25.05				1	0	63			Taoyuan																L.Haimberger	0
346		0	347	48864	1				0						1	0	63			Tam Ky																L.Haimberger	0
347	0-20000-0-47684	0	348	47684	1	YOKKAICHI			0	136.58	34.94				1	0	63			Suzuka																L.Haimberger	0
348	0-20000-0-48955	0	349	48955	1	PAKSE			0	105.77	15.12				1	0	63			Pakxe																L.Haimberger	0
349	0-20000-0-13463	0	350	13462	1	PODGORICA-GRAD			0	19.28	42.43				1	0	63			Podgorica																L.Haimberger	0
350	0-20000-0-67693	0	351	67693	1	CHILEKA			0	34.97	-15.68				1	0	63			Blantyre																L.Haimberger	0
351		0	352	72356	1				0						1	0	63			None																L.Haimberger	0
352	0-20000-0-67143	0	353	67143	1	MANANJARY			0	48.37	-21.2				1	0	63			Mananjary																L.Haimberger	0
353	0-20000-0-06621	0	354	10934	1	GUETTINGEN			0	9.28	47.6				1	0	63			Friedrichshafen																L.Haimberger	0
354	0-20000-0-40186	0	355	40186	1	ASHDOD NORTH			0	34.68	31.87				1	0	63			Yavne																L.Haimberger	0
355	0-20000-0-44282	0	356	44282	1	TSETSERLEG			0	101.46	47.47				1	0	63			Bulgan																L.Haimberger	0
356	0-20000-0-95767	0	357	94772	1	LAKE MACQUARIE AWS			0	151.46	-33.09				1	0	63			Newcastle																L.Haimberger	0
357	0-20000-0-66410	0	358	66410	1	MENONGUE (SERPA PINTO)			0	17.68	-14.65				1	0	63			Menongue																L.Haimberger	0
358	0-20000-0-16641	0	359	16641	1	KERKYRA (AIRPORT)			0	19.91	39.61				1	0	63			Kerkira																L.Haimberger	0
359	0-20000-0-58141	0	360	58144	1	HUAIYIN			0	118.93	33.63				1	0	63			Huaiyin																L.Haimberger	0
360	0-20000-0-10315	0	361	10307	1	MUENSTER/OSNABRUECK			0	7.7	52.13				1	0	63			Rheine																L.Haimberger	0
361	0-20000-0-44218	0	362	44218	1	HOVD			0	91.63	48.0				1	0	63			Ulaangom																L.Haimberger	0
362		0	363	74207	1				0						1	0	63			None																L.Haimberger	0
363	0-20000-0-62435	0	364	62435	1	KHARGA AGRIMET			0	30.54	25.46				1	0	63			Sohag																L.Haimberger	0
364	0-20000-0-62103	0	365	62103	1	GHADAMES			0	9.49	30.11				1	0	63			Nalut																L.Haimberger	0
365		0	366	48901	1				0						1	0	63			Bien Hoa																L.Haimberger	0
366		0	367	62055	1				0						1	0	63			Ajdabiya																L.Haimberger	0
367	0-20000-0-47102	0	368	47103	1	BAENGNYEONGDO			0	124.71	37.97				1	0	63			Seoul																L.Haimberger	0
368		0	369	72677	1				0						1	0	63			None																L.Haimberger	0
369	0-20000-0-55664	0	370	55664	1	TINGRI			0	87.08	28.63				1	0	63			Khandbari																L.Haimberger	0
370	0-20000-0-30710	0	371	30719	1	IRKUTSK (30710-0)			0	104.32	52.27				1	0	63			Irkutsk																L.Haimberger	0
371	0-20000-0-96607	0	372	96607	1	SAMARINDA/TEMINDUNG			0	117.16	-0.48				1	0	63			Loa Janan																L.Haimberger	0
372	0-20000-0-40938	0	373	40938	1	HERAT			0	62.22	34.22				1	0	63			Herat																L.Haimberger	0
373	0-20000-0-55773	0	374	55773	1	PAGRI			0	89.08	27.73				1	0	63			Gangtok																L.Haimberger	0
374	0-20000-0-48109	0	375	48109	1	COCO ISLAND			0	93.37	14.12				1	0	63			Labutta																L.Haimberger	0
375	0-20000-0-96565	0	376	96565	1	PUTUSSIBAU/PAGSUMA			0	112.93	0.88				1	0	63			Kapit																L.Haimberger	0
376		0	377	72224	1				0						1	0	63			None																L.Haimberger	0
377	0-20000-0-10513	0	378	10513	1	KOELN/BONN			0	7.16	50.86				1	0	63			Rosrath																L.Haimberger	0
378	0-20000-0-92087	0	379	94087	1	MISIMA W.O.			0	152.83	-10.68				1	0	63			Alotau																L.Haimberger	0
379	0-20000-0-62805	0	380	62805	1	DAMAZINE			0	34.38	11.78				1	0	63			Sinjah																L.Haimberger	0
380		0	381	48858	1				0						1	0	63			Play Cu																L.Haimberger	0
381	0-20000-0-91577	0	382	91577	1	KOUMAC (NLLE-CALEDONIE)			0	164.28	-20.56				1	0	63			Paita																L.Haimberger	0
382	0-20000-0-43367	0	383	43368	1	CAR NICOBAR			0	92.83	9.17				1	0	63			Port Blair																L.Haimberger	0
383	0-20000-0-59362	0	384	59362	1	HUALIAN			0	121.62	24.02				1	0	63			Puli																L.Haimberger	0
384	0-20000-0-47108	0	385	47110	1	SEOUL			0	126.97	37.57				1	0	63			Seoul																L.Haimberger	0
385	0-20000-0-64401	0	386	64401	1	DOLISIE			0	12.7	-4.2				1	0	63			Loubomo																L.Haimberger	0
386	0-20000-0-48042	0	387	48042	1	MANDALAY			0	96.09	21.94				1	0	63			Mandalay																L.Haimberger	0
387	0-20000-0-66422	0	388	66422	1	MOCAMEDES			0	12.15	-15.2				1	0	63			Namibe																L.Haimberger	0
388		0	389	74611	1				0						1	0	63			None																L.Haimberger	0
389	0-20000-0-60475	0	390	60475	1	TEBESSA			0	8.12	35.47				1	0	63			Talah																L.Haimberger	0
390	0-20000-0-16749	0	391	16749	1	RHODES (AIRPORT)			0	28.09	36.4				1	0	63			Ialisos																L.Haimberger	0
391		0	392	51895	1				0						1	0	63			Hami																L.Haimberger	0
392	0-20000-0-11030	0	393	11030	1	WIEN/HOHE WARTE (11035-1)			0	16.36	48.25				1	0	63			Tulln																L.Haimberger	0
393	0-20000-0-67867	0	394	67867	1	GWERU			0	29.85	-19.45				1	0	63			Gweru																L.Haimberger	0
394	0-20000-0-65201	0	395	65202	1	LAGOS/OSHODI			0	3.38	6.5				1	0	63			Lagos																L.Haimberger	0
395	0-20000-0-58527	0	396	58527	1	JINGDEZHEN			0	117.17	29.31				1	0	63			Jingdezhen																L.Haimberger	0
396		0	397	72423	1				0						1	0	63			None																L.Haimberger	0
397		0	398	72326	1				0						1	0	63			None																L.Haimberger	0
398	0-20000-0-13067	0	399	13067	1	PALIC			0	19.77	46.1				1	0	63			Subotica																L.Haimberger	0
399	0-20000-0-67023	0	400	67023	1	SAMBAVA			0	50.17	-14.28				1	0	63			Sambava																L.Haimberger	0
400	0-20000-0-38062	0	401	38061	1	Tasboget AMS			0	65.53	44.77				1	0	63			Tasbuget																L.Haimberger	0
401	0-20000-0-67633	0	402	67633	1	MONGU			0	23.15	-15.25				1	0	63			Mongu																L.Haimberger	0
402	0-20000-0-41675	0	403	41675	1	MULTAN			0	71.43	30.2				1	0	63			Multan																L.Haimberger	0
403	0-20000-0-47765	0	404	47765	1	HIROSHIMA			0	132.46	34.4				1	0	63			Hatsukaichi																L.Haimberger	0
404		0	405	94650	1				0						1	0	63			Flinders																L.Haimberger	0
405		0	406	72225	1				0						1	0	63			None																L.Haimberger	0
406		0	407	72268	1				0						1	0	63			None																L.Haimberger	0
407		0	408	72546	1				0						1	0	63			None																L.Haimberger	0
408	0-20000-0-53231	0	409	53231	1	HAILS			0	106.38	41.45				1	0	63			Dongsheng																L.Haimberger	0
409	0-20001-0-29634	0	410	29637	1	NOVOSIBIRSK (29634-1)			0	82.95	54.97				1	0	63			Krasnoobsk																L.Haimberger	0
410		0	411	72405	1				0						1	0	63			None																L.Haimberger	0
411	0-20000-0-67117	0	412	67117	1	MORONDAVA			0	44.32	-20.28				1	0	63			Morondava																L.Haimberger	0
412	0-20000-0-64753	0	413	64753	1	FAYA			0	19.17	18.0				1	0	63			Faya																L.Haimberger	0
413	0-20000-0-06496	0	414	6496	1	ELSENBORN			0	6.18	50.48				1	0	63			Monschau																L.Haimberger	0
414	0-20000-0-50745	0	415	50745	1	QIQIHAR			0	123.92	47.38				1	0	63			Qiqihar																L.Haimberger	0
415		0	416	63799	1				0						1	0	63			Malindi																L.Haimberger	0
416	0-20000-0-57799	0	417	57799	1	JI'AN (57799-0)			0	114.97	27.12				1	0	63			Jian																L.Haimberger	0
417	0-20000-0-59007	0	418	59007	1	GUANGNAN			0	105.07	24.07				1	0	63			Kaihua																L.Haimberger	0
418	0-20000-0-56374	0	419	56374	1	KANGDING			0	101.97	30.05				1	0	63			Yaan																L.Haimberger	0
419	0-20000-0-56079	0	420	56079	1	RUO'ERGAI			0	102.96	33.59				1	0	63			Linxia																L.Haimberger	0
420		0	421	72525	1				0						1	0	63			None																L.Haimberger	0
421	0-20000-0-07690	0	422	7690	1	NICE			0	7.21	43.65				1	0	63			Saint-Laurent-Du-Var																L.Haimberger	0
422	0-20000-0-14307	0	423	13208	1	PULA AERODROME			0	13.93	44.9				1	0	63			Pula																L.Haimberger	0
423		0	424	46902	1				0						1	0	63			Panacan																L.Haimberger	0
424		0	425	72753	1				0						1	0	63			None																L.Haimberger	0
425	0-20000-0-68014	0	426	68014	1	GROOTFONTEIN			0	18.12	-19.6				1	0	63			Grootfontein																L.Haimberger	0
426	0-20000-0-59559	0	427	46752	1	HENGCHUN			0	120.75	22.0				1	0	63			Tungkang																L.Haimberger	0
427	0-20000-0-47575	0	428	47575	1	AOMORI			0	140.77	40.82				1	0	63			Namioka																L.Haimberger	0
428	0-20000-0-56586	0	429	56586	1	ZHAOTONG			0	103.75	27.33				1	0	63			Zhaotong																L.Haimberger	0
429	0-20000-0-67775	0	430	67775	1	HARARE (BELVEDERE)			0	31.02	-17.83				1	0	63			Chitungwiza																L.Haimberger	0
430	0-20000-0-63021	0	431	63021	1	ASMARA			0	38.92	15.28				1	0	63			Asmara																L.Haimberger	0
431	0-20000-0-62660	0	432	62660	1	KARIMA			0	31.85	18.55				1	0	63			Marawi																L.Haimberger	0
432		0	433	74207	1				0						1	0	63			None																L.Haimberger	0
433		0	434	48913	1				0						1	0	63			Soc Trang																L.Haimberger	0
434	0-20000-0-47893	0	435	47893	1	KOCHI (47893-0)			0	133.55	33.57				1	0	63			Ino																L.Haimberger	0
435	0-20000-0-41194	0	436	40449	1	DUBAI INTERNATIONAL AIRPORT			0	55.33	25.25				1	0	63			Sharjah																L.Haimberger	0
436		0	437	72783	1				0						1	0	63			None																L.Haimberger	0
437	0-20000-0-57662	0	438	57662	1	CHANGDE			0	111.68	29.05				1	0	63			Changde																L.Haimberger	0
438		0	439	42704	1				0						1	0	63			Asansol																L.Haimberger	0
439	0-20000-0-06030	0	440	6030	1	FLYVESTATION AALBORG			0	9.85	57.1				1	0	63			Aalborg																L.Haimberger	0
440	0-20000-0-42634	0	441	42634	1	BHUJ-RUDRAMATA			0	69.8	23.25				1	0	63			Bhuj																L.Haimberger	0
441	0-20000-0-63793	0	442	63793	1	VOI			0	38.58	-3.38				1	0	63			Voi																L.Haimberger	0
442		0	443	46902	1				0						1	0	63			Panacan																L.Haimberger	0
443	0-20000-0-54602	0	444	54602	1	BAODING			0	115.48	38.73				1	0	63			Baoding																L.Haimberger	0
444	0-20000-0-17302	0	445	17300	1	ANTALYA-BOLGE			0	30.7	36.87				1	0	63			Antalya																L.Haimberger	0
445	0-20000-0-22165	0	446	22165	1	KANIN NOS			0	43.29	68.66				1	0	63			Arkhangelsk																L.Haimberger	0
446	0-20000-0-40627	0	447	69009	1	AL-KAEM			0	41.02	34.38				1	0	63			Abu Kamal																L.Haimberger	0
447	0-20000-0-64756	0	448	64756	1	ABECHE			0	20.85	13.85				1	0	63			Abeche																L.Haimberger	0
448	0-20000-0-94568	0	449	94568	1	AMBERLEY AMO			0	152.71	-27.63				1	0	63			Brisbane																L.Haimberger	0
449	0-20000-0-62880	0	450	62880	1	WAU			0	28.02	7.7				1	0	63			Waw																L.Haimberger	0
450	0-20000-0-47800	0	451	47800	1	IZUHARA (47800-0)			0	129.29	34.2				1	0	63			Hirado																L.Haimberger	0
451		0	452	72414	1				0						1	0	63			None																L.Haimberger	0
452	0-20000-0-40690	0	453	40689	1	BASRAH INT. AIRPORT			0	47.78	30.52				1	0	63			Khorramshahr																L.Haimberger	0
453	0-20000-0-62271	0	454	62271	1	KUFRA			0	23.3	24.2				1	0	63			None																L.Haimberger	0
454	0-20000-0-63862	0	455	63862	1	DODOMA			0	35.77	-6.17				1	0	63			Dodoma																L.Haimberger	0
455		0	456	72483	1				0						1	0	63			None																L.Haimberger	0
456		0	457	60535	1				0						1	0	63			Birin																L.Haimberger	0
457		0	458	72591	1				0						1	0	63			None																L.Haimberger	0
458	0-20000-0-47981	0	459	91115	1	IWOTO			0	141.32	24.78				1	0	63			None																L.Haimberger	0
459	0-20000-0-48094	0	460	48094	1	PATHEIN			0	94.77	16.77				1	0	63			Pathein																L.Haimberger	0
460	0-20000-0-48887	0	461	48887	1	PHAN THIET			0	108.1	10.93				1	0	63			Phan Thiet																L.Haimberger	0
461	0-20000-0-67663	0	462	67663	1	KABWE			0	28.47	-14.45				1	0	63			Kabwe																L.Haimberger	0
462		0	463	74619	1				0						1	0	63			None																L.Haimberger	0
463	0-434-0-62059	0	464	62059	1	DERNA			0	22.58	32.78				1	0	63			Darnah																L.Haimberger	0
464	0-20000-0-60550	0	465	60550	1	EL-BAYADH			0	1.08	33.72				1	0	63			Aflu																L.Haimberger	0
465	0-20000-0-59417	0	466	59417	1	LONGZHOU			0	106.75	22.37				1	0	63			Lang Son																L.Haimberger	0
466		0	467	72793	1				0						1	0	63			None																L.Haimberger	0
467	0-20000-0-58752	0	468	58659	1	RUIAN			0	120.65	27.78				1	0	63			Wenzhou																L.Haimberger	0
468	0-20000-0-94238	0	469	94238	1	TENNANT CREEK AIRPORT			0	134.18	-19.64				1	0	63			Alice Springs																L.Haimberger	0
469		0	470	71625	1				0						1	0	63			None																L.Haimberger	0
470		0	471	62840	1				0						1	0	63			Malakal																L.Haimberger	0
471	0-20000-0-30636	0	472	30636	1	BARGUZIN			0	109.63	53.62				1	0	63			Onokhoy																L.Haimberger	0
472	0-20000-0-53698	0	473	53698	1	SHIJIAZHUANG			0	114.38	38.02				1	0	63			Luancheng																L.Haimberger	0
473	0-20000-0-10418	0	474	10419	1	LUEDENSCHEID			0	7.64	51.25				1	0	63			Iserlohn																L.Haimberger	0
474	0-20000-0-48097	0	475	48097	1	YANGON			0	96.15	16.86				1	0	63			Rangoon																L.Haimberger	0
475	0-20000-0-67586	0	476	67586	1	LILONGWE INT'L AIRPORT			0	33.77	-13.78				1	0	63			Lilongwe																L.Haimberger	0
476		0	477	47963	1				0						1	0	63			Shimoda																L.Haimberger	0
477		0	478	23074	1				0						1	0	63			Dudinka																L.Haimberger	0
478	0-20000-0-64459	0	479	64459	1	IMPFONDO			0	18.07	1.62				1	0	63			Impfondo																L.Haimberger	0
479	0-20000-0-58040	0	480	58040	1	GANYU			0	119.13	34.85				1	0	63			Gaogou																L.Haimberger	0
480	0-20000-0-03590	0	481	3590	1	WATTISHAM			0	0.96	52.12				1	0	63			Ipswich																L.Haimberger	0
481	0-20000-0-41571	0	482	41571	1	ISLAMABAD AIRPORT			0	73.1	33.62				1	0	63			Rawalpindi																L.Haimberger	0
482	0-20000-0-16622	0	483	16620	1	THESSALONIKI (AIRPORT)			0	22.97	40.53				1	0	63			Thermi																L.Haimberger	0
483	0-20000-0-51573	0	484	51573	1	TURPAN			0	89.23	42.95				1	0	63			Urumqi																L.Haimberger	0
484	0-20000-0-48431	0	485	48431	1	NAKHON RATCHASIMA			0	102.09	14.97				1	0	63			Nakhon Ratchasima																L.Haimberger	0
485		0	486	91170	1				0						1	0	63			None																L.Haimberger	0
486	0-20000-0-47426	0	487	47426	1	URAKAWA			0	142.78	42.16				1	0	63			Shizunai																L.Haimberger	0
487	0-20000-0-54776	0	488	54776	1	CHENGSHANTOU			0	122.68	37.4				1	0	63			Yatou																L.Haimberger	0
488		0	489	72303	1				0						1	0	63			None																L.Haimberger	0
489	0-20000-0-61978	0	490	61984	1	PITON VILLERS RADAR			0	55.57	-21.19				1	0	63			Saint-Pierre																L.Haimberger	0
490		0	491	98135	1				0						1	0	63			Claveria																L.Haimberger	0
491		0	492	72617	1				0						1	0	63			None																L.Haimberger	0
492	0-20000-0-67262	0	493	67261	1	TETE CHINGODZE			0	33.65	-16.12				1	0	63			Tete																L.Haimberger	0
493	0-20000-0-53898	0	494	53898	1	ANYANG			0	114.13	36.05				1	0	63			Anyang																L.Haimberger	0
494	0-20000-0-15310	0	495	15310	1	GALATI			0	28.03	45.47				1	0	63			Galati																L.Haimberger	0
495		0	496	96773	1				0						1	0	63			Subang																L.Haimberger	0
496	0-20000-0-06456	0	497	6456	1	FLORENNES			0	4.65	50.23				1	0	63			Florennes																L.Haimberger	0
497	0-20000-0-91232	0	498	91232	1	SAIPAN (CG), MARIANA IS.			0	145.73	15.12				1	0	63			None																L.Haimberger	0
498	0-20000-0-01492	0	499	1492	1	OSLO-BLINDERN (1492-1)			0	10.72	59.94				1	0	63			Oslo																L.Haimberger	0
499	0-20000-0-14445	0	500	13334	1	SPLIT/MARJAN			0	16.43	43.51				1	0	63			Split																L.Haimberger	0
500	0-20000-0-06490	0	501	6490	1	SPA/LA SAUVENIERE			0	5.91	50.48				1	0	63			Spa																L.Haimberger	0
501	0-20000-0-48110	0	502	48110	1	Myeik			0	98.6	12.43				1	0	63			Mergui																L.Haimberger	0
502		0	503	74755	1				0						1	0	63			None																L.Haimberger	0
503	0-20000-0-42071	0	504	42071	1	AMRITSAR			0	74.87	31.63				1	0	63			Amritsar																L.Haimberger	0
504	0-20000-0-47670	0	505	47670	1	YOKOHAMA			0	139.65	35.44				1	0	63			Kawasaki																L.Haimberger	0
505	0-20000-0-33036	0	506	33036	1	MOZYR			0	29.19	52.04				1	0	63			Mazyr																L.Haimberger	0
506	0-20000-0-42539	0	507	42539	1	DEESA			0	72.2	24.2				1	0	63			Disa																L.Haimberger	0
507	0-20000-0-42840	0	508	42840	1	SURAT (42840-0)			0	72.83	21.2				1	0	63			Utran																L.Haimberger	0
508		0	509	53546	1				0						1	0	63			Dongsheng																L.Haimberger	0
509	0-20000-0-07190	0	510	7190	1	STRASBOURG-ENTZHEIM			0	7.64	48.55				1	0	63			Lingolsheim																L.Haimberger	0
510	0-20000-0-42895	0	511	42895	1	BALASORE			0	86.93	21.52				1	0	63			Baleshwar																L.Haimberger	0
511	0-20000-0-42706	0	512	42706	1	BANKURA			0	87.08	23.38				1	0	63			Bankura																L.Haimberger	0
512	0-20000-0-33966	0	513	33966	1	Bilohirsk			0	34.6	45.05				1	0	63			Sudak																L.Haimberger	0
513	0-20000-0-15200	0	514	15200	1	ARAD			0	21.35	46.13				1	0	63			Arad																L.Haimberger	0
514	0-20000-0-68727	0	515	68728	1	BEAUFORT WEST			0	22.57	-32.35				1	0	63			Oudtshoorn																L.Haimberger	0
515	0-20000-0-14445	0	516	13334	1	SPLIT/MARJAN			0	16.43	43.51				1	0	63			Split																L.Haimberger	0
516	0-20000-0-07747	0	517	7747	1	PERPIGNAN			0	2.87	42.74				1	0	63			Perpignan																L.Haimberger	0
517	0-20000-0-60402	0	518	60402	1	BEJAIA-AEROPORT			0	5.07	36.72				1	0	63			Timizart																L.Haimberger	0
518	0-20000-0-98747	0	519	98747	1	LUMBIA AIRPORT			0	124.61	8.41				1	0	63			Cagayan De Oro																L.Haimberger	0
519	0-20000-0-16642	0	520	16642	1	IOANNINA (AIRPORT)			0	20.82	39.69				1	0	63			Ioannina																L.Haimberger	0
520	0-20000-0-68242	0	521	68242	1	MAFIKENG			0	25.54	-25.8				1	0	63			Mmabatho																L.Haimberger	0
521	0-20000-0-67781	0	522	67781	1	MUTOKO			0	32.22	-17.42				1	0	63			Mutoko																L.Haimberger	0
522	0-20000-0-61974	0	523	61974	1	AGALEGA			0	56.6	-10.38				1	0	63			None																L.Haimberger	0
523		0	524	72534	1				0						1	0	63			None																L.Haimberger	0
524	0-20000-0-36883	0	525	36880	1	ILIYSKY			0	76.98	43.48				1	0	63			Energeticheskiy																L.Haimberger	0
525	0-20000-0-47844	0	526	47816	1	FUKUE AIRPORT			0	128.83	32.67				1	0	63			Fukue																L.Haimberger	0
526		0	527	48901	1				0						1	0	63			Bien Hoa																L.Haimberger	0
527	0-20000-0-33966	0	528	33966	1	Bilohirsk			0	34.6	45.05				1	0	63			Sudak																L.Haimberger	0
528	0-20000-0-57411	0	529	57411	1	GAOPING			0	106.13	30.75				1	0	63			Nanchong																L.Haimberger	0
529	0-20000-0-94174	0	530	94175	1	HORN ISLAND			0	142.29	-10.58				1	0	63			Daru																L.Haimberger	0
530	0-20000-0-06400	0	531	6400	1	KOKSIJDE			0	2.65	51.09				1	0	63			Koksijde																L.Haimberger	0
531	0-20000-0-98747	0	532	98747	1	LUMBIA AIRPORT			0	124.61	8.41				1	0	63			Cagayan De Oro																L.Haimberger	0
532	0-20000-0-67853	0	533	67853	1	HWANGE NATIONAL PARK			0	27.0	-18.63				1	0	63			Hwange																L.Haimberger	0
533	0-20000-0-95767	0	534	94772	1	LAKE MACQUARIE AWS			0	151.46	-33.09				1	0	63			Newcastle																L.Haimberger	0
534	0-20000-0-42328	0	535	42328	1	JAISALMER			0	70.92	26.9				1	0	63			Jaisalmer																L.Haimberger	0
535	0-20000-0-47143	0	536	47142	1	DAEGU			0	128.65	35.83				1	0	63			Seoul																L.Haimberger	0
536	0-20000-0-68242	0	537	68242	1	MAFIKENG			0	25.54	-25.8				1	0	63			Mmabatho																L.Haimberger	0
537	0-20000-0-43296	0	538	43296	1	BANGALORE			0	77.58	12.97				1	0	63			Bangalore																L.Haimberger	0
538	0-20000-0-68328	0	539	68328	1	TSABONG			0	22.45	-26.05				1	0	63			Vryburg																L.Haimberger	0
539	0-20000-0-48948	0	540	48948	1	SENO			0	105.0	16.67				1	0	63			Savannakhet																L.Haimberger	0
540	0-20000-0-63820	0	541	63820	1	MOMBASA INTERNATIONAL AIRPORT			0	39.56	-4.05				1	0	63			Mombasa																L.Haimberger	0
541		0	542	60625	1				0						1	0	63			Adrar																L.Haimberger	0
542		0	543	3649	1				0						1	0	63			None																L.Haimberger	0
543	0-20000-0-47981	0	544	91115	1	IWOTO			0	141.32	24.78				1	0	63			None																L.Haimberger	0
544		0	545	72434	1				0						1	0	63			None																L.Haimberger	0
545	0-20000-0-48080	0	546	48080	1	Thandwe			0	94.35	18.47				1	0	63			Pyay																L.Haimberger	0
546		0	547	48867	1				0						1	0	63			Qui Nhon																L.Haimberger	0
547	0-20000-0-06496	0	548	6496	1	ELSENBORN			0	6.18	50.48				1	0	63			Monschau																L.Haimberger	0
548		0	549	12577	1				0						1	0	63			Mielec																L.Haimberger	0
549	0-20000-0-68032	0	550	68032	1	MAUN			0	23.42	-19.98				1	0	63			Maun																L.Haimberger	0
550		0	551	72639	1				0						1	0	63			None																L.Haimberger	0
551	0-20000-0-48042	0	552	48042	1	MANDALAY			0	96.09	21.94				1	0	63			Mandalay																L.Haimberger	0
552	0-20000-0-63832	0	553	63832	1	TABORA AIRPORT			0	32.83	-5.08				1	0	63			Tabora																L.Haimberger	0
553	0-20000-0-98836	0	554	98836	1	ZAMBOANGA			0	122.07	6.9				1	0	63			Zamboanga																L.Haimberger	0
554	0-20000-0-54776	0	555	54776	1	CHENGSHANTOU			0	122.68	37.4				1	0	63			Yatou																L.Haimberger	0
555		0	556	50873	1				0						1	0	63			Jiamusi																L.Haimberger	0
556		0	557	72308	1				0						1	0	63			None																L.Haimberger	0
557	0-20000-0-54753	0	558	54753	1	LONGKOU			0	120.32	37.62				1	0	63			Longkou																L.Haimberger	0
558	0-20000-0-96751	0	559	96755	1	BOGOR/CITEKO			0	106.95	-6.7				1	0	63			Sukaraja																L.Haimberger	0
559	0-20000-0-97430	0	560	97430	1	TERNATE/BABULLAH			0	127.38	0.83				1	0	63			Ternate																L.Haimberger	0
560		0	561	72225	1				0						1	0	63			None																L.Haimberger	0
561	0-20000-0-58911	0	562	58911	1	CHANGTING			0	116.37	25.85				1	0	63			Longyan																L.Haimberger	0
562	0-20000-0-59358	0	563	46741	1	TAINAN			0	120.22	23.0				1	0	63			Tainan																L.Haimberger	0
563	0-20000-0-62465	0	564	62465	1	KOSSEIR			0	34.26	26.14				1	0	63			Safaga																L.Haimberger	0
564		0	565	72480	1				0						1	0	63			None																L.Haimberger	0
565	0-20000-0-47651	0	566	47650	1	TSU			0	136.52	34.73				1	0	63			Kameyama																L.Haimberger	0
566	0-20000-0-54012	0	567	54012	1	XI UJIMQIN QI			0	117.6	44.58				1	0	63			Chifeng																L.Haimberger	0
567	0-20000-0-47761	0	568	47761	1	HIKONE			0	136.24	35.28				1	0	63			Hikone																L.Haimberger	0
568		0	569	48851	1				0						1	0	63			Hue																L.Haimberger	0
569	0-20000-0-59345	0	570	59345	1	MAGONG			0	119.57	23.52				1	0	63			Makung																L.Haimberger	0
570	0-20000-0-43110	0	571	43110	1	RATNAGIRI			0	73.33	16.98				1	0	63			Ratnagiri																L.Haimberger	0
571		0	572	72256	1				0						1	0	63			None																L.Haimberger	0
572	0-20000-0-47657	0	573	47657	1	MISHIMA			0	138.93	35.11				1	0	63			Mishima																L.Haimberger	0
573		0	574	63624	1				0						1	0	63			Mandera																L.Haimberger	0
574	0-20000-0-03482	0	575	3476	1	MARHAM			0	0.57	52.65				1	0	63			Bury Saint Edmunds																L.Haimberger	0
575	0-20000-0-67663	0	576	67666	1	KABWE			0	28.47	-14.45				1	0	63			Lusaka																L.Haimberger	0
576	0-20000-0-63695	0	577	63695	1	MERU			0	37.65	0.05				1	0	63			Meru																L.Haimberger	0
577		0	578	60608	1				0						1	0	63			Warqla																L.Haimberger	0
578		0	579	72683	1				0						1	0	63			None																L.Haimberger	0
579	0-20000-0-41883	0	580	41858	1	BOGRA			0	89.37	24.85				1	0	63			Jaipur Hat																L.Haimberger	0
580	0-20000-0-32099	0	581	32099	1	MYS TERPENIYA			0	144.73	48.65				1	0	63			Poronaysk																L.Haimberger	0
581	0-20000-0-54115	0	582	54115	1	LINXI			0	118.03	43.63				1	0	63			Chifeng																L.Haimberger	0
582	0-20000-0-60607	0	583	60607	1	TIMIMOUN			0	0.28	29.25				1	0	63			Adrar																L.Haimberger	0
583	0-20000-0-68040	0	584	68040	1	LETLHAKANE			0	25.6	-21.42				1	0	63			Letlhakane																L.Haimberger	0
584	0-20000-0-48918	0	585	48918	1	CON SON			0	106.6	8.68				1	0	63			Bac Lieu																L.Haimberger	0
585		0	586	48851	1				0						1	0	63			Hue																L.Haimberger	0
586	0-20000-0-07240	0	587	7240	1	TOURS			0	0.73	47.44				1	0	63			Tours																L.Haimberger	0
587	0-20000-0-48900	0	588	48896	1	TAN SON HOA			0	106.67	10.82				1	0	63			Bien Hoa																L.Haimberger	0
588		0	589	72569	1				0						1	0	63			None																L.Haimberger	0
589	0-20000-0-10033	0	590	10034	1	GLUECKSBURG-MEIERWIK			0	9.51	54.83				1	0	63			Flensburg																L.Haimberger	0
590		0	591	74531	1				0						1	0	63			None																L.Haimberger	0
591		0	592	48849	1				0						1	0	63			Hue																L.Haimberger	0
592	0-20000-0-62440	0	593	62438	1	ISMAILIA			0	32.25	30.59				1	0	63			Ismailia																L.Haimberger	0
593		0	594	23074	1				0						1	0	63			Dudinka																L.Haimberger	0
594	0-20000-0-10033	0	595	10034	1	GLUECKSBURG-MEIERWIK			0	9.51	54.83				1	0	63			Flensburg																L.Haimberger	0
595	0-20000-0-56462	0	596	56462	1	JIULONG			0	101.5	29.0				1	0	63			Xichang																L.Haimberger	0
596	0-20000-0-48062	0	597	48062	1	SITTWE			0	92.88	20.13				1	0	63			Akyab																L.Haimberger	0
597	0-20000-0-10315	0	598	10307	1	MUENSTER/OSNABRUECK			0	7.7	52.13				1	0	63			Rheine																L.Haimberger	0
598	0-20000-0-48400	0	599	48400	1	NAKHON SAWAN			0	100.13	15.67				1	0	63			Nakhon Sawan																L.Haimberger	0
599	0-20000-0-33036	0	600	33036	1	MOZYR			0	29.19	52.04				1	0	63			Mazyr																L.Haimberger	0
600	0-20000-0-01025	0	601	1030	1	TROMSO/LANGNES			0	18.91	69.68				1	0	63			Tromso																L.Haimberger	0
601		0	602	48864	1				0						1	0	63			Tam Ky																L.Haimberger	0
602	0-20000-0-06450	0	603	6450	1	ANTWERPEN/DEURNE			0	4.46	51.19				1	0	63			Mortsel																L.Haimberger	0
603	0-20000-0-07190	0	604	7190	1	STRASBOURG-ENTZHEIM			0	7.64	48.55				1	0	63			Lingolsheim																L.Haimberger	0
604	0-20000-0-62332	0	605	62332	1	PORT SAID/EL GAMIL			0	32.24	31.28				1	0	63			Port Said																L.Haimberger	0
605	0-20000-0-62019	0	606	62019	1	SIRTE			0	16.57	31.21				1	0	63			Surt																L.Haimberger	0
606	0-20000-0-95676	0	607	94677	1	ADELAIDE AIRPORT			0	138.52	-34.95				1	0	63			Adelaide																L.Haimberger	0
607	0-20000-0-40340	0	608	40199	1	AQABA AIRPORT			0	35.0	29.55				1	0	63			Elat																L.Haimberger	0
608	0-20000-0-61968	0	609	61968	1	ILES GLORIEUSES			0	47.29	-11.58				1	0	63			Dzaoudzi																L.Haimberger	0
609	0-20000-0-48378	0	610	48378	1	PHITSANULOK			0	100.28	16.8				1	0	63			Phitsanulok																L.Haimberger	0
610	0-894-1-ksm0014	0	611	67475	1	KASAMA			0	31.13	-10.22				1	0	63			Kasama																L.Haimberger	0
611		0	612	70266	1				0						1	0	63			None																L.Haimberger	0
612	0-20000-0-67161	0	613	67161	1	TOLIARA			0	43.73	-23.38				1	0	63			Toliary																L.Haimberger	0
613	0-20000-0-59358	0	614	46741	1	TAINAN			0	120.22	23.0				1	0	63			Tainan																L.Haimberger	0
614		0	615	72468	1				0						1	0	63			None																L.Haimberger	0
615	0-20000-0-93891	0	616	93890	1	DUNEDIN AERO AWS			0	170.2	-45.93				1	0	63			Dunedin																L.Haimberger	0
616		0	617	48881	1				0						1	0	63			Da Lat																L.Haimberger	0
617		0	618	72408	1				0						1	0	63			None																L.Haimberger	0
618	0-20000-0-65125	0	619	65125	1	ABUJA			0	7.0	9.25				1	0	63			Abuja																L.Haimberger	0
619	0-20000-0-61931	0	620	61931	1	S. TOME			0	6.72	0.38				1	0	63			Port-Gentil																L.Haimberger	0
620	0-20000-0-48900	0	621	48896	1	TAN SON HOA			0	106.67	10.82				1	0	63			Bien Hoa																L.Haimberger	0
621	0-20000-0-97192	0	622	97192	1	BAU-BAU/BETO AMBARI			0	122.57	-5.49				1	0	63			Katobu																L.Haimberger	0
622	0-20000-0-55578	0	623	55578	1	XIGAZE			0	88.88	29.25				1	0	63			Punakha																L.Haimberger	0
623	0-20000-0-67237	0	624	67237	1	NAMPULA			0	39.28	-15.1				1	0	63			Nampula																L.Haimberger	0
624	0-20000-0-58849	0	625	46689	1	MAZU			0	119.93	26.17				1	0	63			Fuzhou																L.Haimberger	0
625	0-20000-0-56247	0	626	56247	1	BATANG			0	99.1	30.0				1	0	63			Tezu																L.Haimberger	0
626	0-20000-0-68438	0	627	68438	1	KIMBERLEY			0	24.77	-28.81				1	0	63			Kimberley																L.Haimberger	0
627		0	628	3649	1				0						1	0	63			None																L.Haimberger	0
628	0-20000-0-63661	0	629	63661	1	KITALE			0	34.99	1.0				1	0	63			Kitale																L.Haimberger	0
629	0-20000-0-06391	0	630	10404	1	ARCEN AWS			0	6.2	51.5				1	0	63			Goch																L.Haimberger	0
630	0-20000-0-41170	0	631	40428	1	HAMAD INTERNATIONAL AIRPORT			0	51.61	25.27				1	0	63			Doha																L.Haimberger	0
631	0-20000-0-40821	0	632	40821	1	YAZD			0	54.29	31.9				1	0	63			Yazd																L.Haimberger	0
632	0-20000-0-41620	0	633	41620	1	ZHOB			0	69.47	31.35				1	0	63			Zhob																L.Haimberger	0
633	0-20000-0-59158	0	634	46751	1	TAIZHONG			0	120.68	24.15				1	0	63			Taichung																L.Haimberger	0
634	0-20000-0-42675	0	635	42675	1	JABALPUR			0	79.95	23.2				1	0	63			Jabalpur																L.Haimberger	0
635	0-20000-0-12105	0	636	12105	1	KOSZALIN			0	16.16	54.2				1	0	63			Koszalin																L.Haimberger	0
636		0	637	94027	1				0						1	0	63			Lae																L.Haimberger	0
637	0-20000-0-60780	0	638	60780	1	EL BORMA			0	9.3	31.68				1	0	63			Nalut																L.Haimberger	0
638	0-20000-0-96595	0	639	96595	1	MUARA TEWEH/BERINGIN			0	114.9	-0.94				1	0	63			Amuntai																L.Haimberger	0
639	0-20001-0-37055	0	640	37055	1	MINERAL'NYE VODY (37055-1)			0	43.1	44.22				1	0	63			Mineralnyye Vody																L.Haimberger	0
640		0	641	72273	1				0						1	0	63			None																L.Haimberger	0
641		0	642	91182	1				0						1	0	63			None																L.Haimberger	0
642		0	643	72239	1				0						1	0	63			None																L.Haimberger	0
643	0-20000-0-65125	0	644	65125	1	ABUJA			0	7.0	9.25				1	0	63			Abuja																L.Haimberger	0
644	0-20000-0-60430	0	645	60430	1	MILIANA			0	2.23	36.3				1	0	63			Medea																L.Haimberger	0
645	0-20000-0-60550	0	646	60550	1	EL-BAYADH			0	1.08	33.72				1	0	63			Aflu																L.Haimberger	0
646	0-20000-0-56492	0	647	56492	1	YIBIN			0	104.6	28.77				1	0	63			Yibin																L.Haimberger	0
647	0-20000-0-67004	0	648	67004	1	OUANI (ANJOUAN)			0	44.43	-12.12				1	0	63			Mutsamudu																L.Haimberger	0
648	0-20000-0-62392	0	649	62393	1	ASYUT - AGRIMET			0	31.17	27.2				1	0	63			Asyut																L.Haimberger	0
649		0	650	72239	1				0						1	0	63			None																L.Haimberger	0
650	0-20000-0-68014	0	651	68014	1	GROOTFONTEIN			0	18.12	-19.6				1	0	63			Grootfontein																L.Haimberger	0
651	0-20000-0-06451	0	652	6451	1	BEAUVECHAIN			0	4.76	50.75				1	0	63			Steenokkerzeel																L.Haimberger	0
652		0	653	72386	1				0						1	0	63			None																L.Haimberger	0
653	0-20000-0-03482	0	654	3476	1	MARHAM			0	0.57	52.65				1	0	63			Bury Saint Edmunds																L.Haimberger	0
654	0-20000-0-97430	0	655	97430	1	TERNATE/BABULLAH			0	127.38	0.83				1	0	63			Ternate																L.Haimberger	0
655	0-20000-0-56033	0	656	56033	1	MADOI			0	98.22	34.92				1	0	63			Xining																L.Haimberger	0
656	0-20000-0-62417	0	657	62417	1	SIWA			0	25.48	29.2				1	0	63			Marsa Matruh																L.Haimberger	0
657	0-20000-0-62161	0	658	62161	1	JALO			0	21.55	29.03				1	0	63			Ajdabiya																L.Haimberger	0
658	0-20000-0-96465	0	659	96465	1	LABUAN			0	115.25	5.3				1	0	63			Labuan																L.Haimberger	0
659	0-20000-0-54836	0	660	54836	1	YIYUAN			0	118.15	36.18				1	0	63			Linqu																L.Haimberger	0
660	0-20000-0-34880	0	661	34882	1	ASTRAHAN' (34882-1)			0	47.98	46.28				1	0	63			Astrakhan																L.Haimberger	0
661	0-20000-0-61986	0	662	61986	1	ST. BRANDON (RAPHAEL ISLAND)			0	59.62	-16.45				1	0	63			Goodlands																L.Haimberger	0
662		0	663	72432	1				0						1	0	63			None																L.Haimberger	0
663	0-20000-0-93765	0	664	93769	1	ASHBURTON AERO AWS			0	171.8	-43.9				1	0	63			Christchurch																L.Haimberger	0
664	0-20000-0-62640	0	665	62640	1	ABU HAMED			0	33.32	19.53				1	0	63			Barbar																L.Haimberger	0
665	0-20000-0-62305	0	666	62300	1	SALLUM PLATEAU			0	25.13	31.57				1	0	63			Tubruq																L.Haimberger	0
666	0-20000-0-62721	0	667	62721	1	KHARTOUM			0	32.55	15.6				1	0	63			Khartoum																L.Haimberger	0
667		0	668	89671	1				0						1	0	63			None																L.Haimberger	0
668	0-20000-0-41943	0	669	41943	1	FENI (41943-0)			0	91.42	23.03				1	0	63			Feni																L.Haimberger	0
669	0-20000-0-53543	0	670	53543	1	DONGSHENG			0	109.98	39.83				1	0	63			Dongsheng																L.Haimberger	0
670	0-20000-0-50745	0	671	50745	1	QIQIHAR			0	123.92	47.38				1	0	63			Qiqihar																L.Haimberger	0
671	0-20000-0-40911	0	672	40911	1	MAZAR-I-SHARIF			0	67.2	36.7				1	0	63			Kholm																L.Haimberger	0
672	0-20000-0-97690	0	673	97690	1	JAYAPURA/SENTANI			0	140.52	-2.58				1	0	63			Vanimo																L.Haimberger	0
673		0	674	72278	1				0						1	0	63			None																L.Haimberger	0
674	0-20000-0-62387	0	675	62387	1	MINYA			0	30.73	28.08				1	0	63			Matay																L.Haimberger	0
675	0-20000-0-58666	0	676	58666	1	DACHEN DAO			0	121.88	28.45				1	0	63			Jiaojiang																L.Haimberger	0
676	0-20000-0-34880	0	677	34882	1	ASTRAHAN' (34882-1)			0	47.98	46.28				1	0	63			Astrakhan																L.Haimberger	0
677	0-20000-0-89662	0	678	89662	1	MARIO ZUCHELLI STATION (BAIA TERRA NOVA)			0	164.09	-74.7				1	0	63			None																L.Haimberger	0
678	0-20000-0-07354	0	679	7354	1	CHATEAUROUX DEOLS			0	1.74	46.87				1	0	63			Chateauroux																L.Haimberger	0
679		0	680	74612	1				0						1	0	63			None																L.Haimberger	0
680	0-20000-0-41506	0	681	41506	1	CHITRAL			0	71.83	35.85				1	0	63			Chitral																L.Haimberger	0
681		0	682	74614	1				0						1	0	63			None																L.Haimberger	0
682	0-20000-0-48940	0	683	48940	1	VIENTIANE			0	102.57	17.95				1	0	63			Si Chiang Mai																L.Haimberger	0
683	0-20000-0-13610	0	684	69110	1	KUKES			0	20.42	42.03				1	0	63			Prizren																L.Haimberger	0
684	0-20000-0-40911	0	685	40911	1	MAZAR-I-SHARIF			0	67.2	36.7				1	0	63			Kholm																L.Haimberger	0
685	0-20000-0-60735	0	686	60735	1	KAIROUAN			0	10.1	35.67				1	0	63			Masakin																L.Haimberger	0
686	0-20000-0-67975	0	687	67975	1	MASVINGO			0	30.87	-20.07				1	0	63			Masvingo																L.Haimberger	0
687	0-20000-0-57297	0	688	57297	1	XINYANG			0	114.05	32.13				1	0	63			Xinyang																L.Haimberger	0
688	0-20000-0-56116	0	689	56116	1	DENGQEN			0	95.6	31.42				1	0	63			Along																L.Haimberger	0
689	0-20000-0-43181	0	690	43181	1	VIJAYAWADA /GANNAVARAM			0	80.8	16.53				1	0	63			Gannavaram																L.Haimberger	0
690	0-20000-0-89662	0	691	89662	1	MARIO ZUCHELLI STATION (BAIA TERRA NOVA)			0	164.09	-74.7				1	0	63			None																L.Haimberger	0
691	0-20000-0-10765	0	692	10687	1	ROTH			0	11.1	49.22				1	0	63			Weiden																L.Haimberger	0
692	0-705-0-460	0	693	13017	1	LJUBLJANA/BEZIGRAD			0	14.51	46.07				1	0	63			Ljubljana																L.Haimberger	0
693	0-20000-0-47131	0	694	47128	1	CHEONGJU			0	127.44	36.64				1	0	63			Seoul																L.Haimberger	0
694		0	695	74612	1				0						1	0	63			None																L.Haimberger	0
695	0-20000-0-61017	0	696	61017	1	BILMA			0	12.92	18.68				1	0	63			Agadez																L.Haimberger	0
696	0-20000-0-67869	0	697	67869	1	KADOMA			0	29.88	-18.32				1	0	63			Kadoma																L.Haimberger	0
697		0	698	76382	1				0						1	0	63			None																L.Haimberger	0
698		0	699	46780	1				0						1	0	63			Taitung																L.Haimberger	0
699	0-20000-0-55279	0	700	55279	1	BAINGOIN			0	90.02	31.37				1	0	63			Lasa																L.Haimberger	0
700	0-20000-0-59362	0	701	59362	1	HUALIAN			0	121.62	24.02				1	0	63			Puli																L.Haimberger	0
701		0	702	51628	1				0						1	0	63			Aksu																L.Haimberger	0
702	0-20000-0-67009	0	703	67009	1	ANTSIRANANA			0	49.3	-12.35				1	0	63			Ambilobe																L.Haimberger	0
703		0	704	72773	1				0						1	0	63			None																L.Haimberger	0
704	0-20000-0-47160	0	705	47153	1	GUDEOKSAN			0	129.0	35.12				1	0	63			Hirado																L.Haimberger	0
705	0-20000-0-52602	0	706	52602	1	LENGHU			0	93.38	38.83				1	0	63			Yumen																L.Haimberger	0
706	0-20000-0-48500	0	707	48500	1	PRACHUAP KHIRIKHAN			0	99.81	11.84				1	0	63			Prachuap Khiri Khan																L.Haimberger	0
707	0-20000-0-59501	0	708	59501	1	SHANWEI			0	115.37	22.78				1	0	63			Haicheng																L.Haimberger	0
708	0-20000-0-97096	0	709	97096	1	POSO/KASIGUNCU			0	120.66	-1.42				1	0	63			Poso																L.Haimberger	0
709		0	710	72266	1				0						1	0	63			None																L.Haimberger	0
710	0-20000-0-62730	0	711	62730	1	KASSALA			0	36.4	15.47				1	0	63			Kassala																L.Haimberger	0
711		0	712	46780	1				0						1	0	63			Taitung																L.Haimberger	0
712	0-20000-0-41710	0	713	41710	1	NOKKUNDI			0	62.75	28.82				1	0	63			Rudbar																L.Haimberger	0
713	0-20000-0-62318	0	714	62318	1	NOUZHA			0	29.95	31.18				1	0	63			Alexandria																L.Haimberger	0
714	0-20000-0-43049	0	715	43049	1	GOPALPUR			0	84.88	19.27				1	0	63			Brahmapur																L.Haimberger	0
715	0-20000-0-89606	0	716	89606	1	VOSTOK			0	106.87	-78.46				1	0	63			None																L.Haimberger	0
716	0-20000-0-55472	0	717	55472	1	XAINZA			0	88.63	30.95				1	0	63			Lasa																L.Haimberger	0
717	0-20000-0-53564	0	718	53564	1	HEQU			0	111.21	39.37				1	0	63			Dongsheng																L.Haimberger	0
718	0-20000-0-59345	0	719	59345	1	MAGONG			0	119.57	23.52				1	0	63			Makung																L.Haimberger	0
719	0-20000-0-48870	0	720	48870	1	QUY NHON			0	109.22	13.77				1	0	63			Qui Nhon																L.Haimberger	0
720	0-20000-0-13610	0	721	69110	1	KUKES			0	20.42	42.03				1	0	63			Prizren																L.Haimberger	0
721	0-20000-0-96973	0	722	96973	1	KALIANGET (MADURA IS)			0	113.92	-7.04				1	0	63			Kalianget																L.Haimberger	0
722	0-20000-0-60740	0	723	60740	1	MONASTIR-SKANES			0	10.75	35.67				1	0	63			Susah																L.Haimberger	0
723	0-20000-0-06215	0	724	6210	1	VOORSCHOTEN AWS			0	4.44	52.14				1	0	63			Katwijk																L.Haimberger	0
724	0-20000-0-95205	0	725	94205	1	DERBY AERO			0	123.66	-17.37				1	0	63			Broome																L.Haimberger	0
725	0-20000-0-59082	0	726	59082	1	SHAOGUAN			0	113.6	24.67				1	0	63			Shaoguan																L.Haimberger	0
726		0	727	72243	1				0						1	0	63			None																L.Haimberger	0
727	0-20000-0-53487	0	728	53487	1	DATONG			0	113.42	40.08				1	0	63			Datong																L.Haimberger	0
728	0-20000-0-61995	0	729	61995	1	VACOAS (MAURITIUS)			0	57.49	-20.3				1	0	63			Curepipe																L.Haimberger	0
729	0-20000-0-42111	0	730	42111	1	DEHRADUN			0	78.03	30.32				1	0	63			Dehra Dun																L.Haimberger	0
730	0-20000-0-61988	0	731	61988	1	RODRIGUES (POINT CANON)			0	63.42	-19.68				1	0	63			None																L.Haimberger	0
731	0-20000-0-48097	0	732	48097	1	YANGON			0	96.15	16.86				1	0	63			Rangoon																L.Haimberger	0
732	0-20000-0-42399	0	733	42399	1	JALPAIGURI			0	88.72	26.53				1	0	63			Jalpaiguri																L.Haimberger	0
733		0	734	35361	1				0						1	0	63			Derzhavinsk																L.Haimberger	0
734	0-20000-0-11723	0	735	11722	1	BRNO/TURANY			0	16.69	49.15				1	0	63			Brno																L.Haimberger	0
735	0-20000-0-47898	0	736	47898	1	SHIMIZU			0	133.01	32.72				1	0	63			Nakamura																L.Haimberger	0
736	0-20000-0-57902	0	737	57902	1	XINGREN			0	105.18	25.43				1	0	63			Xingyi																L.Haimberger	0
737	0-20000-0-51886	0	738	51886	1	MANGNAI			0	90.85	38.25				1	0	63			Korla																L.Haimberger	0
738	0-20000-0-10763	0	739	10672	1	NUERNBERG			0	11.06	49.5				1	0	63			Erlangen																L.Haimberger	0
739	0-20000-0-59554	0	740	46750	1	GAOXIONG			0	120.27	22.62				1	0	63			Pingtung																L.Haimberger	0
740	0-20000-0-55696	0	741	55696	1	LHUNZE			0	92.47	28.42				1	0	63			Ziro																L.Haimberger	0
741	0-20000-0-42189	0	742	42189	1	BAREILLY			0	79.4	28.37				1	0	63			Bareli																L.Haimberger	0
742		0	743	74777	1				0						1	0	63			None																L.Haimberger	0
743	0-20000-0-42273	0	744	42273	1	BAHRAICH			0	81.6	27.57				1	0	63			Bahraich																L.Haimberger	0
744	0-20000-0-67297	0	745	67297	1	BEIRA			0	34.9	-19.8				1	0	63			Beira																L.Haimberger	0
745	0-20000-0-40809	0	746	40809	1	BIRJAND			0	59.28	32.89				1	0	63			Birjand																L.Haimberger	0
746	0-20000-0-43193	0	747	43193	1	VENGURLA			0	73.63	15.87				1	0	63			Vengurla																L.Haimberger	0
747		0	748	72253	1				0						1	0	63			None																L.Haimberger	0
748	0-20000-0-96109	0	749	96109	1	PEKAN BARU/SIMPANGTIGA			0	101.45	0.47				1	0	63			Balaipungut																L.Haimberger	0
749	0-20000-0-41640	0	750	41640	1	LAHORE CITY			0	74.33	31.55				1	0	63			Lahore																L.Haimberger	0
750	0-20000-0-56172	0	751	56172	1	BARKAM			0	102.23	31.9				1	0	63			Tianpeng																L.Haimberger	0
751	0-20000-0-53336	0	752	53336	1	HALIUT			0	108.52	41.57				1	0	63			Dongsheng																L.Haimberger	0
752	0-20000-0-07354	0	753	7354	1	CHATEAUROUX DEOLS			0	1.74	46.87				1	0	63			Chateauroux																L.Haimberger	0
753	0-20000-0-42165	0	754	42165	1	BIKANER			0	73.3	28.0				1	0	63			Bikaner																L.Haimberger	0
754	0-20000-0-64400	0	755	64400	1	POINTE-NOIRE			0	11.88	-4.8				1	0	63			Loandjili																L.Haimberger	0
755	0-20000-0-17082	0	756	17082	1	MERZIFON			0	35.53	40.84				1	0	63			Merzifon																L.Haimberger	0
756	0-20000-0-91250	0	757	91250	1	ENEWETAK, MARSHALL IS			0	162.35	11.35				1	0	63			None																L.Haimberger	0
757	0-20000-0-10454	0	758	10454	1	WERNIGERODE			0	10.77	51.85				1	0	63			Wernigerode																L.Haimberger	0
758	0-20000-0-17601	0	759	17601	1	AKROTIRI			0	32.99	34.59				1	0	63			Lemesos																L.Haimberger	0
759	0-20000-0-52652	0	760	52652	1	ZHANGYE			0	100.28	39.08				1	0	63			Zhangye																L.Haimberger	0
760	0-20000-0-61214	0	761	61214	1	KIDAL			0	1.35	18.43				1	0	63			Kidal																L.Haimberger	0
761	0-20000-0-96737	0	762	96737	1	SERANG			0	106.13	-6.12				1	0	63			Serang																L.Haimberger	0
762		0	763	72578	1				0						1	0	63			None																L.Haimberger	0
763	0-20000-0-10184	0	764	10185	1	GREIFSWALD			0	13.41	54.1				1	0	63			Greifswald																L.Haimberger	0
764		0	765	71716	1				0						1	0	63			None																L.Haimberger	0
765	0-20000-0-42886	0	766	42886	1	JHARSIGUDA			0	84.08	21.92				1	0	63			Jharsuguda																L.Haimberger	0
766	0-20000-0-07630	0	767	7630	1	TOULOUSE RW			0	1.37	43.58				1	0	63			Blagnac																L.Haimberger	0
767		0	768	74614	1				0						1	0	63			None																L.Haimberger	0
768	0-20000-0-57328	0	769	57328	1	DA XIAN			0	107.5	31.2				1	0	63			Daxian																L.Haimberger	0
769	0-20000-0-41598	0	770	41598	1	JHELUM			0	73.72	32.93				1	0	63			Jhelum																L.Haimberger	0
770	0-20000-0-89606	0	771	89606	1	VOSTOK			0	106.87	-78.46				1	0	63			None																L.Haimberger	0
771	0-20000-0-42399	0	772	42399	1	JALPAIGURI			0	88.72	26.53				1	0	63			Jalpaiguri																L.Haimberger	0
772		0	773	71716	1				0						1	0	63			None																L.Haimberger	0
773	0-20000-0-96995	0	774	96995	1	CHRISTMAS ISLAND AERO			0	105.69	-10.45				1	0	63			Palabuhanratu																L.Haimberger	0
774		0	775	98753	1				0						1	0	63			Davao																L.Haimberger	0
775	0-20000-0-97810	0	776	97810	1	TUAL/DUMATUBUN			0	132.74	-5.66				1	0	63			Tual																L.Haimberger	0
776	0-20000-0-52602	0	777	52602	1	LENGHU			0	93.38	38.83				1	0	63			Yumen																L.Haimberger	0
777	0-20000-0-91582	0	778	91582	1	OUANAHAM (ILE LIFOU)			0	167.24	-20.78				1	0	63			We																L.Haimberger	0
778	0-20000-0-42779	0	779	42779	1	PENDRA ROAD			0	81.9	22.77				1	0	63			Gaurela																L.Haimberger	0
779	0-20000-0-97028	0	780	97028	1	TOLI-TOLI/LALOS			0	120.79	1.12				1	0	63			Palu																L.Haimberger	0
780	0-20000-0-41150	0	781	40427	1	BAHRAIN (INT. AIRPORT)			0	50.65	26.27				1	0	63			Manama																L.Haimberger	0
781	0-20000-0-42542	0	782	42542	1	UDAIPUR DABOK			0	73.88	24.62				1	0	63			Nathdwara																L.Haimberger	0
782	0-20000-0-62771	0	783	62771	1	EL OBEID			0	30.23	13.17				1	0	63			Bara																L.Haimberger	0
783		0	784	72243	1				0						1	0	63			None																L.Haimberger	0
784	0-20000-0-42104	0	785	42103	1	NAHAN			0	76.77	30.4				1	0	63			Ambala																L.Haimberger	0
785		0	786	46736	1				0						1	0	63			Xiamen																L.Haimberger	0
786	0-20000-0-60611	0	787	60611	1	IN-AMENAS			0	9.63	28.05				1	0	63			Gat																L.Haimberger	0
787		0	788	72435	1				0						1	0	63			None																L.Haimberger	0
788	0-20000-0-63450	0	789	63450	1	ADDIS ABABA-BOLE			0	38.75	9.03				1	0	63			Addis Abeba																L.Haimberger	0
789	0-20000-0-43413	0	790	43413	1	MANNAR			0	79.92	8.98				1	0	63			Vavuniya																L.Haimberger	0
790	0-20000-0-40648	0	791	69225	1	HABANYAH			0	43.57	33.38				1	0	63			Baghdad																L.Haimberger	0
791	0-20000-0-41140	0	792	40572	1	GIZAN (41140-0)			0	42.58	16.88				1	0	63			Jizan																L.Haimberger	0
792	0-20000-0-98830	0	793	98830	1	JOLO			0	121.0	6.05				1	0	63			Jolo																L.Haimberger	0
793	0-20000-0-03469	0	794	3470	1	HOLBEACH NO 2			0	0.14	52.87				1	0	63			Boston																L.Haimberger	0
794	0-20000-0-66318	0	795	66318	1	HUAMBO (NOVA LISBOA)			0	15.75	-12.8				1	0	63			Huambo																L.Haimberger	0
795	0-20000-0-62721	0	796	62721	1	KHARTOUM			0	32.55	15.6				1	0	63			Khartoum																L.Haimberger	0
796	0-20000-0-07255	0	797	7255	1	BOURGES			0	2.36	47.06				1	0	63			Bourges																L.Haimberger	0
797	0-20000-0-38413	0	798	38413	1	TAMDY			0	64.62	41.73				1	0	63			Nurota																L.Haimberger	0
798	0-20000-0-51765	0	799	51765	1	TIKANLIK			0	87.7	40.63				1	0	63			Korla																L.Haimberger	0
799	0-20000-0-47881	0	800	47881	1	TOKUSHIMA AB			0	134.61	34.13				1	0	63			Naruto																L.Haimberger	0
800		0	801	72435	1				0						1	0	63			None																L.Haimberger	0
801	0-20000-0-11723	0	802	11722	1	BRNO/TURANY			0	16.69	49.15				1	0	63			Brno																L.Haimberger	0
802		0	803	72266	1				0						1	0	63			None																L.Haimberger	0
803	0-20000-0-67586	0	804	67586	1	LILONGWE INT'L AIRPORT			0	33.77	-13.78				1	0	63			Lilongwe																L.Haimberger	0
804	0-20000-0-40856	0	805	40856	1	ZAHEDAN			0	60.9	29.47				1	0	63			Mirabad																L.Haimberger	0
805	0-20000-0-97600	0	806	97600	1	SANANA			0	125.98	-2.07				1	0	63			Ambon																L.Haimberger	0
806		0	807	72389	1				0						1	0	63			None																L.Haimberger	0
807	0-20000-0-06030	0	808	6030	1	FLYVESTATION AALBORG			0	9.85	57.1				1	0	63			Aalborg																L.Haimberger	0
808	0-20000-0-16420	0	809	16420	1	MESSINA			0	15.55	38.2				1	0	63			Messina																L.Haimberger	0
809	0-20000-0-63125	0	810	63126	1	DJIBOUTI			0	43.15	11.55				1	0	63			Jibuti																L.Haimberger	0
810	0-20000-0-42909	0	811	42909	1	VERAVAL			0	70.37	20.9				1	0	63			Veraval																L.Haimberger	0
811	0-20000-0-91250	0	812	91250	1	ENEWETAK, MARSHALL IS			0	162.35	11.35				1	0	63			None																L.Haimberger	0
812	0-20000-0-64458	0	813	64458	1	OUESSO			0	16.05	1.62				1	0	63			Ouesso																L.Haimberger	0
813	0-20000-0-42675	0	814	42675	1	JABALPUR			0	79.95	23.2				1	0	63			Jabalpur																L.Haimberger	0
814	0-20000-0-48803	0	815	56989	1	LAO CAI			0	103.97	22.5				1	0	63			Lao Cai																L.Haimberger	0
815	0-20000-0-48877	0	816	48897	1	NHA TRANG			0	109.22	12.22				1	0	63			Cam Ranh																L.Haimberger	0
816	0-20000-0-59023	0	817	59023	1	HECHI			0	108.03	24.7				1	0	63			Jinchengjiang																L.Haimberger	0
817		0	818	62124	1				0						1	0	63			Sabha																L.Haimberger	0
818	0-20000-0-68098	0	819	68098	1	WALVIS BAY AIRPORT			0	14.65	-22.98				1	0	63			Walvis Bay																L.Haimberger	0
819	0-20000-0-97048	0	820	97048	1	GORONTALO/JALALUDDIN			0	122.85	0.64				1	0	63			Gorontalo																L.Haimberger	0
820	0-20000-0-43237	0	821	43237	1	PBO ANANTAPUR			0	77.63	14.58				1	0	63			Anantapur																L.Haimberger	0
821	0-20000-0-94380	0	822	94380	1	GLADSTONE RADAR			0	151.26	-23.86				1	0	63			Gladstone																L.Haimberger	0
822	0-20000-0-37860	0	823	37860	1	MASHTAGA			0	50.0	40.53				1	0	63			Hovsan																L.Haimberger	0
823		0	824	72228	1				0						1	0	63			None																L.Haimberger	0
824	0-20000-0-48108	0	825	48108	1	DAWEI			0	98.22	14.1				1	0	63			Dawei																L.Haimberger	0
825	0-20000-0-47161	0	826	47161	1	SACHEON AB			0	128.05	35.07				1	0	63			Hirado																L.Haimberger	0
826	0-20000-0-10962	0	827	10962	1	ALTENSTADT			0	10.87	47.83				1	0	63			Peiting																L.Haimberger	0
827	0-20000-0-70409	0	828	70409	1	ATTU			0	173.18	52.83				1	0	63			None																L.Haimberger	0
828	0-20000-0-62432	0	829	62432	1	DAKHLA (62432-0)			0	28.97	25.5				1	0	63			Tahta																L.Haimberger	0
829	0-20000-0-68098	0	830	68098	1	WALVIS BAY AIRPORT			0	14.65	-22.98				1	0	63			Walvis Bay																L.Haimberger	0
830		0	831	47963	1				0						1	0	63			Shimoda																L.Haimberger	0
831	0-20000-0-44288	0	832	44288	1	ARVAIHEER			0	102.79	46.26				1	0	63			Hovd																L.Haimberger	0
832	0-20000-0-64750	0	833	64750	1	SARH			0	18.38	9.15				1	0	63			Sarh																L.Haimberger	0
833	0-20001-0-34467	0	834	34467	1	VOLGOGRAD (34467-1)			0	44.33	48.78				1	0	63			Gorodishche																L.Haimberger	0
834	0-20000-0-96797	0	835	96797	1	TEGAL			0	109.15	-6.85				1	0	63			Tegal																L.Haimberger	0
835	0-20000-0-42111	0	836	42111	1	DEHRADUN			0	78.03	30.32				1	0	63			Dehra Dun																L.Haimberger	0
836	0-20000-0-59023	0	837	59023	1	HECHI			0	108.03	24.7				1	0	63			Jinchengjiang																L.Haimberger	0
837	0-20000-0-62641	0	838	62641	1	PORT SUDAN			0	37.22	19.58				1	0	63			Sawakin																L.Haimberger	0
838	0-20000-0-41288	0	839	40564	1	MASIRAH			0	58.89	20.67				1	0	63			Sur																L.Haimberger	0
839	0-20000-0-48811	0	840	48811	1	Dien Bien			0	103.0	21.36				1	0	63			Dien Bien																L.Haimberger	0
840	0-20000-0-43063	0	841	43063	1	PUNE			0	73.85	18.53				1	0	63			Pune																L.Haimberger	0
841	0-20000-0-47772	0	842	47770	1	OSAKA			0	135.52	34.68				1	0	63			Kobe																L.Haimberger	0
842	0-20000-0-10827	0	843	10828	1	MESSSTETTEN			0	8.94	48.17				1	0	63			Sigmaringen																L.Haimberger	0
843	0-20000-0-48803	0	844	56989	1	LAO CAI			0	103.97	22.5				1	0	63			Lao Cai																L.Haimberger	0
844	0-20000-0-97900	0	845	97900	1	SAUMLAKI/OLILIT			0	131.3	-7.98				1	0	63			Tual																L.Haimberger	0
845	0-20000-0-59663	0	846	59663	1	YANGJIANG			0	111.97	21.83				1	0	63			Yangjiang																L.Haimberger	0
846	0-20000-0-51288	0	847	51288	1	BAYTIK SHAN			0	90.53	45.37				1	0	63			Urumqi																L.Haimberger	0
847	0-20000-0-43201	0	848	43201	1	GADAG			0	75.63	15.42				1	0	63			Gadag																L.Haimberger	0
848	0-20000-0-16420	0	849	16420	1	MESSINA			0	15.55	38.2				1	0	63			Messina																L.Haimberger	0
849		0	850	72354	1				0						1	0	63			None																L.Haimberger	0
850	0-20001-0-34467	0	851	34467	1	VOLGOGRAD (34467-1)			0	44.33	48.78				1	0	63			Gorodishche																L.Haimberger	0
851	0-20000-0-62463	0	852	62462	1	HURGUADA			0	33.8	27.18				1	0	63			Hurghada																L.Haimberger	0
852	0-20000-0-41859	0	853	41859	1	RANGPUR			0	89.23	25.73				1	0	63			Rangpur																L.Haimberger	0
853	0-20000-0-47624	0	854	47624	1	MAEBASHI			0	139.06	36.41				1	0	63			Takasaki																L.Haimberger	0
854	0-20000-0-40650	0	855	40650	1	BAGHDAD INT. AIRPORT			0	44.4	33.3				1	0	63			Baghdad																L.Haimberger	0
855	0-20000-0-20107	0	856	20107	1	BARENTSBURG			0	14.22	78.06				1	0	63			None																L.Haimberger	0
856	0-20000-0-96791	0	857	96791	1	CIREBON/JATIWANGI			0	108.27	-6.75				1	0	63			Jatiwangi																L.Haimberger	0
857	0-20000-0-98630	0	858	98630	1	CUYO			0	121.01	10.85				1	0	63			San Jose																L.Haimberger	0
858	0-20000-0-48811	0	859	48811	1	Dien Bien			0	103.0	21.36				1	0	63			Dien Bien																L.Haimberger	0
859	0-20000-0-47187	0	860	47187	1	GOSAN			0	126.16	33.29				1	0	63			Fukue																L.Haimberger	0
860	0-20000-0-94476	0	861	94476	1	OODNADATTA AIRPORT			0	135.45	-27.56				1	0	63			Alice Springs																L.Haimberger	0
861	0-20000-0-89625	0	862	89625	1	CONCORDIA			0	123.41	-75.1				1	0	63			None																L.Haimberger	0
862	0-20000-0-43110	0	863	43110	1	RATNAGIRI			0	73.33	16.98				1	0	63			Ratnagiri																L.Haimberger	0
863	0-20000-0-10267	0	864	10272	1	KYRITZ			0	12.41	52.94				1	0	63			Wittstock																L.Haimberger	0
864	0-20000-0-61202	0	865	61202	1	TESSALIT			0	0.98	20.2				1	0	63			Kidal																L.Haimberger	0
865	0-20000-0-41675	0	866	41675	1	MULTAN			0	71.43	30.2				1	0	63			Multan																L.Haimberger	0
866	0-20000-0-60738	0	867	60738	1	THALA			0	8.68	35.55				1	0	63			Talah																L.Haimberger	0
867	0-20000-0-06060	0	868	6060	1	FLYVESTATION KARUP			0	9.11	56.29				1	0	63			Ikast																L.Haimberger	0
868	0-20000-0-13477	0	869		1	PRIZREN			0	20.73	42.22				1	0	63			Prizren																L.Haimberger	0
869	0-20000-0-67977	0	870	67977	1	BUFFALO RANGE			0	31.58	-21.02				1	0	63			Chiredzi																L.Haimberger	0
870	0-20000-0-63723	0	871	63723	1	GARISSA			0	39.65	-0.48				1	0	63			Garissa																L.Haimberger	0
871	0-20000-0-43555	0	872	43395	1	MALE			0	73.53	4.19				1	0	63			Male																L.Haimberger	0
872		0	873	71807	1				0						1	0	63			None																L.Haimberger	0
873	0-20000-0-41749	0	874	41749	1	NAWABSHAH			0	68.37	26.25				1	0	63			Nawabshah																L.Haimberger	0
874	0-20000-0-10818	0	875	10921	1	KLIPPENECK			0	8.75	48.11				1	0	63			Tuttlingen																L.Haimberger	0
875	0-20000-0-89625	0	876	89625	1	CONCORDIA			0	123.41	-75.1				1	0	63			None																L.Haimberger	0
876	0-20000-0-26435	0	877	26435	1	SKRIVERI			0	25.13	56.64				1	0	63			Ogre																L.Haimberger	0
877	0-20000-0-43344	0	878	43344	1	TIRUCHCHIRAPALLI			0	78.72	10.77				1	0	63			Tiruchchirappalli																L.Haimberger	0
878	0-20000-0-20667	0	879	20667	1	IM. M.V. POPOVA			0	70.07	73.33				1	0	63			None																L.Haimberger	0
879	0-20000-0-47186	0	880	47186	1	National Typhoon Center			0	126.68	33.33				1	0	63			Fukue																L.Haimberger	0
880	0-20000-0-63021	0	881	63021	1	ASMARA			0	38.92	15.28				1	0	63			Asmara																L.Haimberger	0
881	0-20000-0-60566	0	882	60566	1	GHARDAIA			0	3.8	32.4				1	0	63			Warqla																L.Haimberger	0
882	0-20000-0-48839	0	883	48839	1	BACH LONG VI			0	107.72	20.13				1	0	63			Cam Pha																L.Haimberger	0
883	0-20000-0-53529	0	884	53529	1	OTOG QI			0	107.98	39.1				1	0	63			Wuda																L.Haimberger	0
884		0	885	72386	1				0						1	0	63			None																L.Haimberger	0
885	0-20000-0-23274	0	886	23274	1	IGARKA			0	86.57	67.47				1	0	63			Dudinka																L.Haimberger	0
886	0-20000-0-96015	0	887	96015	1	MEULABOH/CUT NYAK DHIEN			0	96.25	4.05				1	0	63			Meulaboh																L.Haimberger	0
887	0-20000-0-67341	0	888	67341	1	MAPUTO/MAVALANE			0	32.57	-25.92				1	0	63			Maputo																L.Haimberger	0
888	0-20000-0-47881	0	889	47881	1	TOKUSHIMA AB			0	134.61	34.13				1	0	63			Naruto																L.Haimberger	0
889	0-20000-0-48096	0	890	48096	1	YANGON			0	96.15	16.86				1	0	63			Rangoon																L.Haimberger	0
890	0-20000-0-53502	0	891	53502	1	JARTAI			0	105.75	39.78				1	0	63			Shitanjing																L.Haimberger	0
891	0-20000-0-59644	0	892	59644	1	BEIHAI			0	109.18	21.45				1	0	63			Beihai																L.Haimberger	0
892	0-20000-0-40648	0	893	40648	1	HABANYAH			0	43.57	33.38				1	0	63			Hit																L.Haimberger	0
893	0-20000-0-60590	0	894	60590	1	EL-GOLEA			0	2.87	30.57				1	0	63			Warqla																L.Haimberger	0
894	0-20000-0-47186	0	895	47186	1	National Typhoon Center			0	126.68	33.33				1	0	63			Fukue																L.Haimberger	0
895	0-20000-0-62420	0	896	62420	1	BAHARIA			0	28.9	28.33				1	0	63			Matay																L.Haimberger	0
896	0-20000-0-48839	0	897	48839	1	BACH LONG VI			0	107.72	20.13				1	0	63			Cam Pha																L.Haimberger	0
897	0-20000-0-26435	0	898	26435	1	SKRIVERI			0	25.13	56.64				1	0	63			Ogre																L.Haimberger	0
898	0-20000-0-56046	0	899	56046	1	DARLAG			0	99.65	33.75				1	0	63			Xining																L.Haimberger	0
899	0-20000-0-64870	0	900	64870	1	NGAOUNDERE			0	13.57	7.35				1	0	63			Ngaoundere																L.Haimberger	0
900	0-20000-0-38606	0	901	38606	1	KOKAND			0	70.95	40.55				1	0	63			Yaypan																L.Haimberger	0
901	0-20000-0-43466	0	902	43466	1	COLOMBO			0	79.87	6.9				1	0	63			Kotte																L.Haimberger	0
902	0-20000-0-67005	0	903	67005	1	PAMANDZI (MAYOTTE)			0	45.28	-12.81				1	0	63			Mamoudzou																L.Haimberger	0
903	0-20000-0-06590	0	904	6590	1	LUXEMBOURG/LUXEMBOURG			0	6.23	49.63				1	0	63			Luxemburg																L.Haimberger	0
904		0	905	72295	1				0						1	0	63			None																L.Haimberger	0
905	0-20000-0-96491	0	906	96491	1	SANDAKAN			0	118.07	5.9				1	0	63			Sandakan																L.Haimberger	0
906	0-20000-0-41640	0	907	41640	1	LAHORE CITY			0	74.33	31.55				1	0	63			Lahore																L.Haimberger	0
907	0-20000-0-13477	0	908		1	PRIZREN			0	20.73	42.22				1	0	63			Prizren																L.Haimberger	0
908	0-20000-0-54423	0	909	54423	1	CHENGDE			0	117.92	40.97				1	0	63			Chengde																L.Haimberger	0
909	0-20000-0-67002	0	910	67001	1	HAHAYA INT. AIRPORT			0	43.27	-11.53				1	0	63			Moroni																L.Haimberger	0
910	0-20000-0-56444	0	911	56444	1	DEQEN			0	98.88	28.45				1	0	63			Tezu																L.Haimberger	0
911	0-20000-0-60745	0	912	60745	1	GAFSA			0	8.82	34.42				1	0	63			Qafsah																L.Haimberger	0
912		0	913	63694	1				0						1	0	63			Nanyuki																L.Haimberger	0
913	0-20000-0-64860	0	914	64860	1	GAROUA			0	13.38	9.33				1	0	63			Garoua																L.Haimberger	0
914	0-20000-0-40400	0	915	40400	1	AL-WEJH			0	36.48	26.2				1	0	63			Umm Lajj																L.Haimberger	0
915	0-20000-0-57328	0	916	57328	1	DA XIAN			0	107.5	31.2				1	0	63			Daxian																L.Haimberger	0
916	0-20000-0-38606	0	917	38606	1	KOKAND			0	70.95	40.55				1	0	63			Yaypan																L.Haimberger	0
917	0-20000-0-40990	0	918	40990	1	KANDAHAR AIRPORT			0	65.85	31.5				1	0	63			Qandahar																L.Haimberger	0
918	0-20000-0-93012	0	919	93012	1	KAITAIA OBSERVATORY			0	173.26	-35.13				1	0	63			Whangarei																L.Haimberger	0
919	0-20000-0-02226	0	920	2062	1	OSTERSUND FROSON			0	14.5	63.2				1	0	63			Ostersund																L.Haimberger	0
920		0	921	62124	1				0						1	0	63			Sabha																L.Haimberger	0
921		0	922	76382	1				0						1	0	63			None																L.Haimberger	0
922	0-20000-0-10454	0	923	10454	1	WERNIGERODE			0	10.77	51.85				1	0	63			Wernigerode																L.Haimberger	0
923	0-20000-0-40650	0	924	40650	1	BAGHDAD INT. AIRPORT			0	44.4	33.3				1	0	63			Baghdad																L.Haimberger	0
924	0-20000-0-48354	0	925	48354	1	UDON THANI			0	102.81	17.38				1	0	63			Udon Thani																L.Haimberger	0
925	0-20000-0-40080	0	926	40080	1	DAMASCUS INT. AIRPORT			0	36.52	33.42				1	0	63			Jaramana																L.Haimberger	0
926	0-20000-0-48357	0	927	48357	1	NAKHON PHANOM			0	104.78	17.42				1	0	63			Nakhon Phanom																L.Haimberger	0
927	0-20000-0-47573	0	928	47604	1	NIIGATA AIRPORT			0	139.11	37.96				1	0	63			Niigata																L.Haimberger	0
928	0-20000-0-41140	0	929	40572	1	GIZAN (41140-0)			0	42.58	16.88				1	0	63			Jizan																L.Haimberger	0
929	0-20000-0-47041	0	930	47041	1	HAMHEUNG			0	127.55	39.93				1	0	63			Linjiang																L.Haimberger	0
930	0-20000-0-53083	0	931	53083	1	NARAN BULAG			0	114.15	44.62				1	0	63			Erenhot																L.Haimberger	0
931	0-20000-0-51716	0	932	51716	1	BACHU			0	78.57	39.8				1	0	63			Shache																L.Haimberger	0
932	0-20000-0-47105	0	933	47107	1	BUKGANGNEUNG			0	128.86	37.8				1	0	63			Seoul																L.Haimberger	0
933	0-20000-0-06060	0	934	6060	1	FLYVESTATION KARUP			0	9.11	56.29				1	0	63			Ikast																L.Haimberger	0
934	0-20000-0-66160	0	935	66160	1	LUANDA			0	13.23	-8.85				1	0	63			Luanda																L.Haimberger	0
935		0	936	71807	1				0						1	0	63			None																L.Haimberger	0
936	0-20000-0-65046	0	937	65046	1	KANO			0	8.53	12.05				1	0	63			Kano																L.Haimberger	0
937	0-20000-0-62062	0	938	62062	1	TOBRUK			0	23.96	32.1				1	0	63			Tubruq																L.Haimberger	0
938	0-20000-0-47654	0	939	47654	1	HAMAMATSU AB			0	137.7	34.75				1	0	63			Hamamatsu																L.Haimberger	0
939	0-20000-0-60559	0	940	60559	1	EL-OUED			0	6.78	33.5				1	0	63			Tuggurt																L.Haimberger	0
940	0-20000-0-94174	0	941	94175	1	HORN ISLAND			0	142.29	-10.58				1	0	63			Daru																L.Haimberger	0
941	0-20000-0-94750	0	942	94750	1	NOWRA RAN AIR STATION AWS			0	150.54	-34.95				1	0	63			Kiama																L.Haimberger	0
942		0	943	72354	1				0						1	0	63			None																L.Haimberger	0
943	0-20000-0-23415	0	944	23415	1	PECHORA (23415-0)			0	57.1	65.12				1	0	63			Pechora																L.Haimberger	0
944	0-20000-0-41715	0	945	41715	1	JACOBABAD			0	68.47	28.3				1	0	63			Jacobabad																L.Haimberger	0
945		0	946	74777	1				0						1	0	63			None																L.Haimberger	0
946	0-20000-0-54539	0	947	54539	1	LETING			0	118.9	39.43				1	0	63			Changli																L.Haimberger	0
947	0-20000-0-66160	0	948	66160	1	LUANDA			0	13.23	-8.85				1	0	63			Luanda																L.Haimberger	0
948	0-20000-0-67964	0	949	67964	1	BULAWAYO (GOETZ OBSY.)			0	28.62	-20.15				1	0	63			Bulawayo																L.Haimberger	0
949	0-20000-0-59948	0	950	59948	1	SANYA			0	109.58	18.22				1	0	63			Wanning																L.Haimberger	0
950	0-20000-0-10765	0	951	10687	1	ROTH			0	11.1	49.22				1	0	63			Weiden																L.Haimberger	0
951	0-20000-0-41288	0	952	40564	1	MASIRAH			0	58.89	20.67				1	0	63			Sur																L.Haimberger	0
952	0-20000-0-91532	0	953	91530	1	NAURU ARC-2			0	166.92	-0.52				1	0	63			None																L.Haimberger	0
953	0-20000-0-41593	0	954	41594	1	SARGODHA (41594-0)			0	72.67	32.05				1	0	63			Sargodha																L.Haimberger	0
954	0-20000-0-97502	0	955	97502	1	DEO SORONG			0	131.29	-0.89				1	0	63			Sorong																L.Haimberger	0
955	0-20000-0-41712	0	956	41712	1	DAL BANDIN			0	64.4	28.88				1	0	63			Dalbandin																L.Haimberger	0
956	0-20000-0-97270	0	957	97270	1	BIMA/M.SALAHUDDIN			0	118.69	-8.54				1	0	63			Bima																L.Haimberger	0
957	0-20000-0-96195	0	958	96195	1	JAMBI/SULTAN TAHA			0	103.65	-1.63				1	0	63			Jambi																L.Haimberger	0
958	0-20000-0-24790	0	959	24790	1	SUSUMAN			0	148.17	62.78				1	0	63			Magadan																L.Haimberger	0
959	0-20000-0-23415	0	960	23415	1	PECHORA (23415-0)			0	57.1	65.12				1	0	63			Pechora																L.Haimberger	0
960	0-20000-0-44259	0	961	44259	1	CHOIBALSAN			0	114.54	48.08				1	0	63			Baruun-Urt																L.Haimberger	0
961		0	962	41530	1				0						1	0	63			Peshawar																L.Haimberger	0
962	0-20000-0-96633	0	963	96633	1	BALIKPAPAN/SEPINGGAN			0	116.89	-1.26				1	0	63			Balikpapan																L.Haimberger	0
963	0-705-0-460	0	964	14015	1	LJUBLJANA/BEZIGRAD			0	14.51	46.07				1	0	63			Ljubljana																L.Haimberger	0
