,name,statid,ascents,lat,lon,min_lat_d,max_lat_d,min_lon_d,max_lon_d,max_time
0,BODO VI,0-20000-0-01152,39318,67.2851,14.4542,-0.31640493978011364,0.07457897768401267,-0.057933183659505616,0.6602071138720458,2026.0416553354698
1,NAIMAKKA,0-20000-0-02055,4,68.68,21.53,-0.019102524844583968,0.003132656982899107,-0.0032714445079733423,0.2347823819703052,1166.0880650980982
2,LULEA-KALLAX (2185-0),0-20000-0-02185,44027,65.54331,22.11453,-0.0003508801977574194,0.01715406555933896,-0.005499008577000808,0.04509592783409033,396.67951128937113
3,SUNDSVALL HARNOSAND (2365-0),0-20000-0-02365,57238,62.5317,17.4361,-0.0037205848613197645,0.0,0.0,0.0052571811341195485,107.2961699507229
4,VISBY AEROLOGISKA STATION,0-20000-0-02591,43231,57.67083,18.34531,-0.011137536564291395,0.008686091558502085,-0.02854116944002172,0.010024328441044617,388.94897518916935
5,SODANKYLA ARCTIC RESEARCH CENTRE,0-20000-0-02836,67088,67.3667,26.6289,-0.026194123399307045,0.03107092716010129,-0.2239095160682858,0.07260644692135543,893.0658756145599
6,JYVASKYLA AIRPORT,0-20000-0-02935,57294,62.3973,25.6712,-0.011352814258039245,0.005489328897638757,-0.19643028309922528,0.00796223912929861,1006.6670781147218
7,JOKIOINEN OBSERVATORY,0-20000-0-02963,66311,60.8139,23.4975,-0.05826996968832532,0.04293964090253155,-0.04989911743295039,0.021858284395975147,626.5771791090502
8,PARAINEN UTO,0-20000-0-02981,64,59.78,21.38,-0.05536589176094964,0.017021504355021477,-0.0017159880906234548,0.1473707763869747,557.9460905977211
9,BALTASOUND NO 2,0-20000-0-03002,8,60.85,-0.88,-0.005489907303953601,0.006392104507099816,-0.03295710163821364,0.11173674352309249,1057.9429368224767
10,LERWICK,0-20000-0-03005,90569,60.1392,-1.1847,-0.18918272687891147,0.22095738701820977,-0.04196706775454517,0.46366985287808404,2439.185216364385
11,SOUTH UIST RANGE,0-20000-0-03023,764,57.3575,-7.385,-0.006103295433341316,0.0,-0.01075673090080631,0.0486886041183352,875.1568546817994
12,STORNOWAY AIRPORT,0-20000-0-03026,75886,58.22,-6.32,-0.3664439809656628,0.09957695858118853,-0.3854462549385387,0.18534963672170068,3240.778103261481
13,WEST FREUGH,0-20000-0-03132,258,54.86,-4.94,-0.004435371563005219,0.00033032523128895264,-0.013108710637929732,0.012990981906151333,125.17078560124584
14,ESKDALEMUIR,0-20000-0-03162,288,55.32,-3.2,-0.18482349287544508,0.14294321624586814,-0.356662458002321,0.6811639637447904,1337.485623844466
15,LEUCHARS,0-20000-0-03171,61046,56.4,-2.87,-0.09022809514811314,0.005083760747858435,-0.07483057278355298,0.06472114110763094,1131.3360312944903
16,WALNEY ISLAND,0-20000-0-03214,8462,54.32,-3.4,-0.08025272600630728,0.029416103048340858,-0.16367543368241178,0.13450413098495106,3554.118044730751
17,ALBEMARLE,0-20000-0-03238,11127,55.0197,-1.8817,-0.10790370839490038,0.08758587852223343,-0.1007059655631366,0.2750969122306577,1384.5395240732712
18,BOULMER,0-20000-0-03240,13881,55.42,-1.6,-0.8238316956293232,0.4552722550277579,-0.5977431200224919,1.716336697441836,4190.384487371497
19,CROSBY,0-20000-0-03316,66609,53.55,-2.92,-0.06096145394853636,0.03318567127052319,-0.05573817831006611,0.10417224522165958,1551.219687871418
20,"NOTTINGHAM, WATNALL",0-20000-0-03354,16874,53.0056,-1.2511,-0.24496071096430683,0.032640249900367735,-0.3593697169056662,0.11463465913763415,3513.1447570838304
21,ABERPORTH,0-20000-0-03502,24620,52.13945,-4.57284,-0.22580429985396222,0.06756705401669194,-0.1494561344127625,0.38831309810773185,3213.05321588242
22,CARDINGTON,0-20000-0-03559,296,52.10495,-0.42246,-0.00012217804479064398,0.0009502890318486834,-0.005289397477066693,0.0,121.51557540650313
23,WATTISHAM,0-20000-0-03590,892,52.12,0.97,-0.00039278664611686054,0.007450244289401553,-0.0004578860224516701,0.02183760157412562,103.74075575873931
24,LARKHILL,0-20000-0-03743,45411,51.2017,-1.8058,-0.006290801667809376,0.0002871225611187356,-0.04500611674966937,0.006148908966000732,379.0740437048452
25,SOUTH FARNBOROUGH,0-20000-0-03768,459,51.38,-0.78,-0.09938824287269199,0.0313443824407571,0.0,0.056382440057872296,1006.520269537252
26,CHARLWOOD,0-20000-0-03769,55638,51.08,-0.22,-0.03606496223449085,0.009123855271226944,-0.07389418042810142,0.17045044554504024,1111.8461834970424
27,CAMBORNE,0-20000-0-03808,90394,50.2183,-5.3275,-0.7968983972014172,0.055556803878964445,-0.6958711754527664,0.8176026235461586,5577.839085425757
28,"HERSTMONCEUX, WEST END",0-20000-0-03882,23689,50.8994,0.3169,-0.5700694927472512,0.09072713400978216,-0.8103403375219,0.4806035178556034,3856.2971908868835
29,EGILSSTADIR,0-20000-0-04089,2897,65.2833,-14.4,-0.016018277094147493,0.015889795546868868,0.0,0.040995904155010976,558.6610121947563
30,TASIILAQ (AMMASSALIK),0-20000-0-04360,48181,65.6111,-37.6367,-0.07389749948264068,0.17891539907213883,-0.31631591801732384,0.185376918961353,2060.678644804513
31,FLYVESTATION KARUP,0-20000-0-06060,6270,56.2933,9.1139,-0.07066247458384112,0.04082049003176991,-0.09895397366473091,0.033946616214139524,614.8488312176909
32,BLAAVANDSHUK FYR,0-20000-0-06081,57,55.58,8.25,0.0,0.037997390738915726,0.0,0.05965639824970381,516.2210152938203
33,JAEGERSBORG,0-20000-0-06181,46887,55.75,12.52,-0.22295828885112456,0.0002208576621995917,-0.2554670377589101,0.0,1520.9749505458867
34,DE KOOIJ VK,0-20000-0-06235,5639,52.92,4.78,-0.01905638533404641,0.043922520263080855,-0.006700167833932902,0.24555995422480148,786.5967018629501
35,DE BILT AWS,0-20000-0-06260,84045,52.0989,5.1797,-0.1565934352121019,0.012729745866792541,-0.30952809086114996,0.09886969827282233,3171.0381591695477
36,BEAUVECHAIN,0-20000-0-06458,54970,50.7456,4.7633,-0.0002316018995358604,0.003927643695234906,-1.5379299215467768e-05,0.01308331027345222,143.1364299961818
37,ELSENBORN,0-20000-0-06496,885,50.46597,6.22097,0.0,0.006372520098146595,0.0,0.017494634378125262,252.68655675395584
38,OBERRIET / KRIESSERN,0-20000-0-06649,107,47.38,9.65,-0.0954486378454078,0.0,-0.002673946545272088,0.0039509563284632065,882.4002831732325
39,"GUETSCH, ANDERMATT",0-20000-0-06750,225,46.65,8.62,-0.2388426209951433,0.0025028948462946232,-0.10613811792385874,0.09415157094640314,1274.8382348706643
40,SCALOTTAS,0-20000-0-06846,106,46.71,9.41,-0.39840414768487875,0.03685703878468871,-0.006224454434025972,0.8152827517657393,2912.407562742685
41,TRAPPES,0-20000-0-07145,75843,48.7744,2.0097,-0.19885181332194435,0.009555133893819345,-0.010757602323006932,0.1498319610910872,1759.2128870522936
42,LYON-ST EXUPERY,0-20000-0-07481,36666,45.75,5.08,-0.13982970256432736,0.03177291080384492,-0.19769202585873913,0.24179407436533928,1396.8845686987506
43,BORDEAUX MERIGNAC,0-20000-0-07510,76792,44.8306,-0.6914,-0.05614374717909243,0.0,-0.0008858011398289456,0.24480171117003002,1495.4766718762155
44,CANNES,0-20000-0-07684,972,43.42,6.75,-0.183538745558117,0.007756801806863223,-0.0038684045073775764,0.031015525107376263,1824.2566843542804
45,AJACCIO,0-20000-0-07761,62792,41.9181,8.7928,-0.04678269777991062,0.0007892852980759812,-0.0010975834679207708,0.04163627901056621,690.5357158004025
46,LA CORUNA,0-20000-0-08001,42726,43.3658,-8.4214,-0.05628006487872028,0.029939382821702054,-0.06858920336336638,0.017856788407565105,686.1966725404461
47,SANTANDER,0-20000-0-08023,24544,43.4911,-3.8006,-0.09852254049594222,0.005682853381649977,-0.2417990484860706,0.004143682881532662,1451.825551404971
48,ZARAGOZA/AEROPUERTO,0-20000-0-08160,19781,41.6786,-1.0731,-0.9051010599132567,0.27477141342154,-0.4413883178591309,0.8668233943729466,4565.490687945075
49,BARCELONA SERVEI,0-20000-0-08190,10494,41.3844,2.1181,-0.15856347501720336,0.04802821179664818,-0.08744454973195692,0.07184987514624641,1333.8394334810087
50,HUELVA,0-20000-0-08383,2188,37.27844,-6.91147,-0.061114982339361745,0.0766867998469749,-0.07389190166730053,0.146454129148748,1024.9074677089802
51,MURCIA,0-20000-0-08430,26400,38.0019,-1.1708,-0.06917170121485583,0.0602388114653607,-0.1024275353423898,0.24670222888214122,1627.6782404574874
52,LAJES (ACORES) (8508-0),0-20000-0-08508,57884,38.7678,-27.0856,-0.19311981207143702,0.12017545299485022,-0.1928323404200043,0.20802990266409793,2729.251981573405
53,FUNCHAL,0-20000-0-08522,30922,32.6333,-16.9,-0.20662320031819092,0.11259689757926594,-0.2945124306179565,0.32850611753439907,2129.1695792026453
54,PORTO SANTO,0-20000-0-08524,104,33.07,-16.35,-0.006648355743706702,0.0,-0.0013471974111602947,0.0050415856709733475,175.57722551547502
55,EVORA / C.C.,0-20000-0-08558,47,38.53,-7.9,-0.005612834223768459,0.017621561158030374,-0.00015883202057676016,0.05220861028616408,467.126982805049
56,PRAIA,0-20000-0-08589,154,14.9,-23.517,0.0,0.0,0.0,0.0,0.0
57,SAL,0-20000-0-08594,21117,16.7419,-22.9489,-0.03134606764789183,0.014323305724435187,-0.11415387947150535,0.008565552590042103,1223.1167461274536
58,KIEL-HOLTENAU,0-20000-0-10046,21248,54.38,10.15,-0.0030804871619523055,0.056076178912285,-0.06708759906986295,0.007163615995807504,612.5638334291502
59,GREIFSWALD,0-20000-0-10184,86969,54.0978,13.4075,-0.001680595919324901,0.011328238155165593,-0.11764994408972385,0.0,500.6242871292029
60,EMDEN-FLUGPLATZ,0-20000-0-10200,49507,53.3894,7.2269,-0.11420407703698743,0.04837986344475098,-0.03748459513440583,0.056741237075049966,1072.9146434203774
61,BERGEN,0-20000-0-10238,58130,52.8153,9.9247,-0.08430943296535531,0.006198078427303244,-0.2549969591183512,0.0640939544338508,1073.4213415720253
62,MEPPEN,0-20000-0-10304,29977,52.7156,7.3175,-0.0009836481769127658,0.006469125172074541,-0.020403029569316722,0.0031308204249329563,369.69340646540485
63,HANNOVER (RADAR),0-20000-0-10339,48694,52.47,9.7,-0.4641711873039114,0.03413241457720062,-0.2088561279945491,0.2839854949928622,1771.0773107856037
64,FRITZLAR (FLUGPLATZ),0-20000-0-10439,27936,51.13,9.28,-0.01489305735687907,0.0035731068901583285,-0.03271640451961666,0.0034103422043418874,585.2377935112069
65,LEIPZIG/HALLE,0-20000-0-10469,4127,51.55,12.07,-0.762950377062694,0.5110576321884608,-0.6832884343747256,1.3797316023298478,3340.326078752969
66,IDAR-OBERSTEIN,0-20000-0-10618,61859,49.6928,7.3264,-0.13417349348142693,0.0018721033726620817,-0.24205875774048735,0.0,2206.9574240173483
67,NEUHUETTEN-SPESSART,0-20000-0-10646,422,49.75,9.5,-0.07516399967290255,0.04187244736394291,-0.03140249555247365,0.14771528343309726,962.5612436664286
68,WEIDEN,0-20000-0-10688,3441,49.7,11.95,-0.0012427829125840617,0.0,0.0,0.000525213328719687,37.27126557803369
69,KUEMMERSBRUCK (10771-0),0-20000-0-10771,58740,49.4283,11.9022,-0.20979745804389438,0.01423373524169591,-0.012835174792529713,0.0458198012200306,1750.8742648817429
70,KLIPPENECK,0-20000-0-10818,19795,47.98,8.9,-0.033147554405807966,0.0006350581947884848,0.0,0.0768872155392959,515.6705889319004
71,MESSSTETTEN,0-20000-0-10827,8349,48.1,9.25,-0.0669657013714513,0.0,-0.0622482687288155,0.0,891.5145500414094
72,LINZ/HOERSCHING-FLUGHAFEN,0-20000-0-11010,13614,48.23203,14.20099,-0.7381672123105929,0.07901127218224246,-0.746394837872888,1.2916344294511308,3170.547300868525
73,GALZIG,0-20000-0-11110,5,47.13,10.23,-0.0008231837056271729,0.0,0.0,0.0012034428567915256,72.13921578647545
74,INNSBRUCK-FLUGHAFEN,0-20000-0-11120,11635,47.25977,11.35527,-0.12056285799919664,0.00750219222669557,-0.052892079749153,0.047927707036818035,1014.3738131692418
75,GRAZ-THALERHOF-FLUGHAFEN,0-20000-0-11240,13715,46.99396,15.44706,-0.11634712290524618,0.0,0.0,0.014162580631039035,774.8480506516053
76,BRNO/TURANY,0-20000-0-11723,4565,49.12,16.75,-0.23919847734913446,0.17307690006538934,-0.2159595215404302,0.8360731267798016,2569.42659215694
77,PROSTEJOV,0-20000-0-11747,13538,49.4525,17.1347,-0.24484754273684928,0.013263521705376036,-0.0996981829791217,0.023125594966376894,1803.7134943925935
78,LEBA,0-20000-0-12120,42431,54.7536,17.5347,-0.19490765088748674,0.10905768032943541,-0.23604771480264475,0.17362464247583276,1202.0851906544126
79,LEGIONOWO,0-20000-0-12374,65290,52.4078,20.9564,-0.12675418973186936,0.02488777206533399,-0.4197276209732017,0.09742741665332133,1398.0040061611799
80,WROCLAW-STARACHOWICE,0-20000-0-12425,49605,51.1131,16.8811,-0.2502482745930976,0.06903292247436355,-0.3404947756594936,0.2485430087418692,1211.2279075975573
81,PRIZREN,0-20000-0-13477,3572,42.13,20.45,-0.04105112256984711,0.2638836004159444,-0.040017564420164575,0.5997833118520361,2208.936609712877
82,ZAGREB/MAKSIMIR,0-20000-0-14240,48949,45.8219,16.0336,-0.04115136534839792,0.0026672737059101337,-0.06132568780286718,0.01616790506366428,665.8251424464858
83,ZADAR RS,0-20000-0-14430,12886,44.0969,15.3403,-0.3791909258738997,0.023759858351247942,-0.44786903204827233,0.06752701509099346,2177.6808056158275
84,CONSTANTA,0-20000-0-15480,30075,44.22,28.63,-0.0009665357485886261,0.0,0.0,0.0019343194859224866,56.29599673990032
85,NOVARA/CAMERI,0-20000-0-16064,445,45.53083,8.66574,-0.036176920364539455,0.11621812500779782,-0.11696525530589952,0.0018854021920144959,1904.6681649297047
86,CUNEO-LEVALDIGI RDS,0-20000-0-16113,12918,44.5392,7.6125,-0.019684946094727707,0.11472142929103768,-0.06279141983998393,0.08173298961433506,1436.9284709440574
87,S. PIETRO CAPOFIUME RDS,0-20000-0-16144,18880,44.6539,11.6225,-0.4627414780074872,0.3315022107085568,-0.14033314911531747,0.5255333520573089,3541.0836470832764
88,LECCE (16332-0),0-20000-0-16332,590,40.24,18.14,-0.07940163651066001,0.0002884404723744183,-0.008387176428374943,0.04852308151986762,1138.0756048141934
89,ALGHERO,0-20000-0-16520,22,40.63,8.28,-0.09930468722907904,0.0,0.0,0.8929715310739068,3191.8211563114146
90,THESSALONIKI (AIRPORT),0-20000-0-16622,38457,40.5272,22.9714,-0.25609365096919845,0.07828288211545953,-0.17813417651112573,0.16269473155894687,1769.1442057878678
91,ATHINAI HELLINIKON,0-20000-0-16716,77515,37.8897,23.7417,-0.22784109325814939,0.006147018022488737,-0.0787763559572845,0.16876375511273167,1704.8734198974212
92,HERAKLEION (AIRPORT),0-20000-0-16754,47713,35.3353,25.1819,-0.2864745026845412,0.11010420808120358,-0.05988355035414017,0.30986272855914976,1613.0041545380882
93,SAMSUN,0-20000-0-17030,37641,41.2833,36.3,-0.5649014744882805,0.3334538756879226,-0.43563262805130165,0.6810892014962846,4390.747375950582
94,ISTANBUL BOLGE (KARTAL),0-20000-0-17064,42127,40.9,29.15,-0.738152806525818,0.13127130933788322,-0.4662043821415942,0.3163096332893893,4659.024194238866
95,ERZURUM BOLGE,0-20000-0-17095,10474,39.9,41.2833,-0.007401774260650029,0.0005619669347041167,-1.3084987102729428e-05,0.010374368178467819,589.8079868504618
96,IZMIR/GUZELYALI,0-20000-0-17220,38607,38.4333,27.1667,-0.8353327860217377,0.1587466098479169,-0.5077268676330107,0.7525208228768712,4432.260665986458
97,MURMANSK (22113-0),0-20000-0-22113,63326,68.98556,33.13556,-0.012544811819410029,0.002971442086234788,0.0,0.07793124507302451,282.5263008034258
98,KANDALAKSHA,0-20000-0-22217,57171,67.1692,32.3542,-0.008166354375930496,0.17296729339331307,0.0,0.3898156353589144,1086.542971788875
99,SHOJNA,0-20000-0-22271,52169,67.8767,44.1742,-0.0005847266576495258,0.008686204588912005,0.0,0.025523679946743982,319.78544700961373
100,ARHANGEL'SK (22543-0),0-20000-0-22543,72516,64.6247,40.5114,-0.009000322245427128,0.004979323850221817,-0.023770284733011238,0.036361074723920694,197.81655364266956
101,PETROZAVODSK,0-20000-0-22820,49535,61.8167,34.2667,-0.11505148853584046,0.04803385101065061,-0.07432130736004439,0.09643882671409898,1259.1214904116239
102,KARGOPOL',0-20000-0-22845,39630,61.5067,38.9347,-0.00042633368956046525,0.04681607601494875,-0.006601819835701406,0.0760870364148758,759.5111040195934
103,NAR'JAN-MAR,0-20000-0-23205,65147,67.625,53.0175,-0.026784423111919864,0.00846913808979366,-0.0031307532820861184,0.09917709949021969,606.5208232022803
104,PECHORA (23415-0),0-20000-0-23415,64130,65.1167,57.1,-0.29023377641077275,0.01748188594062583,-1.8243517274640908e-07,0.42647730344054935,1601.6072755240045
105,SYKTYVKAR (23802-0),0-20000-0-23802,63155,61.6767,50.7806,-0.020253330626793797,0.02676439218537041,-0.016435880732664998,0.04348402155235931,439.6333885862023
106,TALLINN-HARKU,0-20000-0-26038,57834,59.3981,24.6028,-0.0018830859592497973,0.14093555900422672,-0.2368340362271404,0.026645230410956344,1818.7311676994577
107,ST.PETERSBURG (VOEJKOVO) (26063-0),0-20000-0-26063,62287,59.95,30.7,-0.05950116908154257,0.02517391426285087,-0.18769218121257936,0.10322475223269478,1399.2929734142504
108,SHLISSEL'BURG,0-20000-0-26072,2213,59.95,30.7,0.0,0.1039285205519036,0.0,0.26300446729470295,1196.7568172911556
109,PSKOV,0-20000-0-26258,42498,57.83,28.35,-0.06486436670902407,0.04559482501253598,-0.0006990103795452285,0.29471988268306504,1405.4624941238617
110,BOLOGOE,0-20000-0-26298,57743,57.8833,34.0333,-0.032596804384169786,0.24983722175105783,-0.16312298696340832,0.12673760277282753,1557.125963007098
111,LIEPAJA,0-20000-0-26406,35790,56.55,21.02,-0.06402113685358302,0.0,-0.033249322246270197,0.010450890390675482,573.5033699345427
112,RIGA LU,0-20000-0-26422,61860,56.97,24.05,-0.06472283610255403,0.02537420584213379,-0.04514839602448362,0.05079131940228265,736.6869384837163
113,SKRIVERI,0-20000-0-26435,2842,56.6425,25.1283,-0.41688653927905506,0.1556472104719404,-0.21554902681321408,0.5688384683305756,1654.7697867412692
114,VELIKIE LUKI,0-20000-0-26477,54216,56.35,30.6167,-0.02107151808327501,0.04315844998815521,-0.08430338589093722,0.023322763542665825,662.9798880751479
115,SMOLENSK,0-20000-0-26781,67668,54.75,32.0667,-0.1764264030581586,0.24834830462629043,-0.31843201341559535,0.2626522853868174,2700.7382460103113
116,VOLOGDA (27038-0),0-20000-0-27038,66438,59.3183,39.9256,-0.013793954669701236,0.016823589492290125,-0.11408923614095556,0.025805367947050684,599.9061343023036
117,KIROV (27199-0),0-20000-0-27199,66216,58.5667,49.5667,-0.0991468657085548,0.01484270487858197,-0.021188307272922202,0.1288424429911359,1751.7981481294219
118,NIZHNIJ NOVGOROD,0-20000-0-27459,65728,56.2667,44.0,-0.02270672326613976,0.05703049896290935,-0.1386015411124646,0.05202111414180166,799.7704120744891
119,KAZAN' (27595-0),0-20000-0-27595,62187,55.61,49.29,-0.7034673458275122,0.1820889981740521,-0.7161172180784163,0.5581810677994099,3170.475502215896
120,MOSKVA VDNH,0-20000-0-27612,72036,55.93,37.52,-0.046187437167716894,0.049831525431144996,-0.1282484008546021,0.05124359687476954,963.6017252121773
121,SUHINICHI,0-20000-0-27707,44616,54.1,35.35,0.0,0.0037881791282217137,0.0,0.015453765829164468,461.78570396291616
122,RYAZAN',0-20000-0-27730,49971,54.6333,39.7,-0.05269460496096201,0.04628407893251563,-0.1101128489894947,0.10783080018639168,760.520808233209
123,TAMBOV (27944-0),0-20000-0-27944,45465,52.73,41.47,-0.38313287406093366,0.12406280650365176,-0.24530131766077545,0.3051073467229557,2246.443309233158
124,PENZA,0-20000-0-27962,33734,53.1228,45.0189,-0.08192743529390611,0.14213960750583965,-0.1429031011531947,0.05846559764632531,1537.9767729884702
125,SAMARA (BEZENCHUK),0-20000-0-27995,15521,52.9833,49.4333,-0.004943029098086527,0.0,-0.019537748674501643,0.0,172.0389067713438
126,UFA-DIOMA,0-20000-0-28722,64386,54.7106,55.815,-0.0014357959463922043,0.00790657076152712,-0.015143050544430992,0.046449545867993436,584.6650870225551
127,SAMARA (OGMS),0-20000-0-28900,42082,53.25,50.45,-0.028549684451867563,0.04690673189201533,-0.06571333786720857,0.05840764943172161,917.9962071194265
128,Shepetivka,0-20000-0-33317,40847,50.1667,27.0333,-0.3276961092726367,0.10707627092239846,-0.21148936035739752,0.015186516964401875,2032.0798018620198
129,Kyiv,0-20000-0-33345,70139,50.4,30.5667,-0.2814204488820735,0.14818961821657695,-0.28556993764383165,0.48972660188370654,2260.774702487635
130,Lviv,0-20000-0-33393,56522,49.8167,23.95,-0.0993130692680424,0.0,-0.0002889034896149667,0.1323197741693818,1381.3185643306047
131,Chernivtsi,0-20000-0-33658,50423,48.27,25.97,-0.25203095191751856,0.043007223509007986,-0.16511160466248498,0.04545562868613473,1819.5052072597573
132,Kryvyi Rih,0-20000-0-33791,39615,48.0333,33.2167,-0.3441195416991505,0.24114817109584408,-0.31551315672467695,0.5520579939383978,6246.193381709275
133,CHISINAU,0-20000-0-33815,39511,47.02,28.98,-0.17754535508037605,0.03838072318929164,-0.32555382603784366,0.32045426597974114,1448.3400132905308
134,Odesa,0-20000-0-33837,53225,46.4333,30.7667,-0.0720573780338114,0.009463342436013988,-0.03460779857283569,0.06497998540564964,1106.6107079766134
135,Simferopol,0-20000-0-33946,47370,45.02,33.98,-0.11430320992863585,0.06953334702380687,-0.15494353713746278,0.3032603555469393,1839.9998279749814
136,Alushta,0-20000-0-33959,43580,44.6833,34.1333,-0.13887413356614786,0.24023018072215763,-0.16265542980913494,1.0579865473512626,2637.1736230914353
137,KURSK,0-20000-0-34009,61599,51.7667,36.1667,-0.16624032826794632,0.18684495592238193,-0.3853770632752145,0.2785752297745532,1892.6564558818716
138,VORONEZ (34122-0),0-20000-0-34122,48295,51.65,39.25,-0.0004504854292122218,0.017086177113682766,-0.019749819223697784,0.0,528.5527152711771
139,KALACH,0-20000-0-34247,52280,50.4167,41.05,-0.01890303550609218,0.007286407299680775,-0.07645873342807619,0.0,987.5532239824962
140,Kharkiv,0-20000-0-34300,57447,49.9667,36.1333,-0.29441677591736237,0.11793371341023118,-0.16310219947689575,0.34476906206923275,2708.473462448782
141,DIVNOE,0-20000-0-34858,46966,45.9167,43.35,-0.1433010548330529,0.0545709842219253,-0.21719082047807348,0.2968264757183192,1751.5955312929232
142,ORENBURG,0-20000-0-35121,62257,51.6925,55.0783,-0.006153483228985124,0.0018414486551421305,-0.009507893366517806,0.003412616539193891,519.2130997361403
143,AKTOBE,0-20000-0-35229,60560,50.2833,57.15,-0.34702108978040513,0.24612649289694133,-1.069711109295632,0.7738664310766481,2580.8276633362466
144,ATYRAU,0-20000-0-35700,54479,47.1167,51.9167,-0.03882783589524763,0.0,-0.04221047742147732,0.0004748268256804522,764.8353538010806
145,SOCHI,0-20000-0-37099,753,43.58,39.77,-0.03532478231708325,0.0631837667131947,-0.022495555256369926,0.17411166751961815,1940.3935380568698
146,BATUMI,0-20000-0-37484,11312,41.65,41.63,-0.03207547631322427,0.14540629512170966,-0.09115933828870482,0.44481881118119304,2089.934409715689
147,MASHTAGA,0-20000-0-37860,14217,40.53,50.0,0.0,0.013661873711868111,-0.0005593386691344904,0.0015703467760133094,133.1591310679946
148,LANKARAN,0-20000-0-37985,39325,38.73,48.83,-0.0012346510730978366,0.0028889220113015313,0.0,0.005719340499162229,315.2727231441391
149,DASHOGUZ,0-20000-0-38392,52070,41.83,59.97,-0.03137909299998398,0.01933136236160493,-0.032885932564958864,0.15933260459681975,761.3421793644936
150,BEYROUTH (AEROPORT),0-20000-0-40100,15195,33.82,35.48,-0.007353841539554651,0.008891327674760419,-0.0018767858216719446,0.11567916444773374,1373.8669673427073
151,BET DAGAN,0-20000-0-40179,73625,32.0,34.8167,-6.714676717578527e-05,0.0,-1.4262917318319523e-06,5.396706001192797e-06,28.072675953158303
152,ASHDOD NORTH,0-20000-0-40186,2769,31.8667,34.6833,-0.18957776973268636,0.3539772079336423,-0.05265625650755368,0.5494268087508587,2387.8677025050074
153,AL-QAISUMAH,0-20000-0-40373,22873,28.3167,46.1333,-0.056460728633108914,0.0,0.0,0.05829218117340673,807.2661892316355
154,HAIL,0-20000-0-40394,22174,27.4333,41.6833,-0.411764153747292,0.4377696854997488,-0.25127017168873067,1.1815768154397688,3627.3461838226203
155,DHAHRAN,0-20000-0-40416,28560,26.27,50.15,-0.019903942187511348,0.008260443105765347,-0.01016041854740024,0.07299137331946781,1154.6383862285675
156,K.F.I.A. (KING FAHAD INT. AIRPORT) DAMMAM,0-20000-0-40417,15953,26.45,49.8167,-0.2698300422070936,0.26156299489949575,-0.04798273216718485,1.4641867626085912,5084.427225410717
157,AL-MADINAH,0-20000-0-40430,27836,24.55,39.7,-0.0011523027449023004,0.054188355129703325,-0.015966091451950604,0.0730031847595285,891.4540157200187
158,AL-KAEM,0-20000-0-40627,918,34.45,41.25,-0.024818726480127395,0.1847358389478444,-0.061304565286448565,0.31220625570284,1489.0963801576377
159,HABANYAH,0-20000-0-40648,9328,33.32,43.6,-0.017801550092421792,8.309059687405806e-06,0.0,0.03334515792242598,1409.1991032410513
160,BAGHDAD INT. AIRPORT,0-20000-0-40650,17460,33.3,44.4,-0.009176755451150598,0.0,0.0,0.13307770036259114,1143.9979186503438
161,TABRIZ,0-20000-0-40706,12033,38.0833,46.2833,-0.33909351952666356,0.293118859836909,-0.07233868118305509,0.8973803932835622,5262.178342186541
162,KERMANSHAH,0-20000-0-40766,16332,34.35,47.15,-0.035079511439739974,0.0,-0.03100275815669562,0.0,1942.8961561432088
163,ESFAHAN,0-20000-0-40800,10650,32.62,51.67,-0.22829219978027737,0.2351393237853756,-0.003539778271132832,1.32337739488554,3356.8347008371916
164,BIRJAND,0-20000-0-40809,7563,32.89,59.28,-0.2868243201819709,0.38708645911514594,-0.09719577160971227,1.7616372072256326,3914.5702823687598
165,AHWAZ,0-20000-0-40811,5617,31.3333,48.6667,-0.3340069087789068,0.6911810239017591,-0.11441929435304843,1.4078952215399312,4808.232470929992
166,KERMAN,0-20000-0-40841,12612,30.25,56.9667,-0.046457251496416774,0.0,-0.03519227424744997,0.025653626601133794,1123.6894931521904
167,SHIRAZ,0-20000-0-40848,11886,29.56,52.6,-0.19944421826509995,0.4927169625910679,-0.09762252043301345,1.7070435698827353,5037.2469895909535
168,BANDARABBASS,0-20000-0-40875,7767,27.21,56.37,-0.5136287036468481,0.44608977567841634,-0.07141241568071166,1.4288443041078978,4738.842817312864
169,JEDDAH I.E.,0-20000-0-41020,3447,21.5,39.2,-0.13997098801973706,1.1752952292574328,-0.03263032500069585,1.304272378665111,3274.6581371769694
170,ABHA,0-20000-0-41112,33358,18.2333,42.65,0.0,1.5838345390761788e-07,0.0,1.9164825673101404e-06,392.98000253017767
171,GIZAN (41141-0),0-20000-0-41141,5326,16.87,42.58,-0.0882048310810788,0.16066430372172746,-0.45477886080460195,0.2825711659917971,4124.585823923428
172,HAMAD INTERNATIONAL AIRPORT,0-20000-0-41169,11577,25.2731,51.6081,-0.05078340509725976,0.11292825201968171,-0.00752649156895302,0.37455145294943293,1866.4890304188223
173,ABU DHABI INTERNATIONAL AIRPORT,0-20000-0-41217,40392,24.4333,54.65,-0.24254335273025873,0.09253296144635925,-0.04861252758872325,0.7100037390858702,2814.7428253975813
174,MUSCAT INT'L AIRPORT,0-20000-0-41256,20929,23.5953,58.2983,-0.301205266000931,0.5854117951047044,-0.15535343597525042,1.1107510266484724,4086.745350457789
175,BID BID,0-20000-0-41285,885,23.58,58.28,-0.008083410184454465,0.0006458629616403755,-0.01406968197618852,0.01572015595596099,470.16398332606377
176,SALALAH AIRPORT,0-20000-0-41316,18293,17.0439,54.1022,-0.0720885092334349,0.012802019226686667,-0.04555557431172019,0.013318242058879548,1165.6596812240032
177,DAKHLA,0-20000-0-60096,2335,23.70465,-15.92996,-0.3180015580251059,0.42726088099424686,-0.22376803880770169,0.8923803085744488,5058.274710444017
178,CASABLANCA,0-20000-0-60155,56582,33.5667,-7.6667,-0.09594997577494269,0.0,-0.03373625175729078,0.0,1327.0364714228522
179,MECHERIA,0-20000-0-60549,6934,33.5333,-0.2833,-0.02300869070453615,0.5045086253404065,-0.03285044749593785,0.7251030749075529,1965.142660363805
180,BORDJ-BADJ-MOKHTAR,0-20000-0-60686,234,21.33,0.95,-0.04639965456674133,0.02742314366473053,-0.054643036689272506,0.018436912814695727,562.9834376976377
181,TUNIS-CARTHAGE,0-20000-0-60715,56701,36.8333,10.2333,-0.024314084436277028,0.0018134296949838813,-0.009186204693392597,0.012037992239688933,460.1154451084349
182,NOUADHIBOU,0-20000-0-61415,47925,20.92,-17.04,-0.5336870060451027,0.15106046228535774,-0.08915753135984872,0.8172120569501402,4893.621605112151
183,NOUAKCHOTT / Oumtounsy,0-20000-0-61442,43324,18.3,-15.98,-0.08086311820482806,0.10081088781388914,-0.298968658451912,0.15971317707109378,3311.5255554034766
184,CONAKRY,0-20000-0-61831,15956,9.57,-13.62,-0.049180184856650655,0.03998566653608293,-0.2820482911570519,0.005206933145753823,3141.552631363043
185,MERSA MATRUH,0-20000-0-62306,48513,31.3253,27.2217,-0.08151825887517106,3.598143169369905e-05,-0.028311062129482423,0.0022100493663224086,1341.1817221437589
186,EL ARISH,0-20000-0-62337,14044,31.07,33.84,-0.3366406660583543,0.28763252821238794,-0.1799178447909071,0.68772097251248,4107.453018554135
187,SOUTH OF VALLEY UNIVERSITY,0-20000-0-62403,4332,26.2003,32.7467,-0.14698530109703967,0.21463000949079358,-0.12298278600236046,1.4470585016992459,3733.1741210883474
188,GODE,0-20000-0-63478,295,5.9,43.583,-0.02412475277244397,0.023123778774237103,-0.024000684472333944,0.027248330091666162,1301.2705006730803
189,ABUJA,0-20000-0-65125,1204,9.25,7.0,-0.053001185357922864,0.04533504906182806,-0.11004361538957674,0.025100136552380192,1928.6897121239774
190,LAGOS/OSHODI,0-20000-0-65202,7506,6.5,3.3833,-0.03184974111266836,0.03814842531909335,-0.14485083751157024,0.04331421257515178,2810.0247734110367
191,ENUGU,0-20000-0-65257,659,6.47,7.56,0.0,0.06712755307667706,-0.05035968752300235,0.012283370483059386,895.2533510099405
192,PARAKOU,0-20000-0-65330,34479,9.35,2.62,-0.0394516041274624,0.039415010993293365,-0.15184720587977907,0.01785229896720031,1855.73726161641
193,COTONOU,0-20000-0-65344,53328,6.35,2.3833,-0.040832869966886065,0.01445928385521178,-0.1018267088689524,0.02972769614354842,1694.1411808677026
194,TAMALE,0-20000-0-65418,2174,9.5,-0.85,-0.006995523806773818,0.013674333154250817,-0.04863072028745463,0.010918300047301432,1026.6146923692725
195,ABIDJAN,0-20000-0-65578,65484,5.25,-3.93,-0.042168579963864694,0.04461183158468085,-0.24669389721038693,0.01641581501209588,3764.2112495509527
196,ORLAND III (1241-1),0-20001-0-01241,43342,63.70544,9.61198,-0.4509607008510699,0.2713508175628405,-0.6989518328324049,0.5608104352991887,2639.9196860557367
197,EKOFISK (1400-1),0-20001-0-01400,15136,56.5422,3.2236,-0.1666219915198326,0.23145804720037688,-0.13476823542787875,0.6051493670072206,1603.0536664439112
198,STAVANGER/SOLA (1415-1),0-20001-0-01415,47141,58.87423,5.66505,-0.07262223251350264,0.025815185300238852,-0.04196951784665259,0.14487661620170922,1865.9218898990362
199,OSLO-BLINDERN (1492-1),0-20001-0-01492,2933,59.94269,10.71946,-0.04698967195272985,0.0015998303500879274,-0.0718433787731616,0.001374994064725854,826.8203469651785
200,VALENTIA OBSERVATORY (3953-1),0-20001-0-03953,84844,51.9381,-10.2433,-0.33792169794835303,0.20722325822658405,-0.5217113462024834,0.6242016320569039,4080.217949649696
201,MADRID/BARAJAS RS,0-20001-0-08221,46017,40.4653,-3.5797,-0.13387522785824757,0.03326200282284475,-0.02548366987918138,0.18105534875480211,1405.8984460357783
202,GIBRALTAR (8495-1),0-20001-0-08495,73256,36.15,-5.35,-0.4603492410132759,0.01157021596266361,-0.3156842775512061,0.06496195487085821,3239.4950649640077
203,LINDENBERG (10393-1),0-20001-0-10393,116183,52.2167,14.1167,-0.010758062871254026,4.391957126159696e-05,0.0,0.016429695904150776,869.8731831215637
204,ESSEN-BREDENEY (10410-1),0-20001-0-10410,66025,51.4056,6.9686,-0.1434136116336049,0.006816727586361537,-0.3565945859894608,0.004794792226670452,1393.2830168827622
205,MEININGEN (10548-1),0-20001-0-10548,62903,50.5617,10.3772,-0.07981350748607241,0.009986100427269662,-0.07339166378303474,0.07442077178363071,884.7144944319144
206,WIEN/HOHE WARTE (11035-1),0-20001-0-11035,97515,48.2488,16.3575,-0.0681323096308688,0.021232518602175787,0.0,0.054454338641736655,1933.1226160538724
207,UDINE/RIVOLTO RDS,0-20001-0-16045,67373,45.9806,13.0592,-0.0008895505250805513,0.0,-0.018523359580154164,0.0,301.429544139395
208,MILANO LINATE RDS,0-20001-0-16080,67849,45.4612,9.28413,-0.13697930475208864,0.07060854273778006,-0.4245309786732214,0.008951487131685809,2124.4103235258094
209,BRINDISI RDS,0-20001-0-16320,66946,40.65062,17.94772,-0.3520379268666787,0.14157763009426816,-0.19404119795190056,0.24564436333634276,3237.3769820183393
210,TRAPANI BIRGI RDS,0-20001-0-16429,48945,37.9142,12.4914,-0.23077842244585156,0.11777637353313963,-0.4271255427284739,0.15800815674392688,2101.1924380439687
211,KEM',0-20001-0-22522,56831,64.95,34.65,-0.027966494592988056,0.014531103408685908,-0.04291150294294255,0.07100544085916738,680.1768401917908
212,KAUNAS (26629-1),0-20001-0-26629,54228,54.8839,23.8358,-0.1691771077618327,0.07162000907873534,-0.44701653019699705,0.4583282009344032,4021.092027326147
213,KAZAN'(VYAZOVYE),0-20001-0-27594,2886,55.81444,48.51167,-0.007877239988907547,0.0012634539666649403,0.0,0.0070805985753779055,139.3814310861709
214,PERM' (28225-1),0-20001-0-28225,46904,57.9583,56.1972,0.0,0.008301221657532665,-0.0017398725974189233,0.002295786246392595,398.21272743693373
215,BREST (33008-1),0-20001-0-33008,51009,52.1167,23.6833,-0.6872358832077623,0.37116820637919545,-0.8832799571220349,0.7768544321699977,4789.722715283457
216,GOMEL (33041-1),0-20001-0-33041,36143,52.4019,30.9631,-0.4920195451580298,0.21108099032573335,-0.7050257801931394,0.6084171014895929,3526.67673612947
217,SARATOV (34172-1),0-20001-0-34172,60787,51.5567,46.0394,-0.11134063113576076,0.031790718731024015,-0.09561153604227002,0.041082601527982376,1119.0155213413866
218,VOLGOGRAD (34467-1),0-20001-0-34467,65417,48.7833,44.3333,-0.0551870899485607,0.035148161191429494,-0.10435365532739382,0.009445550592488416,824.1593260057596
219,ROSTOV-NA-DONU (34731-1),0-20001-0-34731,62441,47.25,39.8167,-0.023016428506714703,0.04063574653756774,-0.06842708129453001,0.0031955574216411264,732.8530766204938
220,ASTRAHAN' (34882-1),0-20001-0-34882,63621,46.2833,47.9833,-0.05683460175641386,0.023949000433574952,-0.20051479005977058,0.003941958242023702,1678.4964018182964
221,TUAPSE (37011-1),0-20001-0-37011,53363,44.1,39.0333,-0.013753589144521072,0.0,0.0,0.0423473255022202,561.4917141539976
222,MAHACHKALA (37259-1),0-20001-0-37259,29495,43.0,47.5,-0.02906898440478045,0.002151334471236055,0.0,0.0494400319256485,1107.1755879097764
223,YEREVAN AERO,0-20001-0-37789,50987,40.2169,44.5017,-0.0052466639375410296,0.0,-0.006321798607658025,0.0,122.0473264649267
224,TURKMENBASHI (38507-1),0-20001-0-38507,38102,40.03,52.98,-0.022188968966162292,0.009800856307407457,-0.0885863056275582,0.08082682461829194,1061.8686457251497
225,KUWAIT INTERNATIONAL AIRPORT (40582-1),0-20001-0-40582,48224,29.24,47.97,-0.26366731881482863,0.1274028971464496,-0.0013650846556316765,0.5291864737339083,2126.8748652185877
226,DOUALA R.S.,0-20001-0-64910,36629,4.02,9.7,-0.031161413286256767,0.012040380949983387,-0.06316203236187334,0.013644551887889378,1189.6655336035042
227,HEMSBY,0-20300-0-03496,70383,52.68,1.68,-0.47352243915818093,0.03754707848240457,-0.5371446662880919,0.20062920551499408,3838.7445108477314
228,GRACIOSA/AERODROMO,0-620-2001-0507,1591,39.09,-28.03,-0.07042178148247302,0.0731572380624641,0.0,0.32025851262822513,1528.0510279346786
229,GRACIOSA/AERODROMO,0-620-2001-08507,2200,39.0833,-28.0333,-0.07120321777513539,0.07281860018853337,-0.030432132531696965,0.32151582614108065,1528.3405351855442
