level_0	index	WIGOS	station_name	latitude	longitude	elevation	ObsRems	original_lat	original_lon	station_id	start_date	end_date	isRadio	distance_km	distance_km_minusLat	inventory	WIGOS_calc	city	city_dist_km	city_lat	city_lon	station_id_igra	WMO_id	Unnamed: 0	date_min	date_max	lat_file	lon_file	file	file_dataset	file_min_date	file_max_date	file_statid	WIGOS_best	variables
0	0	0-20000-0-61978	PITON VILLERS RADAR	-21.190555555555555	55.57333333333334		Surface land meteorological station (SYNOP), GOS	21 11 26S	055 34 24E	61978	999	999	False	18.2		OSCAR	0-20000-0-61978	saint-pierre	1.5	-21.3166667	55.4833333						[-21.33, -21.33]	[55.48, 55.48]	era5.61984.bfr	bufr	19660528	19721225	61984	0-20000-0-61978	[36, 85, 106, 107]
0	0		ST. PIERRE/FONDS	-21.333	55.483	53.0				61984	1973	1990	True	0.5		IGRA2	0-20300-0-61984	saint-pierre	1.5	-21.3166667	55.4833333	REM00061984					[-21.33, -21.33]	[55.48, 55.48]	era5.61984.bfr	bufr	19660528	19721225	61984	0-20000-0-61978	[36, 85, 106, 107]
0	0															WBAN	0-20500-0-nan	saint-pierre	1.5	-21.3166667	55.4833333						[-21.33, -21.33]	[55.48, 55.48]	era5.61984.bfr	bufr	19660528	19721225	61984	0-20000-0-61978	[36, 85, 106, 107]
0	0		Saint-Pierre	-21.344	55.487	52				6053	194701	200410		1.7		CHUAN	0-20400-0-6053	saint-pierre	1.5	-21.3166667	55.4833333		-999				[-21.33, -21.33]	[55.48, 55.48]	era5.61984.bfr	bufr	19660528	19721225	61984	0-20000-0-61978	[36, 85, 106, 107]
0	0		FMEP St. Pierre - Pierrefonds AP, Reunion Island, France	-21.33	55.48	-999				61984				0.0		SCHROEDER	0-20600-0-61984	saint-pierre	1.5	-21.3166667	55.4833333		61984	1890.0	9999999	9999999	[-21.33, -21.33]	[55.48, 55.48]	era5.61984.bfr	bufr	19660528	19721225	61984	0-20000-0-61978	[36, 85, 106, 107]
0	0		ST. PIERRE               	-21.83333333333333	55.48333333333333	-999.0				61984				55.7		WMO	0-20700-0-61984	saint-pierre	1.5	-21.3166667	55.4833333		61984	27.0			[-21.33, -21.33]	[55.48, 55.48]	era5.61984.bfr	bufr	19660528	19721225	61984	0-20000-0-61978	[36, 85, 106, 107]
