file_statid	station_id	station_name	latitude	longitude	elevation	original_lat	original_lon	distance_km	lat_file	lon_file	inventory	WIGOS	WMO_id	WIGOS_calc	file_min_date	file_max_date	start_date	end_date	isRadio	WIGOS_best	city	variables
94120	94120	DARWIN AIRPORT	-12.423888888888888	130.89249999999998	35.0	12 25 26S	130 53 33E	2.5	[-12.43, -12.43]	[130.87, 130.86]	OSCAR	0-20000-0-94120		0-20000-0-94120	19571231	19781231	999.0	999.0	True	0-20000-0-94120	darwin	[36, 85, 106, 107]
94120	94105	NOONAMAH AIRSTRIP	-12.61	131.04749999999999	18.9	12 36 36S	131 02 51E	27.7	[-12.43, -12.43]	[130.87, 130.86]	OSCAR	0-20000-0-94105		0-20000-0-94105	19571231	19781231	999.0	999.0	False	0-20000-0-94120	darwin	[36, 85, 106, 107]
94120	94120	DARWIN AIRPORT	-12.4239	130.8925	31.4			2.5	[-12.43, -12.43]	[130.87, 130.86]	IGRA2			0-20300-0-94120	19571231	19781231	1943.0	2021.0	True	0-20000-0-94120	darwin	[36, 85, 106, 107]
94120	81302	DARWIN	-12.43	130.87	37.1856			0.0	[-12.43, -12.43]	[130.87, 130.86]	WBAN			0-20500-0-81302	19571231	19781231	19440801.0	19450131.0		0-20000-0-94120	darwin	[36, 85, 106, 107]
94120									[-12.43, -12.43]	[130.87, 130.86]	CHUAN			0-20400-0-nan	19571231	19781231				0-20000-0-94120	darwin	[36, 85, 106, 107]
94120	94120	Darwin Royal Australian Air Force Base, Northern Territory, Australia	-12.47	130.92	-999.0			7.0	[-12.43, -12.43]	[130.87, 130.86]	SCHROEDER		94120	0-20600-0-94120	19571231	19781231				0-20000-0-94120	darwin	[36, 85, 106, 107]
94120	94115	(made up station ID) Darwin 50 MHz wind profiler, Northern Territory, Australia	-12.44	130.95	-999.0			8.8	[-12.43, -12.43]	[130.87, 130.86]	SCHROEDER		94115	0-20600-0-94115	19571231	19781231				0-20000-0-94120	darwin	[36, 85, 106, 107]
94120	94124	(made up station ID) Noonamah DUNDEE radiosonde site, Northern Territory, Australia	-12.61	131.06	-999.0			28.7	[-12.43, -12.43]	[130.87, 130.86]	SCHROEDER		94124	0-20600-0-94124	19571231	19781231				0-20000-0-94120	darwin	[36, 85, 106, 107]
94120	94120	DARWIN                   	-12.416666666666666	130.86666666666667	35.0			1.5	[-12.43, -12.43]	[130.87, 130.86]	WMO		94120	0-20700-0-94120	19571231	19781231				0-20000-0-94120	darwin	[36, 85, 106, 107]
