level_0	index	WIGOS	station_name	latitude	longitude	elevation	ObsRems	original_lat	original_lon	station_id	start_date	end_date	isRadio	distance_km	distance_km_minusLat	inventory	WIGOS_calc	city	city_dist_km	city_lat	city_lon	station_id_igra	WMO_id	Unnamed: 0	date_min	date_max	lat_file	lon_file	file	file_dataset	file_min_date	file_max_date	file_statid	WIGOS_best	variables
0	0	0-20000-0-33393	Lviv	49.8075	23.965	323.0	Climatological station, Upper-air / Radiosonde station, Surface land meteorological station (SYNOP), GOS, RBSN(ST), RBCN, CLIMAT(C)	49 48 27N	023 57 54E	33393	999	999	True	1.8		OSCAR	0-20000-0-33393	lvov	6.2	49.840661	24.030451						[49.82, 49.82]	[23.95, 23.95]	era5.33393.bfr	bufr	19580101	19781231	33393	0-20000-0-33393	[36, 85, 106, 107]
0	0		L'VIV	49.8167	23.95	319.0				33393	1947	2021	True	0.4		IGRA2	0-20300-0-33393	lvov	6.2	49.840661	24.030451	UPM00033393					[49.82, 49.82]	[23.95, 23.95]	era5.33393.bfr	bufr	19580101	19781231	33393	0-20000-0-33393	[36, 85, 106, 107]
0	0															WBAN	0-20500-0-nan	lvov	6.2	49.840661	24.030451						[49.82, 49.82]	[23.95, 23.95]	era5.33393.bfr	bufr	19580101	19781231	33393	0-20000-0-33393	[36, 85, 106, 107]
0	0		L'viv	49.8	24.0	320				5217	-999-999	-999-999		4.2		CHUAN	0-20400-0-5217	lvov	6.2	49.840661	24.030451		-999				[49.82, 49.82]	[23.95, 23.95]	era5.33393.bfr	bufr	19580101	19781231	33393	0-20000-0-33393	[36, 85, 106, 107]
1	1		L'viv	49.83	24.03	290				5705	-999-999	-999-999		5.9		CHUAN	0-20400-0-5705	lvov	6.2	49.840661	24.030451		-999				[49.82, 49.82]	[23.95, 23.95]	era5.33393.bfr	bufr	19580101	19781231	33393	0-20000-0-33393	[36, 85, 106, 107]
0	0		L'viv / L'vov, Ukraine	49.82	23.95	-999				33393				0.0		SCHROEDER	0-20600-0-33393	lvov	6.2	49.840661	24.030451		33393	834.0	1947-02-06 00:00:00	2012-01-06 00:00:00	[49.82, 49.82]	[23.95, 23.95]	era5.33393.bfr	bufr	19580101	19781231	33393	0-20000-0-33393	[36, 85, 106, 107]
0	0		L'VOV                    	49.81666666666667	23.95	-999.0				33393				0.4		WMO	0-20700-0-33393	lvov	6.2	49.840661	24.030451		33393	1064.0			[49.82, 49.82]	[23.95, 23.95]	era5.33393.bfr	bufr	19580101	19781231	33393	0-20000-0-33393	[36, 85, 106, 107]
