file_statid	station_id	station_name	latitude	longitude	elevation	original_lat	original_lon	distance_km	lat_file	lon_file	inventory	WIGOS	WMO_id	WIGOS_calc	file_min_date	file_max_date	start_date	end_date	isRadio	WIGOS_best	city	variables
40689	40689	BASRAH-HUSSEN	30.516666666666666	47.78333333333333	2.0	30 31 00N	047 47 00E	5.9	[30.57, 30.57]	[47.78, 47.78]	OSCAR	0-20000-0-40689		0-20000-0-40689	19580101	19730208	999.0	999.0	False	0-20000-0-40690	khorramshahr	[36, 85, 106, 107]
40689	40690	BASRAH INT. AIRPORT	30.516666666666666	47.78333333333333	3.0	30 31 00N	047 47 00E	5.9	[30.57, 30.57]	[47.78, 47.78]	OSCAR	0-20000-0-40690		0-20000-0-40690	19580101	19730208	999.0	999.0	True	0-20000-0-40690	khorramshahr	[36, 85, 106, 107]
40689	40689	BASRAH-HUSSEN	30.517	47.783	2.0			5.9	[30.57, 30.57]	[47.78, 47.78]	IGRA2			0-20300-0-40689	19580101	19730208	1957.0	1990.0	True	0-20000-0-40690	khorramshahr	[36, 85, 106, 107]
40689									[30.57, 30.57]	[47.78, 47.78]	WBAN			0-20500-0-nan	19580101	19730208				0-20000-0-40690	khorramshahr	[36, 85, 106, 107]
40689									[30.57, 30.57]	[47.78, 47.78]	CHUAN			0-20400-0-nan	19580101	19730208				0-20000-0-40690	khorramshahr	[36, 85, 106, 107]
40689	40689	Basrah, Iraq	30.57	47.78	-999.0			0.0	[30.57, 30.57]	[47.78, 47.78]	SCHROEDER		40689	0-20600-0-40689	19580101	19730208				0-20000-0-40690	khorramshahr	[36, 85, 106, 107]
40689	40690	Basrah International AP, Iraq	30.52	47.78	-999.0			5.5	[30.57, 30.57]	[47.78, 47.78]	SCHROEDER		40690	0-20600-0-40690	19580101	19730208				0-20000-0-40690	khorramshahr	[36, 85, 106, 107]
40689	40689	BASRAH                   	30.566666666666663	47.78333333333333	-999.0			0.5	[30.57, 30.57]	[47.78, 47.78]	WMO		40689	0-20700-0-40689	19580101	19730208				0-20000-0-40690	khorramshahr	[36, 85, 106, 107]
