level_0	index	WIGOS	station_name	latitude	longitude	elevation	ObsRems	original_lat	original_lon	station_id	start_date	end_date	isRadio	distance_km	distance_km_minusLat	inventory	WIGOS_calc	city	city_dist_km	city_lat	city_lon	station_id_igra	WMO_id	Unnamed: 0	date_min	date_max	lat_file	lon_file	file	file_dataset	file_min_date	file_max_date	file_statid	WIGOS_best	variables
0	0	0-20000-0-08314	MENORCA/AEROPUERTO	39.85472222222222	4.2155555555555555	86.0	Climatological station, Surface land meteorological station (SYNOP), RBCN, GOS, CLIMAT(C), RBSN(S)	39 51 17N	004 12 56E	08314	999	999	False	5.0		OSCAR	0-20000-0-08314	mahon	2.3	39.883333	4.25						[39.87, 39.87]	[4.27, 4.27]	era5.8314.bfr	bufr	19700501	19711115	08314	0-20000-0-08314	[36, 85, 106, 107]
0	0		MENORCA/MAHON	39.867	4.233	86.0				08314	1974	1976	True	3.2		IGRA2	0-20300-0-08314	mahon	2.3	39.883333	4.25	SPM00008314					[39.87, 39.87]	[4.27, 4.27]	era5.8314.bfr	bufr	19700501	19711115	08314	0-20000-0-08314	[36, 85, 106, 107]
0	0															WBAN	0-20500-0-nan	mahon	2.3	39.883333	4.25						[39.87, 39.87]	[4.27, 4.27]	era5.8314.bfr	bufr	19700501	19711115	08314	0-20000-0-08314	[36, 85, 106, 107]
0	0		Mahon	39.88	4.38	43				5223	-999-999	-999-999		9.5		CHUAN	0-20400-0-5223	mahon	2.3	39.883333	4.25		-999				[39.87, 39.87]	[4.27, 4.27]	era5.8314.bfr	bufr	19700501	19711115	08314	0-20000-0-08314	[36, 85, 106, 107]
0	0		Menorca - Mahon, Spain	39.87	4.27	-999				8314				0.0		SCHROEDER	0-20600-0-8314	mahon	2.3	39.883333	4.25		8314	349.0	1974-03-04 00:00:00	1976-05-03 00:00:00	[39.87, 39.87]	[4.27, 4.27]	era5.8314.bfr	bufr	19700501	19711115	08314	0-20000-0-08314	[36, 85, 106, 107]
0	0		MAHON/BALEARIC ISLANDS   	39.86666666666667	4.25	-999.0				08314				1.8		WMO	0-20700-0-08314	mahon	2.3	39.883333	4.25		08314	1103.0			[39.87, 39.87]	[4.27, 4.27]	era5.8314.bfr	bufr	19700501	19711115	08314	0-20000-0-08314	[36, 85, 106, 107]
