level_0	index	WIGOS	station_name	latitude	longitude	elevation	ObsRems	original_lat	original_lon	station_id	start_date	end_date	isRadio	distance_km	distance_km_minusLat	inventory	WIGOS_calc	city	city_dist_km	city_lat	city_lon	station_id_igra	WMO_id	Unnamed: 0	date_min	date_max	lat_file	lon_file	file	file_dataset	file_min_date	file_max_date	file_statid	WIGOS_best	variables
0	0	0-20000-0-78862	VC BIRD INT'L AIRPORT ANTIGUA	17.116666666666667	-61.78333333333333	10.0	Surface land meteorological station (SYNOP), RBSN(S), GOS	17 07 00N	061 47 00W	78862	999.0	999.0	False	0.5		OSCAR	0-20000-0-78862	sainte-rose	87.7	16.3333333	-61.6833333						[17.12, 17.12]	[-61.78, -61.78]	era5.78862.bfr	bufr	19580501	19600831	78862	0-20000-0-78862	[36, 85, 106, 107]
0	0		COOLIDGE FIELD (UA)	17.117	-61.783	10.0				78861	1947.0	1993.0	True	0.5		IGRA2	0-20300-0-78861	sainte-rose	87.7	16.3333333	-61.6833333	ACM00078861					[17.12, 17.12]	[-61.78, -61.78]	era5.78862.bfr	bufr	19580501	19600831	78862	0-20000-0-78862	[36, 85, 106, 107]
0	0		ST JOHNS COOLIDGE FI	17.12	-61.78	10.0584				11604	19411101.0	19490831.0		0.0		WBAN	0-20500-0-11604	sainte-rose	87.7	16.3333333	-61.6833333						[17.12, 17.12]	[-61.78, -61.78]	era5.78862.bfr	bufr	19580501	19600831	78862	0-20000-0-78862	[36, 85, 106, 107]
1	1		ST JOHNS	17.13	-61.78	19.2024				11647	19570901.0	99991231.0		1.1		WBAN	0-20500-0-11647	sainte-rose	87.7	16.3333333	-61.6833333						[17.12, 17.12]	[-61.78, -61.78]	era5.78862.bfr	bufr	19580501	19600831	78862	0-20000-0-78862	[36, 85, 106, 107]
0	0															CHUAN	0-20400-0-nan	sainte-rose	87.7	16.3333333	-61.6833333						[17.12, 17.12]	[-61.78, -61.78]	era5.78862.bfr	bufr	19580501	19600831	78862	0-20000-0-78862	[36, 85, 106, 107]
0	0		St. Johns (operated by Pan American Airways), Antigua and Barbuda, Leeward Islands	17.13	-61.86	-999.0				78861				8.6		SCHROEDER	0-20600-0-78861	sainte-rose	87.7	16.3333333	-61.6833333		78861	3400.0	1938-01-01 00:00:00	1989-05-01 00:00:00	[17.12, 17.12]	[-61.78, -61.78]	era5.78862.bfr	bufr	19580501	19600831	78862	0-20000-0-78862	[36, 85, 106, 107]
0	0		V.C BIRD INTERNATIONAL A 	17.133333333333333	-61.78333333333333	-999.0				78862				1.5		WMO	0-20700-0-78862	sainte-rose	87.7	16.3333333	-61.6833333		78862	4791.0			[17.12, 17.12]	[-61.78, -61.78]	era5.78862.bfr	bufr	19580501	19600831	78862	0-20000-0-78862	[36, 85, 106, 107]
