file_statid	station_id	station_name	latitude	longitude	elevation	original_lat	original_lon	distance_km	lat_file	lon_file	inventory	WIGOS	WMO_id	WIGOS_calc	file_min_date	file_max_date	start_date	end_date	isRadio	WIGOS_best	city	variables
16201	04018	Keflavíkurflugvöllir	63.974722222222226	-22.5875	54.0	63 58 29N	022 35 15W	0.8	[63.97, 63.95]	[-22.6, -22.62]	OSCAR	0-20000-0-04018		0-20000-0-04018	19580101	19781231	999.0	999.0	True	0-20000-0-04018	kopavogur	[36, 85, 106, 107]
16201	04124	STRAUMSVIK	64.05	-22.333333333333332	5.0	64 03 00N	022 20 00W	15.8	[63.97, 63.95]	[-22.6, -22.62]	OSCAR	0-20000-0-04124		0-20000-0-04124	19580101	19781231	999.0	999.0	False	0-20000-0-04018	kopavogur	[36, 85, 106, 107]
16201	04018	KEFLAVIKURFLUGVOLLUR	63.9806	-22.595	52.0			1.2	[63.97, 63.95]	[-22.6, -22.62]	IGRA2			0-20300-0-04018	19580101	19781231	1946.0	2021.0	True	0-20000-0-04018	kopavogur	[36, 85, 106, 107]
16201	16201	KEFLAVIK	63.97	-22.6	50.292			0.0	[63.97, 63.95]	[-22.6, -22.62]	WBAN		4018.0	0-20500-0-16201	19580101	19781231	19421001.0	19950101.0		0-20000-0-04018	kopavogur	[36, 85, 106, 107]
16201	16201	KEFLAVIK	63.97	-22.6	50.292			0.0	[63.97, 63.95]	[-22.6, -22.62]	WBAN		4018.0	0-20500-0-16201	19580101	19781231	19950101.0	99991231.0		0-20000-0-04018	kopavogur	[36, 85, 106, 107]
16201	16204	KEFLAVIK	63.95	-22.62	59.1312			2.4	[63.97, 63.95]	[-22.6, -22.62]	WBAN			0-20500-0-16204	19580101	19781231	19470501.0	19510831.0		0-20000-0-04018	kopavogur	[36, 85, 106, 107]
16201									[63.97, 63.95]	[-22.6, -22.62]	CHUAN			0-20400-0-nan	19580101	19781231				0-20000-0-04018	kopavogur	[36, 85, 106, 107]
16201	4018	Keflavik, Iceland	63.95	-22.62	-999.0			2.4	[63.97, 63.95]	[-22.6, -22.62]	SCHROEDER		4018	0-20600-0-4018	19580101	19781231				0-20000-0-04018	kopavogur	[36, 85, 106, 107]
16201	04018	KEFLAVIK                 	63.96666666666667	-22.6	-999.0			0.4	[63.97, 63.95]	[-22.6, -22.62]	WMO		04018	0-20700-0-04018	19580101	19781231				0-20000-0-04018	kopavogur	[36, 85, 106, 107]
