file_statid	station_id	station_name	latitude	longitude	elevation	original_lat	original_lon	distance_km	lat_file	lon_file	inventory	WIGOS	WMO_id	WIGOS_calc	file_min_date	file_max_date	start_date	end_date	isRadio	WIGOS_best	city	variables
27595	27595	KAZAN' (27595-0)	55.74	49.20444444444445	118.5	55 44 24N	049 12 16E	4.7	[55.78, 55.78]	[49.18, 49.18]	OSCAR	0-20000-0-27595		0-20000-0-27595	19580101	19781231	999	999	False	0-20000-0-27595	kazan	[36, 85, 106, 107]
27595	27595	KAZAN	55.6075	49.2942	115.5			20.5	[55.78, 55.78]	[49.18, 49.18]	IGRA2			0-20300-0-27595	19580101	19781231	1947	2017	True	0-20000-0-27595	kazan	[36, 85, 106, 107]
27595									[55.78, 55.78]	[49.18, 49.18]	WBAN			0-20500-0-nan	19580101	19781231				0-20000-0-27595	kazan	[36, 85, 106, 107]
27595	5177	Kazan'	55.78	49.13	78			3.1	[55.78, 55.78]	[49.18, 49.18]	CHUAN		-999	0-20400-0-5177	19580101	19781231	-999-999	-999-999		0-20000-0-27595	kazan	[36, 85, 106, 107]
27595	27595	Kazan', Russia	55.75	49.13	-999			4.6	[55.78, 55.78]	[49.18, 49.18]	SCHROEDER		27595	0-20600-0-27595	19580101	19781231				0-20000-0-27595	kazan	[36, 85, 106, 107]
27595	27595	KAZAN'                   	55.78333333333333	49.18333333333333	119.0			0.4	[55.78, 55.78]	[49.18, 49.18]	WMO		27595	0-20700-0-27595	19580101	19781231				0-20000-0-27595	kazan	[36, 85, 106, 107]
