file_statid	station_id	station_name	latitude	longitude	elevation	original_lat	original_lon	distance_km	lat_file	lon_file	inventory	WIGOS	WMO_id	WIGOS_calc	file_min_date	file_max_date	start_date	end_date	isRadio	WIGOS_best	city	variables
78397	78397	KINGSTON/NORMAN MANLEY	17.933333333333334	-76.78333333333333	14.0	17 56 00N	076 47 00W	0.5	[17.93, 17.93]	[-76.78, -76.78]	OSCAR	0-20000-0-78397		0-20000-0-78397	19580501	19781231	999	999	True	0-20000-0-78397	half way tree	[36, 85, 106, 107]
78397	78397	COOPERS HILL	18.0667	-76.85	786.0			16.8	[17.93, 17.93]	[-76.78, -76.78]	IGRA2			0-20300-0-78397	19580501	19781231	1956	2021	True	0-20000-0-78397	half way tree	[36, 85, 106, 107]
78397	11715	KINGSTON	17.93	-76.78	7.010400000000001			0.0	[17.93, 17.93]	[-76.78, -76.78]	WBAN			0-20500-0-11715	19580501	19781231	19490901	19720901		0-20000-0-78397	half way tree	[36, 85, 106, 107]
78397	11715	KINGSTON	17.93	-76.78	7.010400000000001			0.0	[17.93, 17.93]	[-76.78, -76.78]	WBAN		78397.0	0-20500-0-11715	19580501	19781231	19720901	19950101		0-20000-0-78397	half way tree	[36, 85, 106, 107]
78397	11715	KINGSTON	17.93	-76.78	7.010400000000001			0.0	[17.93, 17.93]	[-76.78, -76.78]	WBAN		78397.0	0-20500-0-11715	19580501	19781231	19950101	99991231		0-20000-0-78397	half way tree	[36, 85, 106, 107]
78397	11707	KINGSTON	17.83	-76.67	18.288			16.1	[17.93, 17.93]	[-76.78, -76.78]	WBAN			0-20500-0-11707	19580501	19781231	19421201	19431231		0-20000-0-78397	half way tree	[36, 85, 106, 107]
78397	5482	Kingston	17.98	-76.8	58			5.9	[17.93, 17.93]	[-76.78, -76.78]	CHUAN		-999	0-20400-0-5482	19580501	19781231	-999-999	-999-999		0-20000-0-78397	half way tree	[36, 85, 106, 107]
78397	78397	MKJP Kingston, Jamaica	17.95	-76.72	-999			6.7	[17.93, 17.93]	[-76.78, -76.78]	SCHROEDER		78397	0-20600-0-78397	19580501	19781231				0-20000-0-78397	half way tree	[36, 85, 106, 107]
78397	78397	PALISADOES (MANLEY AP)   	17.933333333333334	-76.78333333333333	-999.0			0.5	[17.93, 17.93]	[-76.78, -76.78]	WMO		78397	0-20700-0-78397	19580501	19781231				0-20000-0-78397	half way tree	[36, 85, 106, 107]
