file_statid	station_id	station_name	latitude	longitude	elevation	original_lat	original_lon	distance_km	lat_file	lon_file	inventory	WIGOS	WMO_id	WIGOS_calc	file_min_date	file_max_date	start_date	end_date	isRadio	WIGOS_best	city	variables
03170	03171	LEUCHARS	56.376666666666665	-2.862777777777778	11.6	56 22 36N	002 51 46W	6.0	[56.43, 56.43]	[-2.86, -2.87]	OSCAR	0-20000-0-03171		0-20000-0-03171	19590917	19781231	999	999	True	0-20000-0-03171	dundee	[36, 38, 39, 85, 104, 105, 106, 107, 117]
03170	03170	SHANWELL	56.433	-2.867	4.0			0.4	[56.43, 56.43]	[-2.86, -2.87]	IGRA2			0-20300-0-03170	19590917	19781231	1959	1992	True	0-20000-0-03171	dundee	[36, 38, 39, 85, 104, 105, 106, 107, 117]
03170	03171	LEUCHARS	56.383	-2.867	12.0			5.2	[56.43, 56.43]	[-2.86, -2.87]	IGRA2			0-20300-0-03171	19590917	19781231	1949	2002	True	0-20000-0-03171	dundee	[36, 38, 39, 85, 104, 105, 106, 107, 117]
03170	15002	LEUCHARS	56.38	-2.88	11.277600000000001			5.6	[56.43, 56.43]	[-2.86, -2.87]	WBAN			0-20500-0-15002	19590917	19781231	19440101	19450630		0-20000-0-03171	dundee	[36, 38, 39, 85, 104, 105, 106, 107, 117]
03170	5699	Leuchars	56.38	-2.88	45			5.6	[56.43, 56.43]	[-2.86, -2.87]	CHUAN		-999	0-20400-0-5699	19590917	19781231	-999-999	-999-999		0-20000-0-03171	dundee	[36, 38, 39, 85, 104, 105, 106, 107, 117]
03170	5208	Leuchars	56.38	-2.88	45			5.6	[56.43, 56.43]	[-2.86, -2.87]	CHUAN		-999	0-20400-0-5208	19590917	19781231	-999-999	-999-999		0-20000-0-03171	dundee	[36, 38, 39, 85, 104, 105, 106, 107, 117]
03170	5134	Firth of Forth	56.17	-2.8	18			29.3	[56.43, 56.43]	[-2.86, -2.87]	CHUAN		-999	0-20400-0-5134	19590917	19781231	-999-999	-999-999		0-20000-0-03171	dundee	[36, 38, 39, 85, 104, 105, 106, 107, 117]
03170	3170	Edinburgh - (Tayport - Shanwell Upper Air Station (operated by Royal Air Force), Shanwell Road), Scotland, UK	56.4386	-2.8603	-999			1.1	[56.43, 56.43]	[-2.86, -2.87]	SCHROEDER		3170	0-20600-0-3170	19590917	19781231				0-20000-0-03171	dundee	[36, 38, 39, 85, 104, 105, 106, 107, 117]
03170	3171	EGQL Edinburgh (Leuchars - RAF Leuchars), Scotland, UK	56.38	-2.88	-999			5.6	[56.43, 56.43]	[-2.86, -2.87]	SCHROEDER		3171	0-20600-0-3171	19590917	19781231				0-20000-0-03171	dundee	[36, 38, 39, 85, 104, 105, 106, 107, 117]
03170	03171	LEUCHARS                 	56.38333333333333	-2.8666666666666667	-999.0			5.2	[56.43, 56.43]	[-2.86, -2.87]	WMO		03171	0-20700-0-03171	19590917	19781231				0-20000-0-03171	dundee	[36, 38, 39, 85, 104, 105, 106, 107, 117]
03170									[56.43, 56.43]	[-2.86, -2.87]	AMMA			0-20800-0-nan	19590917	19781231				0-20000-0-03171	dundee	[36, 38, 39, 85, 104, 105, 106, 107, 117]
03170									[56.43, 56.43]	[-2.86, -2.87]	HARA			0-20111-0-nan	19590917	19781231				0-20000-0-03171	dundee	[36, 38, 39, 85, 104, 105, 106, 107, 117]
