file_statid	station_id	station_name	latitude	longitude	elevation	original_lat	original_lon	distance_km	lat_file	lon_file	inventory	WIGOS	WMO_id	WIGOS_calc	file_min_date	file_max_date	start_date	end_date	isRadio	WIGOS_best	city	variables
53845	53845	YAN AN (53845-0)	36.583333333333336	109.45	1181.1	36 35 00N	109 27 00E	4.8	[36.62, 36.6]	[109.53, 109.48]	OSCAR	0-20000-0-53845		0-20000-0-53845	19570901	19781231	999.0	999.0	False	0-20001-0-53845	yanan	[36, 38, 39, 85, 104, 105, 106, 107, 117]
53845	53845	YAN AN (53845-1)	36.56666666666667	109.45		36 34 00N	109 27 00E	5.8	[36.62, 36.6]	[109.53, 109.48]	OSCAR	0-20001-0-53845		0-20001-0-53845	19570901	19781231	999.0	999.0	True	0-20001-0-53845	yanan	[36, 38, 39, 85, 104, 105, 106, 107, 117]
53845	53845	YAN AN	36.5667	109.45	958.9			5.8	[36.62, 36.6]	[109.53, 109.48]	IGRA2			0-20300-0-53845	19570901	19781231	1956.0	2021.0	True	0-20001-0-53845	yanan	[36, 38, 39, 85, 104, 105, 106, 107, 117]
53845	43002	YENAN	36.52	109.45	98.1456			9.9	[36.62, 36.6]	[109.53, 109.48]	WBAN			0-20500-0-43002	19570901	19781231	19441101.0	19460228.0		0-20001-0-53845	yanan	[36, 38, 39, 85, 104, 105, 106, 107, 117]
53845									[36.62, 36.6]	[109.53, 109.48]	CHUAN			0-20400-0-nan	19570901	19781231				0-20001-0-53845	yanan	[36, 38, 39, 85, 104, 105, 106, 107, 117]
53845	53845	Yan'an, China	36.62	109.48	-999.0			2.9	[36.62, 36.6]	[109.53, 109.48]	SCHROEDER		53845	0-20600-0-53845	19570901	19781231				0-20001-0-53845	yanan	[36, 38, 39, 85, 104, 105, 106, 107, 117]
53845	53845	YAN AN                   	36.583333333333336	109.45	-999.0			4.8	[36.62, 36.6]	[109.53, 109.48]	WMO		53845	0-20700-0-53845	19570901	19781231				0-20001-0-53845	yanan	[36, 38, 39, 85, 104, 105, 106, 107, 117]
53845									[36.62, 36.6]	[109.53, 109.48]	AMMA			0-20800-0-nan	19570901	19781231				0-20001-0-53845	yanan	[36, 38, 39, 85, 104, 105, 106, 107, 117]
53845									[36.62, 36.6]	[109.53, 109.48]	HARA			0-20111-0-nan	19570901	19781231				0-20001-0-53845	yanan	[36, 38, 39, 85, 104, 105, 106, 107, 117]
