level_0	index	WIGOS	station_name	latitude	longitude	elevation	ObsRems	original_lat	original_lon	station_id	start_date	end_date	isRadio	distance_km	distance_km_minusLat	inventory	WIGOS_calc	city	city_dist_km	city_lat	city_lon	station_id_igra	WMO_id	Unnamed: 0	date_min	date_max	GCOS	ASECNA	Frequency per day	SOP frequency	IOP frequency	Upgraded ground station	2006 Success Rate (%)	Best 2006 Monthly success (%)	min_date	max_date	files	conv_lat	conv_lon	COUNTRY	#_OF _SOUNDINGS	YEARS	kind
0	0		CAIRNS AERO	-16.8736	145.7458	3.0				94287	1947.0	2014.0	True	5.7		IGRA2	0-20300-0-94287	cairns	4.4	-16.92304	145.766251	ASM00094287																					inconsistentCoordinates
0	0	0-20000-0-94287	CAIRNS AERO	-16.87361111111111	145.7458333333333	8.3	Climatological station, Precipitation station, Surface land meteorological station (SYNOP), Weather radar, CLIMAT(C), WRO, RBCN, GOS, RBSN(S), GSN	16 52 25S	145 44 45E	94287	999.0	999.0	False	5.7		OSCAR	0-20000-0-94287	cairns	4.4	-16.92304	145.766251																						inconsistentCoordinates
1	2	0-20000-0-94288	CAIRNS RACECOURSE	-16.94638888888889	145.74749999999997	4.1	Surface land meteorological station (SYNOP), GOS	16 56 47S	145 44 51E	94288	999.0	999.0	False	7.2		OSCAR	0-20000-0-94288	cairns	4.4	-16.92304	145.766251																						inconsistentCoordinates
0	0		Cairns RAAF Meteorological Office, Queensland, Australia	-16.92	145.77	-999.0				94287				7.8		SCHROEDER	0-20600-0-94287	cairns	4.4	-16.92304	145.766251		94287	3868.0	1941-01-01 00:00:00	1992-01-01 00:00:00																	inconsistentCoordinates
0	0		CAIRNS	-16.88	145.75	2.1336				81401	19430101.0	19450131.0		5.8		WBAN	0-20500-0-81401	cairns	4.4	-16.92304	145.766251																						inconsistentCoordinates
0	0		CAIRNS                   	-16.883333333333333	145.75	8.0				94287				5.6		WMO	0-20700-0-94287	cairns	4.4	-16.92304	145.766251		94287	1604.0																			inconsistentCoordinates
