file_statid	station_id	station_name	latitude	longitude	elevation	original_lat	original_lon	distance_km	lat_file	lon_file	inventory	WIGOS	WMO_id	WIGOS_calc	file_min_date	file_max_date	start_date	end_date	isRadio	WIGOS_best	city	variables
1:34880	34880	ASTRAHAN' (34880-0)	46.28333333333333	47.983333333333334	-20.6	46 17 00N	047 59 00E	7.5	[46.35, 46.27]	[48.03, 47.97]	OSCAR	0-20000-0-34880		0-20000-0-34880	19470213	19781231	999	999	False	0-20001-0-34882	astrakhan	[38, 85, 104, 105, 106, 107, 117]
1:34880	34882	ASTRAHAN' (34882-1)	46.28333333333333	47.983333333333334		46 17 00N	047 59 00E	7.5	[46.35, 46.27]	[48.03, 47.97]	OSCAR	0-20001-0-34882		0-20001-0-34882	19470213	19781231	999	999	True	0-20001-0-34882	astrakhan	[38, 85, 104, 105, 106, 107, 117]
1:34880	34882	ASTRAHAN	46.2833	47.9833	-17.0			7.5	[46.35, 46.27]	[48.03, 47.97]	IGRA2			0-20300-0-34882	19470213	19781231	1939	2021	True	0-20001-0-34882	astrakhan	[38, 85, 104, 105, 106, 107, 117]
1:34880									[46.35, 46.27]	[48.03, 47.97]	WBAN			0-20500-0-nan	19470213	19781231				0-20001-0-34882	astrakhan	[38, 85, 104, 105, 106, 107, 117]
1:34880	6159	Astrakhan	46.35	47.97	-24			0.0	[46.35, 46.27]	[48.03, 47.97]	CHUAN		-999	0-20400-0-6159	19470213	19781231	-999-999	-999-999		0-20001-0-34882	astrakhan	[38, 85, 104, 105, 106, 107, 117]
1:34880	34880	Astrakhan, Russia	46.34	48.04	-999			5.5	[46.35, 46.27]	[48.03, 47.97]	SCHROEDER		34880	0-20600-0-34880	19470213	19781231				0-20001-0-34882	astrakhan	[38, 85, 104, 105, 106, 107, 117]
1:34880	34880	ASTRAHAN'                	46.266666666666666	48.03333333333333	-21.0			10.5	[46.35, 46.27]	[48.03, 47.97]	WMO		34880	0-20700-0-34880	19470213	19781231				0-20001-0-34882	astrakhan	[38, 85, 104, 105, 106, 107, 117]
1:34880									[46.35, 46.27]	[48.03, 47.97]	AMMA			0-20800-0-nan	19470213	19781231				0-20001-0-34882	astrakhan	[38, 85, 104, 105, 106, 107, 117]
1:34880									[46.35, 46.27]	[48.03, 47.97]	HARA			0-20111-0-nan	19470213	19781231				0-20001-0-34882	astrakhan	[38, 85, 104, 105, 106, 107, 117]
