file_statid	station_id	station_name	latitude	longitude	elevation	original_lat	original_lon	distance_km	lat_file	lon_file	inventory	WIGOS	WMO_id	WIGOS_calc	file_min_date	file_max_date	start_date	end_date	isRadio	WIGOS_best	city	variables
1:60714	60714	BIZERTE	37.25	9.8	3.0	37 15 00N	009 48 00E	5.5	[37.23, 37.2]	[9.82, 9.8]	OSCAR	0-20000-0-60714		0-20000-0-60714	19520119	19771128	999	999	False	0-20000-0-60714	manzil jamil	[38, 85, 104, 105, 106, 107, 117]
1:60714	60714	BIZERTE	37.233	9.817	3.0			4.0	[37.23, 37.2]	[9.82, 9.8]	IGRA2			0-20300-0-60714	19520119	19771128	1973	1995	True	0-20000-0-60714	manzil jamil	[38, 85, 104, 105, 106, 107, 117]
1:60714	33003	SISI AHMED	37.2	9.83	4.2672			2.7	[37.23, 37.2]	[9.82, 9.8]	WBAN			0-20500-0-33003	19520119	19771128	19440101	19450630		0-20000-0-60714	manzil jamil	[38, 85, 104, 105, 106, 107, 117]
1:60714	33027	MATEUR	37.12	9.67	5.1816			14.6	[37.23, 37.2]	[9.82, 9.8]	WBAN			0-20500-0-33027	19520119	19771128	19430801	19430930		0-20000-0-60714	manzil jamil	[38, 85, 104, 105, 106, 107, 117]
1:60714	5580	Bizerta	37.28	9.87	10			10.8	[37.23, 37.2]	[9.82, 9.8]	CHUAN		-999	0-20400-0-5580	19520119	19771128	-999-999	-999-999		0-20000-0-60714	manzil jamil	[38, 85, 104, 105, 106, 107, 117]
1:60714	60714	Bizerte, Tunisia	37.23	9.82	-999			3.8	[37.23, 37.2]	[9.82, 9.8]	SCHROEDER		60714	0-20600-0-60714	19520119	19771128				0-20000-0-60714	manzil jamil	[38, 85, 104, 105, 106, 107, 117]
1:60714	60714	BIZERTE                  	37.23333333333333	9.816666666666666	-999.0			4.0	[37.23, 37.2]	[9.82, 9.8]	WMO		60714	0-20700-0-60714	19520119	19771128				0-20000-0-60714	manzil jamil	[38, 85, 104, 105, 106, 107, 117]
1:60714									[37.23, 37.2]	[9.82, 9.8]	AMMA			0-20800-0-nan	19520119	19771128				0-20000-0-60714	manzil jamil	[38, 85, 104, 105, 106, 107, 117]
1:60714									[37.23, 37.2]	[9.82, 9.8]	HARA			0-20111-0-nan	19520119	19771128				0-20000-0-60714	manzil jamil	[38, 85, 104, 105, 106, 107, 117]
