file_statid	station_id	station_name	latitude	longitude	elevation	original_lat	original_lon	distance_km	lat_file	lon_file	inventory	WIGOS	WMO_id	WIGOS_calc	file_min_date	file_max_date	start_date	end_date	isRadio	WIGOS_best	city	variables
1:86218	86218	AEROPUERTO SILVIO PETTIROSSI, LUQUE	-25.233333333333334	-57.516666666666666	83.0	25 14 00S	057 31 00W	6.2	[-25.27, -25.27]	[-57.47, -57.47]	OSCAR	0-20000-0-86218		0-20000-0-86218	19500101	19680519	999.0	999.0	False	0-20000-0-86218	aregua	[38, 104, 105, 106, 107]
1:86218	86218	AEROPUERTO SILVIO PETTIROSSI	-25.2333	-57.5167	83.0			6.2	[-25.27, -25.27]	[-57.47, -57.47]	IGRA2			0-20300-0-86218	19500101	19680519	1975.0	2020.0	True	0-20000-0-86218	aregua	[38, 104, 105, 106, 107]
1:86218	52502	ASUNCION	-25.25	-57.52	92.0496			5.5	[-25.27, -25.27]	[-57.47, -57.47]	WBAN		86218.0	0-20500-0-52502	19500101	19680519	19870101.0	99991231.0		0-20000-0-86218	aregua	[38, 104, 105, 106, 107]
1:86218									[-25.27, -25.27]	[-57.47, -57.47]	CHUAN			0-20400-0-nan	19500101	19680519				0-20000-0-86218	aregua	[38, 104, 105, 106, 107]
1:86218	86218	Asuncion AP, Paraguay	-25.27	-57.62	-999.0			15.1	[-25.27, -25.27]	[-57.47, -57.47]	SCHROEDER		86218	0-20600-0-86218	19500101	19680519				0-20000-0-86218	aregua	[38, 104, 105, 106, 107]
1:86218	86218	ASUNCION                 	-25.266666666666666	-57.63333333333333	111.0			16.5	[-25.27, -25.27]	[-57.47, -57.47]	WMO		86218	0-20700-0-86218	19500101	19680519				0-20000-0-86218	aregua	[38, 104, 105, 106, 107]
1:86218	86217	ASUNCION                 	-25.266666666666666	-57.63333333333333	-999.0			16.5	[-25.27, -25.27]	[-57.47, -57.47]	WMO		86217	0-20700-0-86217	19500101	19680519				0-20000-0-86218	aregua	[38, 104, 105, 106, 107]
1:86218									[-25.27, -25.27]	[-57.47, -57.47]	AMMA			0-20800-0-nan	19500101	19680519				0-20000-0-86218	aregua	[38, 104, 105, 106, 107]
1:86218									[-25.27, -25.27]	[-57.47, -57.47]	HARA			0-20111-0-nan	19500101	19680519				0-20000-0-86218	aregua	[38, 104, 105, 106, 107]
