level_0	index	WIGOS	station_name	latitude	longitude	elevation	ObsRems	original_lat	original_lon	station_id	start_date	end_date	isRadio	distance_km	distance_km_minusLat	inventory	WIGOS_calc	city	city_dist_km	city_lat	city_lon	station_id_igra	WMO_id	Unnamed: 0	date_min	date_max	GCOS	ASECNA	Frequency per day	SOP frequency	IOP frequency	Upgraded ground station	2006 Success Rate (%)	Best 2006 Monthly success (%)	min_date	max_date	files	conv_lat	conv_lon	COUNTRY	#_OF _SOUNDINGS	YEARS	lat_file	lon_file	file	file_dataset	file_min_date	file_max_date	file_statid	WIGOS_best	variables	kind
0	0	0-20000-0-06910	BEROMUENSTER	47.18944444444444	8.175555555555555		Automatic weather station (AWS), Precipitation station, Radiation station, GOS, GAW Regional	47 11 22N	008 10 32E	06910	999.0	999.0	False	1.2		OSCAR	0-20000-0-06910	luzern	14.9	47.083333	8.266667																						[47.2, 47.2]	[8.17, 8.17]	era5.conv._66053	era5_1	20020516	20020516	66053	0-20000-0-06910	[36, 38, 39, 85, 104, 105, 106, 107, 117]	identified
1	1	0-20000-0-06644	MOSEN	47.24388888888889	8.232777777777779	453.9	Automatic weather station (AWS), Cryosphere station, Precipitation station, Radiation station, Surface land meteorological station (SYNOP), GOS	47 14 38N	008 13 58E	06644	999.0	999.0	False	6.8		OSCAR	0-20000-0-06644	luzern	14.9	47.083333	8.266667																						[47.2, 47.2]	[8.17, 8.17]	era5.conv._66053	era5_1	20020516	20020516	66053	0-20000-0-06910	[36, 38, 39, 85, 104, 105, 106, 107, 117]	identified
2	2	0-20000-0-06648	EGOLZWIL	47.17944444444444	8.004722222222222	522.76	Automatic weather station (AWS), Cryosphere station, Precipitation station, Radiation station, Surface land meteorological station (SYNOP), GOS	47 10 46N	008 00 17E	06648	999.0	999.0	False	12.7		OSCAR	0-20000-0-06648	luzern	14.9	47.083333	8.266667																						[47.2, 47.2]	[8.17, 8.17]	era5.conv._66053	era5_1	20020516	20020516	66053	0-20000-0-06910	[36, 38, 39, 85, 104, 105, 106, 107, 117]	identified
3	3	0-20000-0-06805	EMMEN	47.08416666666667	8.295833333333333	426.0	Automatic weather station (AWS), Surface land meteorological station (SYNOP), GOS	47 05 03N	008 17 45E	06805	999.0	999.0	False	16.0		OSCAR	0-20000-0-06805	luzern	14.9	47.083333	8.266667																						[47.2, 47.2]	[8.17, 8.17]	era5.conv._66053	era5_1	20020516	20020516	66053	0-20000-0-06910	[36, 38, 39, 85, 104, 105, 106, 107, 117]	identified
4	4	0-20000-0-06650	LUZERN	47.03638888888889	8.301111111111112	455.67	Automatic weather station (AWS), Cryosphere station, Precipitation station, Radiation station, Surface land meteorological station (SYNOP), GOS	47 02 11N	008 18 04E	06650	999.0	999.0	False	20.7		OSCAR	0-20000-0-06650	luzern	14.9	47.083333	8.266667																						[47.2, 47.2]	[8.17, 8.17]	era5.conv._66053	era5_1	20020516	20020516	66053	0-20000-0-06910	[36, 38, 39, 85, 104, 105, 106, 107, 117]	identified
5	5	0-20000-0-06633	BUCHS / AARAU	47.38444444444444	8.079444444444444	388.08	Automatic weather station (AWS), Cryosphere station, Precipitation station, Radiation station, Surface land meteorological station (SYNOP), GOS	47 23 04N	008 04 46E	06633	999.0	999.0	False	21.6		OSCAR	0-20000-0-06633	luzern	14.9	47.083333	8.266667																						[47.2, 47.2]	[8.17, 8.17]	era5.conv._66053	era5_1	20020516	20020516	66053	0-20000-0-06910	[36, 38, 39, 85, 104, 105, 106, 107, 117]	identified
6	6	0-20000-0-06674	CHAM	47.18833333333333	8.464722222222221	443.36	Automatic weather station (AWS), Precipitation station, Radiation station, Surface land meteorological station (SYNOP), GOS	47 11 18N	008 27 53E	06674	999.0	999.0	False	22.4		OSCAR	0-20000-0-06674	luzern	14.9	47.083333	8.266667																						[47.2, 47.2]	[8.17, 8.17]	era5.conv._66053	era5_1	20020516	20020516	66053	0-20000-0-06910	[36, 38, 39, 85, 104, 105, 106, 107, 117]	identified
7	7	0-20000-0-06626	GOESGEN	47.363055555555555	7.973611111111111	381.9	Automatic weather station (AWS), Precipitation station, Radiation station, Surface land meteorological station (SYNOP), GOS	47 21 47N	007 58 25E	06626	999.0	999.0	False	23.4		OSCAR	0-20000-0-06626	luzern	14.9	47.083333	8.266667																						[47.2, 47.2]	[8.17, 8.17]	era5.conv._66053	era5_1	20020516	20020516	66053	0-20000-0-06910	[36, 38, 39, 85, 104, 105, 106, 107, 117]	identified
8	8	0-20000-0-06659	PILATUS	46.97888888888889	8.252222222222223	2103.79	Automatic weather station (AWS), Precipitation station, Radiation station, Surface land meteorological station (SYNOP), GOS	46 58 44N	008 15 08E	06659	999.0	999.0	False	25.4		OSCAR	0-20000-0-06659	luzern	14.9	47.083333	8.266667																						[47.2, 47.2]	[8.17, 8.17]	era5.conv._66053	era5_1	20020516	20020516	66053	0-20000-0-06910	[36, 38, 39, 85, 104, 105, 106, 107, 117]	identified
9	9	0-20000-0-06908	RIGI / SEEBODENALP	47.0675	8.463333333333333	1032.6	Automatic weather station (AWS), Precipitation station, Radiation station, Surface land meteorological station (SYNOP), GOS	47 04 03N	008 27 48E	06908	999.0	999.0	False	26.7		OSCAR	0-20000-0-06908	luzern	14.9	47.083333	8.266667																						[47.2, 47.2]	[8.17, 8.17]	era5.conv._66053	era5_1	20020516	20020516	66053	0-20000-0-06910	[36, 38, 39, 85, 104, 105, 106, 107, 117]	identified
10	10	0-20000-0-06661	ALBIS	47.284166666666664	8.511944444444444		Surface land meteorological station (SYNOP), GOS	47 17 03N	008 30 43E	06661	999.0	999.0	False	27.5		OSCAR	0-20000-0-06661	luzern	14.9	47.083333	8.266667																						[47.2, 47.2]	[8.17, 8.17]	era5.conv._66053	era5_1	20020516	20020516	66053	0-20000-0-06910	[36, 38, 39, 85, 104, 105, 106, 107, 117]	identified
11	11	0-20000-0-06639	NAPF	47.00472222222222	7.94	1405.38	Automatic weather station (AWS), Precipitation station, Radiation station, Surface land meteorological station (SYNOP), GOS	47 00 17N	007 56 24E	06639	999.0	999.0	False	27.9		OSCAR	0-20000-0-06639	luzern	14.9	47.083333	8.266667																						[47.2, 47.2]	[8.17, 8.17]	era5.conv._66053	era5_1	20020516	20020516	66053	0-20000-0-06910	[36, 38, 39, 85, 104, 105, 106, 107, 117]	identified
12	12	0-20000-0-06905	HAERKINGEN	47.31194444444444	7.820277777777777	432.4	Automatic weather station (AWS), Precipitation station, Radiation station, Surface land meteorological station (SYNOP), GOS	47 18 43N	007 49 13E	06905	999.0	999.0	False	29.3		OSCAR	0-20000-0-06905	luzern	14.9	47.083333	8.266667																						[47.2, 47.2]	[8.17, 8.17]	era5.conv._66053	era5_1	20020516	20020516	66053	0-20000-0-06910	[36, 38, 39, 85, 104, 105, 106, 107, 117]	identified
13	13	0-20000-0-06677	UETLIBERG	47.35138888888889	8.490277777777777		Automatic weather station (AWS), Radiation station, GOS	47 21 05N	008 29 25E	06677	999.0	999.0	False	29.5		OSCAR	0-20000-0-06677	luzern	14.9	47.083333	8.266667																						[47.2, 47.2]	[8.17, 8.17]	era5.conv._66053	era5_1	20020516	20020516	66053	0-20000-0-06910	[36, 38, 39, 85, 104, 105, 106, 107, 117]	identified
14	14	0-20000-0-06643	WYNAU	47.255	7.7875	423.67	Automatic weather station (AWS), Cryosphere station, Precipitation station, Radiation station, Surface land meteorological station (SYNOP), GOS	47 15 18N	007 47 15E	06643	999.0	999.0	False	29.6		OSCAR	0-20000-0-06643	luzern	14.9	47.083333	8.266667																						[47.2, 47.2]	[8.17, 8.17]	era5.conv._66053	era5_1	20020516	20020516	66053	0-20000-0-06910	[36, 38, 39, 85, 104, 105, 106, 107, 117]	identified
0	0															IGRA2	0-20300-0-nan	luzern	14.9	47.083333	8.266667																						[47.2, 47.2]	[8.17, 8.17]	era5.conv._66053	era5_1	20020516	20020516	66053	0-20000-0-06910	[36, 38, 39, 85, 104, 105, 106, 107, 117]	identified
0	0															WBAN	0-20500-0-nan	luzern	14.9	47.083333	8.266667																						[47.2, 47.2]	[8.17, 8.17]	era5.conv._66053	era5_1	20020516	20020516	66053	0-20000-0-06910	[36, 38, 39, 85, 104, 105, 106, 107, 117]	identified
0	0															CHUAN	0-20400-0-nan	luzern	14.9	47.083333	8.266667																						[47.2, 47.2]	[8.17, 8.17]	era5.conv._66053	era5_1	20020516	20020516	66053	0-20000-0-06910	[36, 38, 39, 85, 104, 105, 106, 107, 117]	identified
0	0		Merenschwand ALPEX radiosonde site, Switzerland	47.25	8.37	-999.0				6798				16.1		SCHROEDER	0-20600-0-6798	luzern	14.9	47.083333	8.266667		6798	239.0	1982-03-01 00:00:00	1982-03-01 00:00:00																	[47.2, 47.2]	[8.17, 8.17]	era5.conv._66053	era5_1	20020516	20020516	66053	0-20000-0-06910	[36, 38, 39, 85, 104, 105, 106, 107, 117]	identified
1	1		"(made up station ID) ""SWM44"" near Wynau, Switzerland"	47.3	8.0	-999.0				5665				17.0		SCHROEDER	0-20600-0-5665	luzern	14.9	47.083333	8.266667		5665	203.0	1992-10-14 00:00:00	1992-10-14 00:00:00																	[47.2, 47.2]	[8.17, 8.17]	era5.conv._66053	era5_1	20020516	20020516	66053	0-20000-0-06910	[36, 38, 39, 85, 104, 105, 106, 107, 117]	identified
0	0		MOSEN                    	47.25	8.233333333333333	-999.0				06644				7.3		WMO	0-20700-0-06644	luzern	14.9	47.083333	8.266667		06644	4952.0																			[47.2, 47.2]	[8.17, 8.17]	era5.conv._66053	era5_1	20020516	20020516	66053	0-20000-0-06910	[36, 38, 39, 85, 104, 105, 106, 107, 117]	identified
1	1		EGOLZWIL                 	47.18333333333333	8.0	-999.0				06648				13.0		WMO	0-20700-0-06648	luzern	14.9	47.083333	8.266667		06648	3672.0																			[47.2, 47.2]	[8.17, 8.17]	era5.conv._66053	era5_1	20020516	20020516	66053	0-20000-0-06910	[36, 38, 39, 85, 104, 105, 106, 107, 117]	identified
2	2		LUZERN                   	47.03333333333333	8.3	-999.0				06650				21.0		WMO	0-20700-0-06650	luzern	14.9	47.083333	8.266667		06650	3673.0																			[47.2, 47.2]	[8.17, 8.17]	era5.conv._66053	era5_1	20020516	20020516	66053	0-20000-0-06910	[36, 38, 39, 85, 104, 105, 106, 107, 117]	identified
3	3		BUCHS / AARAU            	47.38333333333333	8.083333333333334	-999.0				06633				21.4		WMO	0-20700-0-06633	luzern	14.9	47.083333	8.266667		06633	3662.0																			[47.2, 47.2]	[8.17, 8.17]	era5.conv._66053	era5_1	20020516	20020516	66053	0-20000-0-06910	[36, 38, 39, 85, 104, 105, 106, 107, 117]	identified
4	4		CHAM                     	47.18333333333333	8.466666666666667	-999.0				06674				22.6		WMO	0-20700-0-06674	luzern	14.9	47.083333	8.266667		06674	4962.0																			[47.2, 47.2]	[8.17, 8.17]	era5.conv._66053	era5_1	20020516	20020516	66053	0-20000-0-06910	[36, 38, 39, 85, 104, 105, 106, 107, 117]	identified
5	5		GOESGEN                  	47.36666666666667	7.966666666666667	-999.0				06626				24.1		WMO	0-20700-0-06626	luzern	14.9	47.083333	8.266667		06626	3657.0																			[47.2, 47.2]	[8.17, 8.17]	era5.conv._66053	era5_1	20020516	20020516	66053	0-20000-0-06910	[36, 38, 39, 85, 104, 105, 106, 107, 117]	identified
6	6		PILATUS                  	46.98333333333333	8.25	-999.0				06659				24.8		WMO	0-20700-0-06659	luzern	14.9	47.083333	8.266667		06659	3678.0																			[47.2, 47.2]	[8.17, 8.17]	era5.conv._66053	era5_1	20020516	20020516	66053	0-20000-0-06910	[36, 38, 39, 85, 104, 105, 106, 107, 117]	identified
7	7		RIGI / SEEBODENALP       	47.06666666666667	8.466666666666667	-999.0				06908				26.9		WMO	0-20700-0-06908	luzern	14.9	47.083333	8.266667		06908	4988.0																			[47.2, 47.2]	[8.17, 8.17]	era5.conv._66053	era5_1	20020516	20020516	66053	0-20000-0-06910	[36, 38, 39, 85, 104, 105, 106, 107, 117]	identified
8	8		NAPF                     	47.0	7.933333333333334	-999.0				06639				28.6		WMO	0-20700-0-06639	luzern	14.9	47.083333	8.266667		06639	3668.0																			[47.2, 47.2]	[8.17, 8.17]	era5.conv._66053	era5_1	20020516	20020516	66053	0-20000-0-06910	[36, 38, 39, 85, 104, 105, 106, 107, 117]	identified
9	9		HAERKINGEN               	47.31666666666667	7.816666666666666	-999.0				06905				29.7		WMO	0-20700-0-06905	luzern	14.9	47.083333	8.266667		06905	4985.0																			[47.2, 47.2]	[8.17, 8.17]	era5.conv._66053	era5_1	20020516	20020516	66053	0-20000-0-06910	[36, 38, 39, 85, 104, 105, 106, 107, 117]	identified
10	10		WYNAU                    	47.25	7.783333333333333	-999.0				06643				29.8		WMO	0-20700-0-06643	luzern	14.9	47.083333	8.266667		06643	4951.0																			[47.2, 47.2]	[8.17, 8.17]	era5.conv._66053	era5_1	20020516	20020516	66053	0-20000-0-06910	[36, 38, 39, 85, 104, 105, 106, 107, 117]	identified
11	11		WYNAU                    	47.25	7.783333333333333	-999.0				06634				29.8		WMO	0-20700-0-06634	luzern	14.9	47.083333	8.266667		06634	3663.0																			[47.2, 47.2]	[8.17, 8.17]	era5.conv._66053	era5_1	20020516	20020516	66053	0-20000-0-06910	[36, 38, 39, 85, 104, 105, 106, 107, 117]	identified
0	0															AMMA	0-20800-0-nan	luzern	14.9	47.083333	8.266667																						[47.2, 47.2]	[8.17, 8.17]	era5.conv._66053	era5_1	20020516	20020516	66053	0-20000-0-06910	[36, 38, 39, 85, 104, 105, 106, 107, 117]	identified
0	0															HARA	0-20111-0-nan	luzern	14.9	47.083333	8.266667																						[47.2, 47.2]	[8.17, 8.17]	era5.conv._66053	era5_1	20020516	20020516	66053	0-20000-0-06910	[36, 38, 39, 85, 104, 105, 106, 107, 117]	identified
