file_statid	station_id	station_name	latitude	longitude	elevation	original_lat	original_lon	distance_km	lat_file	lon_file	inventory	WIGOS	WMO_id	WIGOS_calc	file_min_date	file_max_date	start_date	end_date	isRadio	WIGOS_best	city	variables
91789	91789	NUKU'ALOFA	-21.133333333333333	-175.18333333333334		21 08 00S	175 11 00W	1828.6	[-20.77, -20.77]	[167.23, 167.23]	OSCAR	0-20000-0-91789		0-20000-0-91789	19860920	19860920	999.0	999.0	False	0-20000-0-91582	we	[104, 105, 106, 107, 117]
91789	91582	OUANAHAM (ILE LIFOU)	-20.776944444444442	167.24055555555555	32.0	20 46 37S	167 14 26E	1.3	[-20.77, -20.77]	[167.23, 167.23]	OSCAR	0-20000-0-91582		0-20000-0-91582	19860920	19860920	999.0	999.0	False	0-20000-0-91582	we	[104, 105, 106, 107, 117]
91789	91582	OUANAHAM	-20.767	167.233	28.0			0.5	[-20.77, -20.77]	[167.23, 167.23]	IGRA2			0-20300-0-91582	19860920	19860920	1973.0	2004.0	True	0-20000-0-91582	we	[104, 105, 106, 107, 117]
91789									[-20.77, -20.77]	[167.23, 167.23]	WBAN			0-20500-0-nan	19860920	19860920				0-20000-0-91582	we	[104, 105, 106, 107, 117]
91789									[-20.77, -20.77]	[167.23, 167.23]	CHUAN			0-20400-0-nan	19860920	19860920				0-20000-0-91582	we	[104, 105, 106, 107, 117]
91789	91582	Ouanaham, Lifou Island, New Caledonia	-20.77	167.23	-999.0			0.0	[-20.77, -20.77]	[167.23, 167.23]	SCHROEDER		91582	0-20600-0-91582	19860920	19860920				0-20000-0-91582	we	[104, 105, 106, 107, 117]
91789	91582	CHEPENEHE (ILE LIFOU)    	-20.78333333333333	167.15	-999.0			8.5	[-20.77, -20.77]	[167.23, 167.23]	WMO		91582	0-20700-0-91582	19860920	19860920				0-20000-0-91582	we	[104, 105, 106, 107, 117]
91789									[-20.77, -20.77]	[167.23, 167.23]	AMMA			0-20800-0-nan	19860920	19860920				0-20000-0-91582	we	[104, 105, 106, 107, 117]
91789									[-20.77, -20.77]	[167.23, 167.23]	HARA			0-20111-0-nan	19860920	19860920				0-20000-0-91582	we	[104, 105, 106, 107, 117]
