file_statid	station_id	station_name	latitude	longitude	elevation	original_lat	original_lon	distance_km	lat_file	lon_file	inventory	WIGOS	WMO_id	WIGOS_calc	file_min_date	file_max_date	start_date	end_date	isRadio	WIGOS_best	city	variables
01001	01001	JAN MAYEN (1001-0)	70.93305555555555	-8.666666666666666	9.4	70 55 59N	008 40 00W	0.8	[71.0, 70.93]	[-8.583, -8.671]	OSCAR	0-20000-0-01001		0-20000-0-01001	19790201	20211231	999	999	False	0-20001-0-01001	None	[36, 38, 39, 85, 104, 105, 106, 107, 117]
01001	01001	JAN MAYEN (1001-1)	70.93972222222223	-8.667777777777777		70 56 23N	008 40 04W	0.1	[71.0, 70.93]	[-8.583, -8.671]	OSCAR	0-20001-0-01001		0-20001-0-01001	19790201	20211231	999	999	True	0-20001-0-01001	None	[36, 38, 39, 85, 104, 105, 106, 107, 117]
01001	01001	JAN MAYEN	70.9397	-8.6678	9.0			0.1	[71.0, 70.93]	[-8.583, -8.671]	IGRA2			0-20300-0-01001	19790201	20211231	1949	2020	True	0-20001-0-01001	None	[36, 38, 39, 85, 104, 105, 106, 107, 117]
01001									[71.0, 70.93]	[-8.583, -8.671]	WBAN			0-20500-0-nan	19790201	20211231				0-20001-0-01001	None	[36, 38, 39, 85, 104, 105, 106, 107, 117]
01001	5168	Jan Mayen	70.98	-8.3	20			14.2	[71.0, 70.93]	[-8.583, -8.671]	CHUAN		-999	0-20400-0-5168	19790201	20211231	-999-999	-999-999		0-20001-0-01001	None	[36, 38, 39, 85, 104, 105, 106, 107, 117]
01001	1001	Jan Mayen - Oldest Meteorological Station (Eldstemetten), Norway	70.98	-8.35	-999			12.5	[71.0, 70.93]	[-8.583, -8.671]	SCHROEDER		1001	0-20600-0-1001	19790201	20211231				0-20001-0-01001	None	[36, 38, 39, 85, 104, 105, 106, 107, 117]
01001	01001	JAN MAYEN                	70.95	-8.666666666666666	-999.0			1.1	[71.0, 70.93]	[-8.583, -8.671]	WMO		01001	0-20700-0-01001	19790201	20211231				0-20001-0-01001	None	[36, 38, 39, 85, 104, 105, 106, 107, 117]
01001									[71.0, 70.93]	[-8.583, -8.671]	AMMA			0-20800-0-nan	19790201	20211231				0-20001-0-01001	None	[36, 38, 39, 85, 104, 105, 106, 107, 117]
01001	01001	JAN MAYEN 	70.93	-8.67				1.1	[71.0, 70.93]	[-8.583, -8.671]	HARA		01001	0-20111-0-01001	19790201	20211231			True	0-20001-0-01001	None	[36, 38, 39, 85, 104, 105, 106, 107, 117]
