file_statid	station_id	station_name	latitude	longitude	elevation	original_lat	original_lon	distance_km	lat_file	lon_file	inventory	WIGOS	WMO_id	WIGOS_calc	file_min_date	file_max_date	start_date	end_date	isRadio	WIGOS_best	city	variables
07149	07149	ORLY	48.71666666666667	2.3844444444444446	90.0	48 43 00N	002 23 04E	1.9	[48.73, 48.73]	[2.4, 2.4]	OSCAR	0-20000-0-07149		0-20000-0-07149	19790222	19941125	999	999	False	0-20000-0-07145	villeneuve-le-roi	[36, 38, 39, 85, 104, 105, 106, 107, 117]
07149	07156	PARIS-MONTSOURIS	48.82166666666667	2.3377777777777777	78.0	48 49 18N	002 20 16E	11.2	[48.73, 48.73]	[2.4, 2.4]	OSCAR	0-20000-0-07156		0-20000-0-07156	19790222	19941125	999	999	False	0-20000-0-07145	villeneuve-le-roi	[36, 38, 39, 85, 104, 105, 106, 107, 117]
07149	07147	VILLACOUBLAY	48.769999999999996	2.205	176.0	48 46 12N	002 12 18E	15.0	[48.73, 48.73]	[2.4, 2.4]	OSCAR	0-20000-0-07147		0-20000-0-07147	19790222	19941125	999	999	False	0-20000-0-07145	villeneuve-le-roi	[36, 38, 39, 85, 104, 105, 106, 107, 117]
07149	07146	TOUSSUS LE NOBLE	48.75055555555556	2.1133333333333333	161.0	48 45 02N	002 06 48E	21.2	[48.73, 48.73]	[2.4, 2.4]	OSCAR	0-20000-0-07146		0-20000-0-07146	19790222	19941125	999	999	False	0-20000-0-07145	villeneuve-le-roi	[36, 38, 39, 85, 104, 105, 106, 107, 117]
07149	07153	MELUN	48.61055555555556	2.6794444444444445	92.0	48 36 38N	002 40 46E	24.5	[48.73, 48.73]	[2.4, 2.4]	OSCAR	0-20000-0-07153		0-20000-0-07153	19790222	19941125	999	999	False	0-20000-0-07145	villeneuve-le-roi	[36, 38, 39, 85, 104, 105, 106, 107, 117]
07149	07150	LE BOURGET	48.9675	2.4274999999999998	49.0	48 58 03N	002 25 39E	26.5	[48.73, 48.73]	[2.4, 2.4]	OSCAR	0-20000-0-07150		0-20000-0-07150	19790222	19941125	999	999	False	0-20000-0-07145	villeneuve-le-roi	[36, 38, 39, 85, 104, 105, 106, 107, 117]
07149	07145	TRAPPES	48.77444444444444	2.0097222222222224	174.0	48 46 28N	002 00 35E	29.1	[48.73, 48.73]	[2.4, 2.4]	OSCAR	0-20000-0-07145		0-20000-0-07145	19790222	19941125	999	999	True	0-20000-0-07145	villeneuve-le-roi	[36, 38, 39, 85, 104, 105, 106, 107, 117]
07149	05723	PARIS	48.85	2.33	60.0			14.3	[48.73, 48.73]	[2.4, 2.4]	IGRA2			0-20300-0-05723	19790222	19941125	1920	1920	True	0-20000-0-07145	villeneuve-le-roi	[36, 38, 39, 85, 104, 105, 106, 107, 117]
07149	07145	TRAPPES	48.7744	2.0097	167.0			29.1	[48.73, 48.73]	[2.4, 2.4]	IGRA2			0-20300-0-07145	19790222	19941125	1949	2021	True	0-20000-0-07145	villeneuve-le-roi	[36, 38, 39, 85, 104, 105, 106, 107, 117]
07149	34022	PARIS ORLY	48.73	2.37	100.2792			2.2	[48.73, 48.73]	[2.4, 2.4]	WBAN			0-20500-0-34022	19790222	19941125	19441001	19610531		0-20000-0-07145	villeneuve-le-roi	[36, 38, 39, 85, 104, 105, 106, 107, 117]
07149	34045	VILLACUUBLAY	48.77	2.2	177.08880000000002			15.4	[48.73, 48.73]	[2.4, 2.4]	WBAN			0-20500-0-34045	19790222	19941125	19450301	19460228		0-20000-0-07145	villeneuve-le-roi	[36, 38, 39, 85, 104, 105, 106, 107, 117]
07149	4512	Orly	48.716	2.384	89			2.0	[48.73, 48.73]	[2.4, 2.4]	CHUAN		07149	0-20400-0-4512	19790222	19941125	192103	-999-999		0-20000-0-07145	villeneuve-le-roi	[36, 38, 39, 85, 104, 105, 106, 107, 117]
07149	4990	Paris	48.85	2.35	55			13.8	[48.73, 48.73]	[2.4, 2.4]	CHUAN		-999	0-20400-0-4990	19790222	19941125	-999-999	-999-999		0-20000-0-07145	villeneuve-le-roi	[36, 38, 39, 85, 104, 105, 106, 107, 117]
07149	5724	Paris	48.85	2.33	60			14.3	[48.73, 48.73]	[2.4, 2.4]	CHUAN		-999	0-20400-0-5724	19790222	19941125	-999-999	-999-999		0-20000-0-07145	villeneuve-le-roi	[36, 38, 39, 85, 104, 105, 106, 107, 117]
07149	5723	Paris	48.85	2.33	60			14.3	[48.73, 48.73]	[2.4, 2.4]	CHUAN		-999	0-20400-0-5723	19790222	19941125	-999-999	-999-999		0-20000-0-07145	villeneuve-le-roi	[36, 38, 39, 85, 104, 105, 106, 107, 117]
07149	6042	Le Bourget	48.867	2.427	49			15.4	[48.73, 48.73]	[2.4, 2.4]	CHUAN		07150	0-20400-0-6042	19790222	19941125	192001	-999-999		0-20000-0-07145	villeneuve-le-roi	[36, 38, 39, 85, 104, 105, 106, 107, 117]
07149	6041	Le Bourget	48.867	2.427	49			15.4	[48.73, 48.73]	[2.4, 2.4]	CHUAN		07150	0-20400-0-6041	19790222	19941125	192001	-999-999		0-20000-0-07145	villeneuve-le-roi	[36, 38, 39, 85, 104, 105, 106, 107, 117]
07149	5343	St. Cyr	48.78	2.2	171			15.7	[48.73, 48.73]	[2.4, 2.4]	CHUAN		-999	0-20400-0-5343	19790222	19941125	-999-999	-999-999		0-20000-0-07145	villeneuve-le-roi	[36, 38, 39, 85, 104, 105, 106, 107, 117]
07149	5389	Villacoublay	48.8	2.2	140			16.6	[48.73, 48.73]	[2.4, 2.4]	CHUAN		-999	0-20400-0-5389	19790222	19941125	-999-999	-999-999		0-20000-0-07145	villeneuve-le-roi	[36, 38, 39, 85, 104, 105, 106, 107, 117]
07149	5202	Le Bourget (Paris)	48.95	2.43	46			24.6	[48.73, 48.73]	[2.4, 2.4]	CHUAN		-999	0-20400-0-5202	19790222	19941125	-999-999	-999-999		0-20000-0-07145	villeneuve-le-roi	[36, 38, 39, 85, 104, 105, 106, 107, 117]
07149	4506	Le Bourget	48.967	2.427	23			26.4	[48.73, 48.73]	[2.4, 2.4]	CHUAN		07150	0-20400-0-4506	19790222	19941125	192001	-999-999		0-20000-0-07145	villeneuve-le-roi	[36, 38, 39, 85, 104, 105, 106, 107, 117]
07149	6015	Trappes	48.774	2.009	167			29.2	[48.73, 48.73]	[2.4, 2.4]	CHUAN		07145	0-20400-0-6015	19790222	19941125	189804	-999-999		0-20000-0-07145	villeneuve-le-roi	[36, 38, 39, 85, 104, 105, 106, 107, 117]
07149	5367	Trappes	48.77	2.0	170			29.7	[48.73, 48.73]	[2.4, 2.4]	CHUAN		-999	0-20400-0-5367	19790222	19941125	-999-999	-999-999		0-20000-0-07145	villeneuve-le-roi	[36, 38, 39, 85, 104, 105, 106, 107, 117]
07149	5368	Trappes	48.77	2.0	170			29.7	[48.73, 48.73]	[2.4, 2.4]	CHUAN		-999	0-20400-0-5368	19790222	19941125	-999-999	-999-999		0-20000-0-07145	villeneuve-le-roi	[36, 38, 39, 85, 104, 105, 106, 107, 117]
07149	5412	Trappes	48.78	2.0	165			29.9	[48.73, 48.73]	[2.4, 2.4]	CHUAN		-999	0-20400-0-5412	19790222	19941125	-999-999	-999-999		0-20000-0-07145	villeneuve-le-roi	[36, 38, 39, 85, 104, 105, 106, 107, 117]
07149	7152	(made up station ID) Palaiseau - Institut Pierre Simon Laplace (IPSL) - Site Instrumental de Recherche par Teledetection Atmospherique (SIRTA), France radiosondes	48.718	2.2076	-999			14.2	[48.73, 48.73]	[2.4, 2.4]	SCHROEDER		7152	0-20600-0-7152	19790222	19941125				0-20000-0-07145	villeneuve-le-roi	[36, 38, 39, 85, 104, 105, 106, 107, 117]
07149	7154	(made up station ID) Palaiseau - Institut Pierre Simon Laplace (IPSL) - Site Instrumental de Recherche par Teledetection Atmospherique (SIRTA), France Degreanne UHF profiler	48.718	2.2063	-999			14.3	[48.73, 48.73]	[2.4, 2.4]	SCHROEDER		7154	0-20600-0-7154	19790222	19941125				0-20000-0-07145	villeneuve-le-roi	[36, 38, 39, 85, 104, 105, 106, 107, 117]
07149	7801	(made up station ID) Orsay - Leosphere, Batiment 503, Centre Scientifique d'Orsay, Plateau du Moulon, 91400 Orsay, France	48.706	2.174	-999			16.8	[48.73, 48.73]	[2.4, 2.4]	SCHROEDER		7801	0-20600-0-7801	19790222	19941125				0-20000-0-07145	villeneuve-le-roi	[36, 38, 39, 85, 104, 105, 106, 107, 117]
07149	7144	(made up station ID) Saint-Cyr-L'Ecole AP, France	48.81	2.07	-999			25.8	[48.73, 48.73]	[2.4, 2.4]	SCHROEDER		7144	0-20600-0-7144	19790222	19941125				0-20000-0-07145	villeneuve-le-roi	[36, 38, 39, 85, 104, 105, 106, 107, 117]
07149	7150	Paris - Le Bourget AP, France	48.97	2.45	-999			26.9	[48.73, 48.73]	[2.4, 2.4]	SCHROEDER		7150	0-20600-0-7150	19790222	19941125				0-20000-0-07145	villeneuve-le-roi	[36, 38, 39, 85, 104, 105, 106, 107, 117]
07149	7145	Trappes - L'observatoire Leon Teisserenc de Bort, France	48.77	2.02	-999			28.3	[48.73, 48.73]	[2.4, 2.4]	SCHROEDER		7145	0-20600-0-7145	19790222	19941125				0-20000-0-07145	villeneuve-le-roi	[36, 38, 39, 85, 104, 105, 106, 107, 117]
07149	7137	Unknown station, probably Trappes - Centre Meteorologique de Trappes, France	48.7	2.0	-999			29.6	[48.73, 48.73]	[2.4, 2.4]	SCHROEDER		7137	0-20600-0-7137	19790222	19941125				0-20000-0-07145	villeneuve-le-roi	[36, 38, 39, 85, 104, 105, 106, 107, 117]
07149	07149	ORLY                     	48.71666666666667	2.3833333333333333	-999.0			1.9	[48.73, 48.73]	[2.4, 2.4]	WMO		07149	0-20700-0-07149	19790222	19941125				0-20000-0-07145	villeneuve-le-roi	[36, 38, 39, 85, 104, 105, 106, 107, 117]
07149	07156	PARIS/MONTSOURIS        0	48.81666666666667	2.333333333333333	-999.0			10.8	[48.73, 48.73]	[2.4, 2.4]	WMO		07156	0-20700-0-07156	19790222	19941125				0-20000-0-07145	villeneuve-le-roi	[36, 38, 39, 85, 104, 105, 106, 107, 117]
07149	07147	VILLACOUBLAY             	48.766666666666666	2.2	-999.0			15.3	[48.73, 48.73]	[2.4, 2.4]	WMO		07147	0-20700-0-07147	19790222	19941125				0-20000-0-07145	villeneuve-le-roi	[36, 38, 39, 85, 104, 105, 106, 107, 117]
07149	07146	TOUSSUS LE NOBLE         	48.75	2.1	-999.0			22.2	[48.73, 48.73]	[2.4, 2.4]	WMO		07146	0-20700-0-07146	19790222	19941125				0-20000-0-07145	villeneuve-le-roi	[36, 38, 39, 85, 104, 105, 106, 107, 117]
07149	07153	MELUN                    	48.6	2.6666666666666665	-999.0			24.4	[48.73, 48.73]	[2.4, 2.4]	WMO		07153	0-20700-0-07153	19790222	19941125				0-20000-0-07145	villeneuve-le-roi	[36, 38, 39, 85, 104, 105, 106, 107, 117]
07149	07150	PARIS/LE BOURGET        0	48.96666666666667	2.45	-999.0			26.6	[48.73, 48.73]	[2.4, 2.4]	WMO		07150	0-20700-0-07150	19790222	19941125				0-20000-0-07145	villeneuve-le-roi	[36, 38, 39, 85, 104, 105, 106, 107, 117]
07149	07145	TRAPPES                 0	48.766666666666666	2.0166666666666666	-999.0			28.5	[48.73, 48.73]	[2.4, 2.4]	WMO		07145	0-20700-0-07145	19790222	19941125				0-20000-0-07145	villeneuve-le-roi	[36, 38, 39, 85, 104, 105, 106, 107, 117]
07149									[48.73, 48.73]	[2.4, 2.4]	AMMA			0-20800-0-nan	19790222	19941125				0-20000-0-07145	villeneuve-le-roi	[36, 38, 39, 85, 104, 105, 106, 107, 117]
07149									[48.73, 48.73]	[2.4, 2.4]	HARA			0-20111-0-nan	19790222	19941125				0-20000-0-07145	villeneuve-le-roi	[36, 38, 39, 85, 104, 105, 106, 107, 117]
