level_0	index	WIGOS	station_name	latitude	longitude	elevation	ObsRems	original_lat	original_lon	station_id	start_date	end_date	isRadio	distance_km	distance_km_minusLat	inventory	WIGOS_calc	city	city_dist_km	city_lat	city_lon	station_id_igra	WMO_id	Unnamed: 0	date_min	date_max	GCOS	ASECNA	Frequency per day	SOP frequency	IOP frequency	Upgraded ground station	2006 Success Rate (%)	Best 2006 Monthly success (%)	min_date	max_date	files	conv_lat	conv_lon	COUNTRY	#_OF _SOUNDINGS	YEARS	lat_file	lon_file	file	file_dataset	file_min_date	file_max_date	file_statid	WIGOS_best	variables
0	0	0-20000-0-07145	TRAPPES	48.77444444444444	2.0097222222222224	174.0	Precipitation station, Upper-air / Radiosonde station, Surface land meteorological station (SYNOP), Weather radar, WRO, RBSN(S), GOS, RBSN(T), GRUAN	48 46 28N	002 00 35E	07145	999	999	True	2.3		OSCAR	0-20000-0-07145	elancourt	1.9	48.784205	1.955195																						[48.78, 48.78]	[1.98, 1.98]	4929.txt_converted_csv_reduced.csv	giub	1908-07-25	1958-06-11	4929	0-20000-0-07145	['126', '137', '106', '107', '137', '138', '139', '140', '117']
1	1	0-20000-0-07146	TOUSSUS LE NOBLE	48.75055555555556	2.1133333333333333	161.0	Surface land meteorological station (SYNOP), GOS	48 45 02N	002 06 48E	07146	999	999	False	10.3		OSCAR	0-20000-0-07146	elancourt	1.9	48.784205	1.955195																						[48.78, 48.78]	[1.98, 1.98]	4929.txt_converted_csv_reduced.csv	giub	1908-07-25	1958-06-11	4929	0-20000-0-07145	['126', '137', '106', '107', '137', '138', '139', '140', '117']
2	2	0-20000-0-07147	VILLACOUBLAY	48.769999999999996	2.205	176.0	Surface land meteorological station (SYNOP), GOS	48 46 12N	002 12 18E	07147	999	999	False	16.6		OSCAR	0-20000-0-07147	elancourt	1.9	48.784205	1.955195																						[48.78, 48.78]	[1.98, 1.98]	4929.txt_converted_csv_reduced.csv	giub	1908-07-25	1958-06-11	4929	0-20000-0-07145	['126', '137', '106', '107', '137', '138', '139', '140', '117']
3	3	0-20000-0-07156	PARIS-MONTSOURIS	48.82166666666667	2.3377777777777777	78.0	Surface land meteorological station (SYNOP), GOS	48 49 18N	002 20 16E	07156	999	999	False	26.7		OSCAR	0-20000-0-07156	elancourt	1.9	48.784205	1.955195																						[48.78, 48.78]	[1.98, 1.98]	4929.txt_converted_csv_reduced.csv	giub	1908-07-25	1958-06-11	4929	0-20000-0-07145	['126', '137', '106', '107', '137', '138', '139', '140', '117']
0	0		TRAPPES	48.7744	2.0097	167.0				07145	1949	2021	True	2.3		IGRA2	0-20300-0-07145	elancourt	1.9	48.784205	1.955195	FRM00007145																					[48.78, 48.78]	[1.98, 1.98]	4929.txt_converted_csv_reduced.csv	giub	1908-07-25	1958-06-11	4929	0-20000-0-07145	['126', '137', '106', '107', '137', '138', '139', '140', '117']
1	1		PARIS	48.85	2.33	60.0				05723	1920	1920	True	26.9		IGRA2	0-20300-0-05723	elancourt	1.9	48.784205	1.955195	FRXUAE05723																					[48.78, 48.78]	[1.98, 1.98]	4929.txt_converted_csv_reduced.csv	giub	1908-07-25	1958-06-11	4929	0-20000-0-07145	['126', '137', '106', '107', '137', '138', '139', '140', '117']
0	0		VILLACUUBLAY	48.77	2.2	177.08880000000002				34045	19450301	19460228		16.2		WBAN	0-20500-0-34045	elancourt	1.9	48.784205	1.955195																						[48.78, 48.78]	[1.98, 1.98]	4929.txt_converted_csv_reduced.csv	giub	1908-07-25	1958-06-11	4929	0-20000-0-07145	['126', '137', '106', '107', '137', '138', '139', '140', '117']
1	1		PARIS ORLY	48.73	2.37	100.2792				34022	19441001	19610531		29.2		WBAN	0-20500-0-34022	elancourt	1.9	48.784205	1.955195																						[48.78, 48.78]	[1.98, 1.98]	4929.txt_converted_csv_reduced.csv	giub	1908-07-25	1958-06-11	4929	0-20000-0-07145	['126', '137', '106', '107', '137', '138', '139', '140', '117']
0	0		Trappes	48.78	1.98	170				4929	-999-999	-999-999		0.0		CHUAN	0-20400-0-4929	elancourt	1.9	48.784205	1.955195		-999																				[48.78, 48.78]	[1.98, 1.98]	4929.txt_converted_csv_reduced.csv	giub	1908-07-25	1958-06-11	4929	0-20000-0-07145	['126', '137', '106', '107', '137', '138', '139', '140', '117']
1	1		Trappes	48.78	2.0	165				5412	-999-999	-999-999		1.5		CHUAN	0-20400-0-5412	elancourt	1.9	48.784205	1.955195		-999																				[48.78, 48.78]	[1.98, 1.98]	4929.txt_converted_csv_reduced.csv	giub	1908-07-25	1958-06-11	4929	0-20000-0-07145	['126', '137', '106', '107', '137', '138', '139', '140', '117']
2	2		Trappes	48.77	2.0	170				5367	-999-999	-999-999		1.8		CHUAN	0-20400-0-5367	elancourt	1.9	48.784205	1.955195		-999																				[48.78, 48.78]	[1.98, 1.98]	4929.txt_converted_csv_reduced.csv	giub	1908-07-25	1958-06-11	4929	0-20000-0-07145	['126', '137', '106', '107', '137', '138', '139', '140', '117']
3	4		Trappes	48.77	2.0	170				5368	-999-999	-999-999		1.8		CHUAN	0-20400-0-5368	elancourt	1.9	48.784205	1.955195		-999																				[48.78, 48.78]	[1.98, 1.98]	4929.txt_converted_csv_reduced.csv	giub	1908-07-25	1958-06-11	4929	0-20000-0-07145	['126', '137', '106', '107', '137', '138', '139', '140', '117']
4	5		Trappes	48.774	2.009	167				6015	189804	-999-999		2.2		CHUAN	0-20400-0-6015	elancourt	1.9	48.784205	1.955195		07145																				[48.78, 48.78]	[1.98, 1.98]	4929.txt_converted_csv_reduced.csv	giub	1908-07-25	1958-06-11	4929	0-20000-0-07145	['126', '137', '106', '107', '137', '138', '139', '140', '117']
5	6		St. Cyr	48.78	2.2	171				5343	-999-999	-999-999		16.2		CHUAN	0-20400-0-5343	elancourt	1.9	48.784205	1.955195		-999																				[48.78, 48.78]	[1.98, 1.98]	4929.txt_converted_csv_reduced.csv	giub	1908-07-25	1958-06-11	4929	0-20000-0-07145	['126', '137', '106', '107', '137', '138', '139', '140', '117']
6	8		Villacoublay	48.8	2.2	140				5389	-999-999	-999-999		16.3		CHUAN	0-20400-0-5389	elancourt	1.9	48.784205	1.955195		-999																				[48.78, 48.78]	[1.98, 1.98]	4929.txt_converted_csv_reduced.csv	giub	1908-07-25	1958-06-11	4929	0-20000-0-07145	['126', '137', '106', '107', '137', '138', '139', '140', '117']
7	10		Paris	48.85	2.33	60				5724	-999-999	-999-999		26.9		CHUAN	0-20400-0-5724	elancourt	1.9	48.784205	1.955195		-999																				[48.78, 48.78]	[1.98, 1.98]	4929.txt_converted_csv_reduced.csv	giub	1908-07-25	1958-06-11	4929	0-20000-0-07145	['126', '137', '106', '107', '137', '138', '139', '140', '117']
8	11		Paris	48.85	2.33	60				5723	-999-999	-999-999		26.9		CHUAN	0-20400-0-5723	elancourt	1.9	48.784205	1.955195		-999																				[48.78, 48.78]	[1.98, 1.98]	4929.txt_converted_csv_reduced.csv	giub	1908-07-25	1958-06-11	4929	0-20000-0-07145	['126', '137', '106', '107', '137', '138', '139', '140', '117']
9	12		Paris	48.85	2.35	55				4990	-999-999	-999-999		28.3		CHUAN	0-20400-0-4990	elancourt	1.9	48.784205	1.955195		-999																				[48.78, 48.78]	[1.98, 1.98]	4929.txt_converted_csv_reduced.csv	giub	1908-07-25	1958-06-11	4929	0-20000-0-07145	['126', '137', '106', '107', '137', '138', '139', '140', '117']
0	0		Trappes - L'observatoire Leon Teisserenc de Bort, France	48.77	2.02	-999				7145				3.1		SCHROEDER	0-20600-0-7145	elancourt	1.9	48.784205	1.955195		7145	262.0	1897-09-01 00:00:00	2011-09-14 00:00:00																	[48.78, 48.78]	[1.98, 1.98]	4929.txt_converted_csv_reduced.csv	giub	1908-07-25	1958-06-11	4929	0-20000-0-07145	['126', '137', '106', '107', '137', '138', '139', '140', '117']
1	1		(made up station ID) Saint-Cyr-L'Ecole AP, France	48.81	2.07	-999				7144				7.4		SCHROEDER	0-20600-0-7144	elancourt	1.9	48.784205	1.955195		7144	261.0	1918-01-01 00:00:00	1918-01-01 00:00:00																	[48.78, 48.78]	[1.98, 1.98]	4929.txt_converted_csv_reduced.csv	giub	1908-07-25	1958-06-11	4929	0-20000-0-07145	['126', '137', '106', '107', '137', '138', '139', '140', '117']
2	2		Unknown station, probably Trappes - Centre Meteorologique de Trappes, France	48.7	2.0	-999				7137				9.0		SCHROEDER	0-20600-0-7137	elancourt	1.9	48.784205	1.955195		7137	258.0	1998-03-04 00:00:00	2012-02-08 00:00:00																	[48.78, 48.78]	[1.98, 1.98]	4929.txt_converted_csv_reduced.csv	giub	1908-07-25	1958-06-11	4929	0-20000-0-07145	['126', '137', '106', '107', '137', '138', '139', '140', '117']
3	3		(made up station ID) Orsay - Leosphere, Batiment 503, Centre Scientifique d'Orsay, Plateau du Moulon, 91400 Orsay, France	48.706	2.174	-999				7801				16.5		SCHROEDER	0-20600-0-7801	elancourt	1.9	48.784205	1.955195		7801	331.0	2008-08-01 00:00:00	2008-08-01 00:00:00																	[48.78, 48.78]	[1.98, 1.98]	4929.txt_converted_csv_reduced.csv	giub	1908-07-25	1958-06-11	4929	0-20000-0-07145	['126', '137', '106', '107', '137', '138', '139', '140', '117']
4	4		(made up station ID) Palaiseau - Institut Pierre Simon Laplace (IPSL) - Site Instrumental de Recherche par Teledetection Atmospherique (SIRTA), France Degreanne UHF profiler	48.718	2.2063	-999				7154				18.0		SCHROEDER	0-20600-0-7154	elancourt	1.9	48.784205	1.955195		7154	265.0	2006-10-01 00:00:00	2006-10-01 00:00:00																	[48.78, 48.78]	[1.98, 1.98]	4929.txt_converted_csv_reduced.csv	giub	1908-07-25	1958-06-11	4929	0-20000-0-07145	['126', '137', '106', '107', '137', '138', '139', '140', '117']
5	5		(made up station ID) Palaiseau - Institut Pierre Simon Laplace (IPSL) - Site Instrumental de Recherche par Teledetection Atmospherique (SIRTA), France radiosondes	48.718	2.2076	-999				7152				18.1		SCHROEDER	0-20600-0-7152	elancourt	1.9	48.784205	1.955195		7152	264.0	2006-11-07 00:00:00	2006-11-07 00:00:00																	[48.78, 48.78]	[1.98, 1.98]	4929.txt_converted_csv_reduced.csv	giub	1908-07-25	1958-06-11	4929	0-20000-0-07145	['126', '137', '106', '107', '137', '138', '139', '140', '117']
0	0		TRAPPES                 0	48.766666666666666	2.0166666666666666	-999.0				07145				3.1		WMO	0-20700-0-07145	elancourt	1.9	48.784205	1.955195		07145	870.0																			[48.78, 48.78]	[1.98, 1.98]	4929.txt_converted_csv_reduced.csv	giub	1908-07-25	1958-06-11	4929	0-20000-0-07145	['126', '137', '106', '107', '137', '138', '139', '140', '117']
1	1		TOUSSUS LE NOBLE         	48.75	2.1	-999.0				07146				9.4		WMO	0-20700-0-07146	elancourt	1.9	48.784205	1.955195		07146	3786.0																			[48.78, 48.78]	[1.98, 1.98]	4929.txt_converted_csv_reduced.csv	giub	1908-07-25	1958-06-11	4929	0-20000-0-07145	['126', '137', '106', '107', '137', '138', '139', '140', '117']
2	2		VILLACOUBLAY             	48.766666666666666	2.2	-999.0				07147				16.2		WMO	0-20700-0-07147	elancourt	1.9	48.784205	1.955195		07147	3787.0																			[48.78, 48.78]	[1.98, 1.98]	4929.txt_converted_csv_reduced.csv	giub	1908-07-25	1958-06-11	4929	0-20000-0-07145	['126', '137', '106', '107', '137', '138', '139', '140', '117']
3	3		PARIS/MONTSOURIS        0	48.81666666666667	2.333333333333333	-999.0				07156				26.3		WMO	0-20700-0-07156	elancourt	1.9	48.784205	1.955195		07156	864.0																			[48.78, 48.78]	[1.98, 1.98]	4929.txt_converted_csv_reduced.csv	giub	1908-07-25	1958-06-11	4929	0-20000-0-07145	['126', '137', '106', '107', '137', '138', '139', '140', '117']
0	0															AMMA	0-20800-0-nan	elancourt	1.9	48.784205	1.955195																						[48.78, 48.78]	[1.98, 1.98]	4929.txt_converted_csv_reduced.csv	giub	1908-07-25	1958-06-11	4929	0-20000-0-07145	['126', '137', '106', '107', '137', '138', '139', '140', '117']
0	0															HARA	0-20111-0-nan	elancourt	1.9	48.784205	1.955195																						[48.78, 48.78]	[1.98, 1.98]	4929.txt_converted_csv_reduced.csv	giub	1908-07-25	1958-06-11	4929	0-20000-0-07145	['126', '137', '106', '107', '137', '138', '139', '140', '117']
