file_statid	station_id	station_name	latitude	longitude	elevation	original_lat	original_lon	distance_km	lat_file	lon_file	inventory	WIGOS	WMO_id	WIGOS_calc	file_min_date	file_max_date	start_date	end_date	isRadio	WIGOS_best	city	variables
5075	16320	BRINDISI RDS	40.66027777777778	17.956666666666667		40 39 37N	017 57 24E	1.6	[40.65, 40.65]	[17.97, 17.97]	OSCAR	0-20001-0-16320		0-20001-0-16320	1921-05-16	1954-09-22	999	999	True	0-20001-0-16320	brindisi	['126', '137', '106', '107', '137', '138', '139', '140', '117']
5075	16320	BRINDISI	40.657777777777774	17.951666666666664	10.12	40 39 28N	017 57 06E	1.8	[40.65, 40.65]	[17.97, 17.97]	OSCAR	0-20000-0-16320		0-20000-0-16320	1921-05-16	1954-09-22	999	999	False	0-20001-0-16320	brindisi	['126', '137', '106', '107', '137', '138', '139', '140', '117']
5075	16320	BRINDISI RDS	40.6603	17.9567	14.5			1.6	[40.65, 40.65]	[17.97, 17.97]	IGRA2			0-20300-0-16320	1921-05-16	1954-09-22	1953	2021	True	0-20001-0-16320	brindisi	['126', '137', '106', '107', '137', '138', '139', '140', '117']
5075	34112	SAN PANCRAZIO MU 12	40.43	17.85	26.2128			26.5	[40.65, 40.65]	[17.97, 17.97]	WBAN			0-20500-0-34112	1921-05-16	1954-09-22	19431101	19450430		0-20001-0-16320	brindisi	['126', '137', '106', '107', '137', '138', '139', '140', '117']
5075	5075	Brindisi	40.65	17.97	10			0.0	[40.65, 40.65]	[17.97, 17.97]	CHUAN		-999	0-20400-0-5075	1921-05-16	1954-09-22	-999-999	-999-999		0-20001-0-16320	brindisi	['126', '137', '106', '107', '137', '138', '139', '140', '117']
5075	16320	LIBR Brindisi (Borgo Casale - Casale AP), Italy	40.65	17.95	-999			1.7	[40.65, 40.65]	[17.97, 17.97]	SCHROEDER		16320	0-20600-0-16320	1921-05-16	1954-09-22				0-20001-0-16320	brindisi	['126', '137', '106', '107', '137', '138', '139', '140', '117']
5075	16320	BRINDISI                0	40.65	17.95	-999.0			1.7	[40.65, 40.65]	[17.97, 17.97]	WMO		16320	0-20700-0-16320	1921-05-16	1954-09-22				0-20001-0-16320	brindisi	['126', '137', '106', '107', '137', '138', '139', '140', '117']
5075									[40.65, 40.65]	[17.97, 17.97]	AMMA			0-20800-0-nan	1921-05-16	1954-09-22				0-20001-0-16320	brindisi	['126', '137', '106', '107', '137', '138', '139', '140', '117']
5075									[40.65, 40.65]	[17.97, 17.97]	HARA			0-20111-0-nan	1921-05-16	1954-09-22				0-20001-0-16320	brindisi	['126', '137', '106', '107', '137', '138', '139', '140', '117']
