,Country,City,AccentCity,Region,Population,Latitude,Longitude
6,ad,andorra la vella,Andorra la Vella,7.0,20430.0,42.5,1.5166667
32,ad,encamp,Encamp,3.0,11224.0,42.5333333,1.5833333
53,ad,les escaldes,Les Escaldes,8.0,15854.0,42.5,1.5333333
93,ae,abu dhabi,Abu Dhabi,1.0,603687.0,24.466667,54.36666700000001
242,ae,dubai,Dubai,3.0,1137376.0,25.258172,55.304717
490,ae,sharjah,Sharjah,6.0,543942.0,25.35731,55.40330400000001
1384,af,acin,Acin,18.0,15098.0,34.082481,70.668152
3717,af,anar darreh,Anar Darreh,6.0,10023.0,32.758697999999995,61.653969
3784,af,andarab,Andarab,3.0,27034.0,35.633484,69.260195
4547,af,asadabad,Asadabad,34.0,48400.0,34.873113000000004,71.14697
4799,af,asmar,Asmar,34.0,15708.0,35.033328000000004,71.358087
5410,af,aybak,Aybak,32.0,47877.0,36.26468,68.015512
5678,af,azrow,Azrow,17.0,12526.0,34.173553000000005,69.645728
6644,af,baglan,Baglan,3.0,108481.0,36.130684,68.708286
6651,af,bagrami,Bagrami,13.0,30256.0,34.493761,69.274274
7935,af,baraki barak,Baraki Barak,17.0,22305.0,33.9675,68.948611
11059,af,cah ab,Cah Ab,26.0,23424.0,37.397734,69.814644
11524,af,carikar,Carikar,40.0,53693.0,35.016585,69.174011
14630,af,ciras,Ciras,33.0,12778.0,35.416737,65.982341
18389,af,dawlatabad,Dawlatabad,7.0,13603.0,36.432589,64.920713
18390,af,dawlatabad,Dawlatabad,30.0,17674.0,36.98782,66.82066
19611,af,deh rawud,Deh Rawud,39.0,25683.0,32.624131,65.459659
22872,af,eskasem,Eskasem,1.0,12120.0,36.706932,71.570658
23231,af,farah,Farah,6.0,43574.0,32.374508,62.116383
24457,af,gardez,Gardez,36.0,103732.0,33.597439,69.225922
25037,af,gazni,Gazni,8.0,143049.0,33.550833000000004,68.4225
25187,af,geresk,Geresk,10.0,43638.0,31.820894,64.570048
29709,af,herat,Herat,11.0,272880.0,34.348167,62.199673
30969,af,jalalabad,Jalalabad,18.0,200389.0,34.426468,70.45153
32582,af,jurm,Jurm,1.0,12121.0,36.864768,70.83420699999998
32756,af,kabul,Kabul,13.0,3043589.0,34.516667,69.18333299999999
40647,af,kholm,Kholm,30.0,64954.0,36.697362,67.698255
40903,af,khowst,Khowst,37.0,96246.0,33.339512,69.92041
44398,af,kuhestan,Kuhestan,11.0,12087.0,34.653889,61.197778
45272,af,kusk,Kusk,11.0,16952.0,33.29565,61.952206
46301,af,lar gerd,Lar Gerd,33.0,11635.0,35.48936099999999,66.664088
49564,af,mehtar lam,Mehtar Lam,35.0,17350.0,34.671389000000005,70.20944399999999
50172,af,mirabad,Mirabad,19.0,14160.0,30.436244,61.838304
53427,af,nahrin,Nahrin,3.0,22389.0,36.064904,69.13343
56128,af,nuristan,Nuristan,38.0,17072.0,34.95,70.4
56562,af,orgun,Orgun,29.0,10665.0,32.901111,69.152798
56920,af,pagman,Pagman,13.0,49173.0,34.5875,68.953333
57325,af,panjab,Panjab,5.0,13471.0,34.387949,67.023273
63360,af,qandahar,Qandahar,23.0,391230.0,31.613323,65.710126
63793,af,qarqin,Qarqin,31.0,15023.0,37.404464,66.074375
66589,af,qunduz,Qunduz,24.0,161943.0,36.728955,68.857001
67917,af,rostaq,Rostaq,26.0,25644.0,37.126035,69.83045
67989,af,rudbar,Rudbar,19.0,11034.0,30.15,62.6
69071,af,sahrak,Sahrak,9.0,15967.0,34.107375,64.305199
70277,af,sangin,Sangin,10.0,13579.0,32.072752,64.835903
71418,af,sar-e pul,Sar-e Pul,33.0,52138.0,36.215443,65.932487
76853,af,shibarghan,Shibarghan,31.0,55658.0,36.667567,65.752904
78759,af,sindand,Sindand,11.0,29273.0,33.302944000000004,62.1474
82607,af,taloqan,Taloqan,26.0,64275.0,36.734133,69.533559
83641,af,taywarah,Taywarah,9.0,14398.0,33.521176000000004,64.42115600000001
84139,af,tokzar,Tokzar,33.0,12021.0,35.94830800000001,66.42132
85454,af,uruzgan,Uruzgan,39.0,13400.0,32.927751,66.63253399999999
88112,af,zaranj,Zaranj,19.0,33894.0,30.966667,61.88333299999999
90044,al,ballsh,Ballsh,44.0,10361.0,40.5988889,19.7347222
90345,al,berat,Berat,40.0,47606.0,40.7058333,19.9522222
91096,al,bulqize,Bulqizë,41.0,11212.0,41.4916667,20.2219444
91168,al,burrel,Burrel,41.0,15539.0,41.6102778,20.0088889
91548,al,cerrik,Cërrik,43.0,14269.0,41.0316667,19.9758333
91749,al,corovode,Çorovodë,40.0,14046.0,40.5041667,20.2272222
92530,al,durres,Durrës,42.0,122034.0,41.3230556,19.4413889
92635,al,elbasan,Elbasan,43.0,100903.0,41.1125,20.0822222
92787,al,fier,Fier,44.0,59719.0,40.7238889,19.5561111
93033,al,fushe-kruje,Fushë-Krujë,42.0,10458.0,41.4783333,19.7177778
93406,al,gjirokaster,Gjirokastër,45.0,23437.0,40.0758333,20.1388889
93886,al,gramsh,Gramsh,43.0,11556.0,40.8697222,20.1844444
95085,al,kamze,Kamzë,50.0,11026.0,41.3816667,19.7602778
95321,al,kavaje,Kavajë,50.0,29354.0,41.1855556,19.5569444
95790,al,korce,Korçë,46.0,58259.0,40.6186111,20.7808333
96121,al,kruje,Krujë,42.0,21286.0,41.5091667,19.792777800000003
96211,al,kucove,Kuçovë,40.0,18166.0,40.8002778,19.9166667
96230,al,kukes,Kukës,47.0,17972.0,42.0769444,20.4219444
96491,al,lac,Laç,48.0,24825.0,41.6355556,19.7130556
96846,al,lezhe,Lezhë,48.0,18695.0,41.7836111,19.6436111
96884,al,librazhd,Librazhd,43.0,12691.0,41.1794444,20.315
97300,al,lushnje,Lushnjë,44.0,41423.0,40.9419444,19.705
99219,al,patos,Patos,44.0,22679.0,40.6833333,19.6194444
99333,al,permet,Përmet,45.0,10686.0,40.23361110000001,20.3516667
99397,al,peshkopi,Peshkopi,41.0,15261.0,41.685,20.4288889
99756,al,pogradec,Pogradec,46.0,25758.0,40.9025,20.6525
99772,al,polican,Poliçan,40.0,10663.0,40.6122222,20.0980556
100838,al,rreshen,Rrëshen,48.0,10064.0,41.7675,19.8755556
101118,al,sarande,Sarandë,51.0,15147.0,39.87555560000001,20.0052778
101733,al,shijak,Shijak,42.0,14138.0,41.3455556,19.5672222
101840,al,shkoder,Shkodër,49.0,89102.0,42.0675,19.5130556
102779,al,tepelene,Tepelenë,45.0,11955.0,40.2958333,20.0191667
102871,al,tirana,Tirana,50.0,374801.0,41.3275,19.8188889
103879,al,vlore,Vlorë,51.0,89528.0,40.46666670000001,19.4897222
104640,am,abovyan,Abovyan,5.0,35677.0,40.2691667,44.6244444
104781,am,alaverdi,Alaverdi,6.0,13186.0,41.1305556,44.6519444
104923,am,artashat,Artashat,2.0,20562.0,39.9538889,44.5505556
104957,am,ashtarak,Ashtarak,1.0,18779.0,40.3016667,44.3591667
105330,am,dilijan,Dilijan,9.0,13480.0,40.7408333,44.8630556
105489,am,gavar,Gavar,4.0,21681.0,40.3588889,45.1266667
105619,am,goris,Goris,8.0,20379.0,39.5077778,46.3386111
105669,am,gyumri,Gyumri,7.0,148383.0,40.7894444,43.8475
105729,am,hrazdan,Hrazdan,5.0,40796.0,40.5016667,44.7547222
105736,am,ijevan,Ijevan,9.0,14737.0,40.87555560000001,45.1491667
105862,am,kapan,Kapan,8.0,33161.0,39.20111110000001,46.415
106361,am,martuni,Martuni,4.0,11037.0,40.1447222,45.3063889
106363,am,masis,Masis,2.0,18911.0,40.0138889,44.4858333
106879,am,sevan,Sevan,4.0,17083.0,40.555,44.9536111
106988,am,sisian,Sisian,8.0,15208.0,39.4627778,45.9730556
107015,am,spitak,Spitak,6.0,15063.0,40.79555560000001,44.2783333
107241,am,vagharshapat,Vagharshapat,3.0,49514.0,40.1727778,44.2925
107254,am,vanadzor,Vanadzor,6.0,101099.0,40.8127778,44.4883333
107277,am,vardenis,Vardenis,4.0,11382.0,40.18055560000001,45.7283333
107288,am,vedi,Vedi,2.0,12192.0,39.9105556,44.7277778
107423,am,yeghvard,Yeghvard,5.0,10705.0,40.3216667,44.4813889
107461,am,yerevan,Yerevan,11.0,1093499.0,40.1811111,44.51361110000001
107788,an,willemstad,Willemstad,0.0,97590.0,12.1,-68.91666670000001
108559,ao,benguela,Benguela,1.0,151235.0,-12.578333,13.407222
108918,ao,caala,Caála,8.0,21205.0,-12.8525,15.560556
109009,ao,cabinda,Cabinda,3.0,66020.0,-5.55,12.2
109260,ao,caconda,Caconda,9.0,10551.0,-13.733332999999998,15.066667
110119,ao,caluquembe,Caluquembe,9.0,30305.0,-13.783333,14.683333
110134,ao,camabatela,Camabatela,5.0,12839.0,-8.18812,15.37495
110161,ao,camacupa,Camacupa,2.0,19150.0,-12.016667,17.483333
111992,ao,catabola,Catabola,2.0,18858.0,-12.15,17.283333
112307,ao,catumbela,Catumbela,1.0,16980.0,-12.431389,13.547222
112586,ao,caxito,Caxito,19.0,28229.0,-8.58,13.664167
115986,ao,huambo,Huambo,8.0,226177.0,-12.776111,15.739167000000002
116642,ao,kuito,Kuito,2.0,113624.0,-12.383333,16.933332999999998
116936,ao,lobito,Lobito,1.0,207957.0,-12.319722,13.599722
117041,ao,longonjo,Longonjo,8.0,24350.0,-12.906667,15.253333
117135,ao,luanda,Luanda,20.0,2776125.0,-8.836803999999997,13.233173999999998
117174,ao,luau,Luau,14.0,18465.0,-10.707273,22.22466
117180,ao,lubango,Lubango,9.0,102541.0,-14.916667000000002,13.5
117212,ao,lucapa,Lucapa,17.0,20115.0,-8.419151,20.744655
117276,ao,luena,Luena,14.0,21115.0,-11.783333,19.916667
117829,ao,malanje,Malanje,12.0,87047.0,-9.544722,16.345278
118537,ao,menongue,Menongue,4.0,19141.0,-14.661639,17.688223999999995
119926,ao,namibe,Namibe,13.0,80150.0,-15.196110999999998,12.152222
120873,ao,ondjiva,Ondjiva,7.0,10169.0,-17.066667000000002,15.733332999999998
125100,ao,saurimo,Saurimo,18.0,40498.0,-9.66078,20.391553
125450,ao,soyo,Soyo,16.0,67553.0,-6.134903,12.368935
125487,ao,sumbe,Sumbe,6.0,33278.0,-11.206048,13.843713
126620,ao,uige,Uíge,15.0,60008.0,-7.613282000000001,15.056621
127613,ar,alta gracia,Alta Gracia,5.0,40385.0,-31.652925,-64.428259
127926,ar,azul,Azul,1.0,52333.0,-36.776976,-59.858539
127933,ar,bahia blanca,Bahia Blanca,1.0,282950.0,-38.719595,-62.272432
128156,ar,bell ville,Bell Ville,5.0,35106.0,-32.625906,-62.68873000000001
128406,ar,campana,Campana,1.0,83175.0,-34.168742,-58.95914000000001
128679,ar,catamarca,Catamarca,2.0,213601.0,-28.469574,-65.785239
128758,ar,chacabuco,Chacabuco,1.0,34587.0,-34.641667,-60.473889
128877,ar,chivilcoy,Chivilcoy,1.0,52307.0,-34.895661,-60.01666700000001
129279,ar,comodoro rivadavia,Comodoro Rivadavia,7.0,142597.0,-45.864135,-67.496558
129291,ar,concepcion del uruguay,Concepcion del Uruguay,8.0,72904.0,-32.482493,-58.237217
129295,ar,concordia,Concordia,8.0,155686.0,-31.392959,-58.02089
129336,ar,cordoba,Cordoba,5.0,1441007.0,-31.413496,-64.18105200000001
129422,ar,corrientes,Corrientes,6.0,390481.0,-27.480596,-58.834099
129636,ar,dolores,Dolores,1.0,25190.0,-36.313215,-57.679185
129837,ar,eldorado,Eldorado,14.0,62823.0,-26.404841,-54.624784
130450,ar,formosa,Formosa,9.0,248756.0,-26.177534,-58.178139
130675,ar,general pico,General Pico,11.0,55900.0,-35.656622,-63.756815
130684,ar,general roca,General Roca,16.0,76066.0,-39.02797,-67.573711
130796,ar,goya,Goya,6.0,70340.0,-29.14003,-59.26256400000001
130822,ar,gualeguaychu,Gualeguaychu,8.0,88218.0,-33.009375,-58.51722
130823,ar,gualeguay,Gualeguay,8.0,33120.0,-33.141559,-59.309657
131309,ar,jujuy,Jujuy,10,277150.0,-24.194565,-65.297116
131320,ar,junin,Junin,01,76369.0,-34.583816,-60.94331800000001
131741,ar,la plata,La Plata,01,684318.0,-34.921454,-57.954533
131795,ar,la rioja,La Rioja,12,178497.0,-29.411048,-66.850668
132136,ar,libertador general san martin,Libertador General San Martin,10,49273.0,-23.806443,-64.78757399999999
132155,ar,lincoln,Lincoln,01,24798.0,-34.866494,-61.530197
132429,ar,lujan,Lujan,01,74823.0,-34.570278,-59.105
132431,ar,lujan,Lujan,13,77625.0,-33.035471,-68.87782299999999
132571,ar,mar del plata,Mar del Plata,01,645771.0,-38.002278,-57.557539
132705,ar,mendoza,Mendoza,13,973047.0,-32.890845,-68.82717099999999
132708,ar,mercedes,Mercedes,01,49067.0,-34.651455,-59.430676
132710,ar,mercedes,Mercedes,06,30649.0,-29.181858,-58.078951
132712,ar,mercedes,Mercedes,19,126559.0,-33.674359,-65.461405
132992,ar,necochea,Necochea,01,84969.0,-38.547259,-58.736753
133003,ar,neuquen,Neuquen,15,359037.0,-38.951606,-68.059102
133069,ar,nueve de julio,Nueve de Julio,01,34717.0,-35.444374,-60.88313100000001
133082,ar,obera,Obera,14,58939.0,-27.487059,-55.11994
133116,ar,olavarria,Olavarria,01,80005.0,-36.892715,-60.32254
133317,ar,parana,Parana,08,299257.0,-31.731967,-60.523802
133457,ar,pergamino,Pergamino,01,86708.0,-33.889949,-60.573568
133624,ar,posadas,Posadas,14,313438.0,-27.367077,-55.896078
133708,ar,presidencia roque saenz pena,Presidencia Roque Saenz Pena,03,89584.0,-26.785221000000003,-60.438761
133879,ar,puerto madryn,Puerto Madryn,04,95547.0,-42.769201,-65.038513
133976,ar,punta alta,Punta Alta,01,53117.0,-38.875875,-62.073589
134058,ar,rafaela,Rafaela,21,84025.0,-31.250332,-61.486696
134120,ar,rawson,Rawson,04,26341.0,-43.300158,-65.10228000000001
134137,ar,reconquista,Reconquista,21,95979.0,-29.15,-59.65
134159,ar,resistencia,Resistencia,03,406967.0,-27.46056,-58.983886
134212,ar,rio cuarto,Rio Cuarto,05,174058.0,-33.130671,-64.349918
134219,ar,rio gallegos,Rio Gallegos,20,93234.0,-51.622613,-69.218127
134242,ar,rio tercero,Rio Tercero,05,53396.0,-32.173008,-64.11405500000001
134252,ar,rivadavia,Rivadavia,13,65641.0,-33.19050900000001,-68.46081
134317,ar,rosario,Rosario,21,1218497.0,-32.946818,-60.63931700000001
134402,ar,salta,Salta,17,548288.0,-24.785896,-65.411664
134483,ar,san carlos de bariloche,San Carlos de Bariloche,16,110044.0,-41.140293,-71.301369
134536,ar,san francisco,San Francisco,05,71444.0,-31.427971000000007,-62.08265600000001
134640,ar,san juan,San Juan,18,469958.0,-31.5375,-68.536389
134650,ar,san lorenzo,San Lorenzo,06,47627.0,-28.133061,-58.76733100000001
134659,ar,san luis,San Luis,19,184869.0,-33.295012,-66.335627
134678,ar,san martin,San Martin,13,107554.0,-33.081031,-68.468138
134703,ar,san nicolas,San Nicolas,01,130705.0,-33.335784000000004,-60.225233
134721,ar,san pedro,San Pedro,01,67514.0,-33.679127,-59.666635
134724,ar,san pedro,San Pedro,10,43124.0,-24.231266,-64.866141
134735,ar,san rafael,San Rafael,13,125033.0,-34.617717,-68.330066
134738,ar,san ramon de la nueva oran,San Ramon de la Nueva Oran,17,84504.0,-23.13398,-64.32464499999999
134802,ar,santa fe,Santa Fe,21,456044.0,-31.629484,-60.701036
134855,ar,santa rosa,Santa Rosa,11,89478.0,-36.616667,-64.283333
134880,ar,santiago del estero,Santiago del Estero,22,407636.0,-27.795112,-64.261489
134906,ar,san vicente,San Vicente,01,84333.0,-34.982645,-58.376169
135204,ar,tandil,Tandil,01,100127.0,-37.321674,-59.133164
135222,ar,tartagal,Tartagal,17,63600.0,-22.516365,-63.801314
135381,ar,trelew,Trelew,04,107883.0,-43.250075,-65.313295
135387,ar,tres arroyos,Tres Arroyos,01,47143.0,-38.373939,-60.27978100000001
135445,ar,tucuman,Tucuman,24,828402.0,-26.824144,-65.2226
135508,ar,ushuaia,Ushuaia,23,58045.0,-54.8,-68.3
135553,ar,veinticinco de mayo,Veinticinco de Mayo,01,24668.0,-35.43230300000001,-60.172707
135564,ar,venado tuerto,Venado Tuerto,21,71794.0,-33.745564,-61.968845
135591,ar,victoria,Victoria,08,25139.0,-32.619888,-60.153907
135597,ar,viedma,Viedma,16,76553.0,-40.81345200000001,-62.996676
135652,ar,villa carlos paz,Villa Carlos Paz,05,61095.0,-31.424138,-64.497778
135673,ar,villa constitucion,Villa Constitucion,21,44278.0,-33.227778,-60.329699
135823,ar,villa maria,Villa Maria,05,92337.0,-32.407514,-63.240161
136073,ar,zarate,Zarate,01,88222.0,-34.098142,-59.028585
136460,at,amstetten,Amstetten,03,22832.0,48.116667,14.866667
136510,at,ansfelden,Ansfelden,04,14936.0,48.2,14.283333
136804,at,baden,Baden,03,24893.0,48.016667,16.233333
136821,at,bad ischl,Bad Ischl,04,14267.0,47.716667,13.616667
136838,at,bad voslau,Bad Voslau,03,11013.0,47.966667,16.2
137034,at,bischofshofen,Bischofshofen,05,10145.0,47.416667,13.216667
137068,at,bludenz,Bludenz,08,13904.0,47.149722,9.816667
137160,at,braunau,Braunau,04,16403.0,48.266667,13.033333
137168,at,bregenz,Bregenz,08,26928.0,47.5,9.766667
137250,at,bruck an der mur,Bruck an der Mur,06,13254.0,47.416667,15.283333
137668,at,dornbirn,Dornbirn,08,43013.0,47.416667,9.733056
138018,at,eisenstadt,Eisenstadt,01,11767.0,47.85,16.516667
138121,at,enns,Enns,04,10816.0,48.2,14.466667
138354,at,feldkirchen,Feldkirchen,02,14440.0,46.716667,14.1
138358,at,feldkirch,Feldkirch,08,29446.0,47.233056,9.6
139101,at,gmunden,Gmunden,04,13287.0,47.916667,13.8
139260,at,gotzis,Gotzis,08,10342.0,47.333056,9.633056
139363,at,graz,Graz,06,222326.0,47.066667,15.45
139982,at,hallein,Hallein,05,18980.0,47.68333300000001,13.1
139988,at,hall,Hall,06,11197.0,47.6,14.45
140034,at,hard,Hard,08,11766.0,47.483056,9.683056
140632,at,hohenems,Hohenems,08,14072.0,47.366667,9.683056
140657,at,hollabrunn,Hollabrunn,03,10966.0,48.55,16.083333
140951,at,innsbruck,Innsbruck,07,112467.0,47.266667,11.4
141225,at,kapfenberg,Kapfenberg,06,21819.0,47.43333300000001,15.3
141493,at,klagenfurt,Klagenfurt,02,90610.0,46.624722,14.305278
141736,at,klosterneuburg,Klosterneuburg,03,24843.0,48.3,16.316667000000002
141751,at,knittelfeld,Knittelfeld,06,12704.0,47.216667,14.816667
141779,at,koflach,Koflach,06,10447.0,47.066667,15.083332999999998
141871,at,korneuburg,Korneuburg,03,11498.0,48.35,16.333333
141986,at,krems,Krems,03,24092.0,48.416667,15.6
142124,at,kufstein,Kufstein,07,16116.0,47.583333,12.166667
142534,at,leoben,Leoben,06,24809.0,47.383333,15.1
142539,at,leonding,Leonding,04,22736.0,48.266667,14.25
142629,at,lienz,Lienz,07,12270.0,46.831111,12.759722
142702,at,linz,Linz,04,181163.0,48.3,14.3
142853,at,lustenau,Lustenau,08,20218.0,47.433056,9.65
142991,at,marchtrenk,Marchtrenk,04,11666.0,48.18333300000001,14.116667
143306,at,mistelbach,Mistelbach,03,10820.0,48.57,16.576667
143451,at,modling,Modling,03,20710.0,48.083333,16.283333
143896,at,neunkirchen,Neunkirchen,03,11313.0,47.716667,16.083333
145132,at,perchtoldsdorf,Perchtoldsdorf,03,14041.0,48.116667,16.266667
145933,at,rankweil,Rankweil,08,11455.0,47.283056,9.65
146270,at,ried,Ried,04,11511.0,48.216667,13.5
146598,at,saalfelden,Saalfelden,05,16119.0,47.416667,12.85
146657,at,salzburg,Salzburg,05,145310.0,47.8,13.033333
146688,at,sankt andra,Sankt Andra,02,10825.0,46.766111,14.823610999999998
146807,at,sankt johann im pongau,Sankt Johann im Pongau,05,10887.0,47.35,13.2
147024,at,sankt polten,Sankt Polten,03,49000.0,48.2,15.633333
147093,at,sankt veit,Sankt Veit,02,13116.0,46.768056,14.360278
147631,at,schwaz,Schwaz,07,12507.0,47.333333,11.7
147633,at,schwechat,Schwechat,03,15711.0,48.133333,16.466667
148006,at,spittal,Spittal,02,16363.0,46.8,13.5
148257,at,steyr,Steyr,04,39567.0,48.05,14.416667000000002
148303,at,stockerau,Stockerau,03,14831.0,48.383333,16.216667
148590,at,telfs,Telfs,07,14028.0,47.3,11.066667
148599,at,ternitz,Ternitz,03,15153.0,47.716667,16.033333
148801,at,traiskirchen,Traiskirchen,03,16212.0,48.016667,16.283333
148820,at,traun,Traun,04,23959.0,48.216667,14.233332999999998
148905,at,tulln,Tulln,03,14201.0,48.333333,16.05
149599,at,vienna,Vienna,09,1569315.0,48.2,16.366667
149609,at,villach,Villach,02,58882.0,46.610278,13.855833
149621,at,vocklabruck,Vocklabruck,04,11887.0,48.016667,13.65
149650,at,volkermarkt,Volkermarkt,02,11543.0,46.662222,14.634444
149790,at,waidhofen,Waidhofen,03,11774.0,47.966667,14.766667000000002
150138,at,wels,Wels,04,57947.0,48.166667,14.033333
150249,at,wiener neustadt,Wiener Neustadt,03,38481.0,47.8,16.25
150532,at,wolfsberg,Wolfsberg,02,25610.0,46.840556,14.844167
150581,at,worgl,Worgl,07,11265.0,47.483333,12.066667
150725,at,zell am see,Zell am See,05,10046.0,47.316667,12.783333
150866,at,zwettl,Zwettl,03,11718.0,48.616667,15.166667000000002
150905,au,adelaide,Adelaide,05,1074168.0,-34.928661,138.598633
150928,au,albany,Albany,08,23913.0,-35.003101,117.865952
150938,au,albury,Albury,02,104261.0,-36.07494000000001,146.923935
150959,au,alice springs,Alice Springs,03,26188.0,-23.697479,133.883621
151117,au,armidale,Armidale,02,22673.0,-30.50828,151.671234
151241,au,bairnsdale,Bairnsdale,07,11006.0,-37.822891,147.610413
151290,au,ballarat,Ballarat,07,85110.0,-37.56266,143.862579
151301,au,ballina,Ballina,02,14248.0,-28.864140000000006,153.56541399999998
151448,au,batemans bay,Batemans Bay,02,10557.0,-35.706581,150.175415
151589,au,bendigo,Bendigo,07,81658.0,-36.758179,144.28024299999996
151902,au,bongaree,Bongaree,04,13649.0,-27.08367,153.159424
152029,au,bowen,Bowen,04,10983.0,-20.01367,148.247543
152164,au,brisbane,Brisbane,04,1843459.0,-27.47101,153.024292
152186,au,broken hill,Broken Hill,02,17395.0,-31.961729,141.459976
152214,au,broome,Broome,08,13218.0,-17.955379,122.23922
152292,au,buderim,Buderim,04,15228.0,-26.684429,153.057053
152357,au,bunbury,Bunbury,08,26370.0,-33.32711,115.641373
152358,au,bundaberg,Bundaberg,04,52478.0,-24.866211,152.3479
152433,au,burnie,Burnie,06,19976.0,-41.05584,145.903748
152483,au,busselton,Busselton,08,12374.0,-33.652489,115.345497
152525,au,caboolture,Caboolture,04,21478.0,-27.08465,152.951096
152534,au,cairns,Cairns,04,154318.0,-16.92304,145.766251
152562,au,caloundra,Caloundra,04,38714.0,-26.797091,153.13771100000002
152621,au,canberra,Canberra,01,324025.0,-35.27603,149.13435
152816,au,cessnock,Cessnock,02,16394.0,-32.832111,151.356232
153036,au,coffs harbour,Coffs Harbour,02,62978.0,-30.296261,153.11351000000005
153331,au,craigieburn,Craigieburn,07,19728.0,-37.6,144.95
153339,au,cranbourne,Cranbourne,07,39420.0,-38.113419,145.283264
153584,au,darwin,Darwin,03,93081.0,-12.45722,130.836639
153611,au,deception bay,Deception Bay,04,16090.0,-27.193541,153.026306
153684,au,devonport,Devonport,06,19318.0,-41.176949,146.351517
153819,au,dubbo,Dubbo,02,29362.0,-32.24295,148.604843
154310,au,flinders,Flinders,05,15000.0,-32.799240000000005,134.211594
154454,au,gawler,Gawler,05,16362.0,-34.602509000000005,138.749023
154465,au,geelong,Geelong,07,150438.0,-38.153461,144.358093
154496,au,geraldton,Geraldton,08,27259.0,-28.778971,114.614594
154569,au,gladstone,Gladstone,04,30493.0,-23.84761,151.256348
154704,au,gold coast,Gold Coast,04,501175.0,-28.000290000000003,153.430878
154800,au,goulburn,Goulburn,02,20941.0,-34.751549,149.720856
154827,au,grafton,Grafton,02,16399.0,-29.690121,152.93336499999995
154925,au,griffith,Griffith,02,15456.0,-34.288528,146.050934
155020,au,gympie,Gympie,04,11029.0,-26.189159,152.658188
155201,au,hervey bay,Hervey Bay,04,47561.0,-25.285,152.873
155251,au,hobart,Hobart,06,204863.0,-42.883209,147.331665
155313,au,horsham,Horsham,07,12830.0,-36.711311,142.199814
155421,au,innisfail,Innisfail,04,10144.0,-17.522091,146.031021
155723,au,karratha,Karratha,08,11694.0,-20.73649,116.84638
155733,au,katherine,Katherine,03,10142.0,-14.46517,132.263474
155738,au,kawana waters,Kawana Waters,04,19881.0,-26.705999,153.131577
155833,au,kiama,Kiama,02,10380.0,-34.668282,150.85218799999996
156120,au,kurri kurri,Kurri Kurri,02,10991.0,-32.81932800000001,151.47908
156126,au,kwinana,Kwinana,08,20087.0,-32.230129,115.781281
156287,au,launceston,Launceston,06,72462.0,-41.43875900000001,147.134674
156434,au,lismore,Lismore,02,31433.0,-28.81328,153.275803
156439,au,lithgow,Lithgow,02,11129.0,-33.482471000000004,150.13630700000004
156630,au,mackay,Mackay,04,75924.0,-21.15345,149.165543
156717,au,mandurah,Mandurah,08,73369.0,-32.526901,115.721703
156842,au,maryborough,Maryborough,04,20680.0,-25.54073,152.704926
156937,au,melbourne,Melbourne,07,3730212.0,-37.813938,144.963425
156945,au,melton,Melton,07,32369.0,-37.683392,144.58543400000005
157056,au,mildura,Mildura,07,47867.0,-34.185509,142.162506
157343,au,morayfield,Morayfield,04,10261.0,-27.108761,152.949066
157395,au,morwell,Morwell,07,11585.0,-38.23476,146.39498899999995
157481,au,mount gambier,Mount Gambier,05,23210.0,-37.831799,140.77919
157499,au,mount isa,Mount Isa,04,22564.0,-20.725229,139.497269
157691,au,murray bridge,Murray Bridge,05,11356.0,-35.119862,139.273453
157719,au,muswellbrook,Muswellbrook,02,11630.0,-32.261181,150.89009099999996
157775,au,nambour,Nambour,04,14919.0,-26.626129,152.959412
157926,au,nerang,Nerang,04,17684.0,-27.98941,153.33633400000005
157956,au,newcastle,Newcastle,02,497961.0,-32.927792,151.78448500000005
158356,au,orange,Orange,02,30402.0,-33.283089000000004,149.100006
158411,au,pakenham,Pakenham,07,10602.0,-38.070179,145.474106
158431,au,palmerston,Palmerston,03,31075.0,-12.45722,130.836639
158480,au,parkes,Parkes,02,11137.0,-33.137199,148.175903
158599,au,perth,Perth,08,1446715.0,-31.952240000000003,115.861397
158769,au,port augusta,Port Augusta,05,12133.0,-32.495971999999995,137.77281200000002
158787,au,port hedland,Port Hedland,08,14289.0,-20.312149,118.610588
158799,au,port lincoln,Port Lincoln,05,11247.0,-34.72625,135.87442
158801,au,port macquarie,Port Macquarie,02,48553.0,-31.430840000000003,152.908936
158809,au,port pirie,Port Pirie,05,12328.0,-33.191761,138.017456
158917,au,queanbeyan,Queanbeyan,02,32249.0,-35.354931,149.23199499999996
158990,au,raymond terrace,Raymond Terrace,02,13606.0,-32.75,151.75
159120,au,rockhampton,Rockhampton,04,65851.0,-23.38032,150.505951
159144,au,roebourne,Roebourne,08,19264.0,-20.772289,117.146477
159306,au,sale,Sale,07,12917.0,-38.11095,147.068024
159381,au,sawtell,Sawtell,02,14608.0,-30.364590000000003,153.10141000000004
159517,au,singleton,Singleton,02,13813.0,-32.567421,151.166031
159806,au,sunbury,Sunbury,07,29926.0,-37.577419,144.726074
159856,au,sydney,Sydney,02,4394585.0,-33.861481,151.205475
159932,au,tamworth,Tamworth,02,38552.0,-31.090481,150.929047
159981,au,taree,Taree,02,44183.0,-31.91099,152.453873
160314,au,toowoomba,Toowoomba,04,92802.0,-27.56056,151.953857
160351,au,townsville,Townsville,04,138959.0,-19.26639,146.805695
160365,au,traralgon,Traralgon,07,18226.0,-38.195278,146.541504
160671,au,victoria point,Victoria Point,04,11930.0,-27.58329,153.311722
160708,au,wagga wagga,Wagga Wagga,02,55382.0,-35.125771,147.353745
160822,au,wangaratta,Wangaratta,07,14023.0,-36.358459,146.320557
160932,au,warrnambool,Warrnambool,07,29928.0,-38.38176,142.487991
160943,au,warwick,Warwick,04,12347.0,-28.219009000000003,152.034378
161174,au,whyalla,Whyalla,05,19646.0,-33.032681,137.56483500000002
161323,au,wodonga,Wodonga,07,31518.0,-36.121792,146.888092
161339,au,wollongong,Wollongong,02,260918.0,-34.424,150.893448
161731,au,yeppoon,Yeppoon,04,10769.0,-23.126829,150.74406399999995
161873,aw,oranjestad,Oranjestad,00,29998.0,12.516666699999998,-70.0333333
162132,az,agdam,Agdam,03,39451.0,39.99096,46.927356
162145,az,agdas,Agdas,04,23528.0,40.65,47.476111
162205,az,agstafa,Agstafa,05,12542.0,41.118889,45.453889
162206,az,agsu,Agsu,06,17209.0,40.569167,48.396476
162781,az,artyom,Artyom,09,13435.0,40.472255,50.333041
163096,az,astara,Astara,08,15190.0,38.455977,48.87498
163271,az,badamdar,Badamdar,09,11398.0,40.339444,49.803889
163345,az,baku,Baku,09,1116513.0,40.39527800000001,49.882222
164008,az,buzovna,Buzovna,09,24795.0,40.517888,50.113901
164453,az,culfa,Culfa,35,10820.0,38.9558,45.6308
165800,az,goycay,Göyçay,22,35348.0,40.653056,47.740556
166195,az,hovsan,Hövsan,09,36293.0,40.374444,50.085278
166336,az,imisli,Imisli,24,31381.0,39.871307,48.064094
167255,az,kesla,Kesla,09,17913.0,40.397778,49.898611
167716,az,kirovskiy,Kirovskiy,09,34488.0,40.43333300000001,49.85
168413,az,lokbatan,Lökbatan,09,30694.0,40.323718,49.728038
168724,az,mastaga,Mastaga,09,40092.0,40.532778,50.003889
169423,az,neftcala,Neftçala,36,18661.0,39.37417,49.247224
170023,az,pushkino,Pushkino,13,18182.0,39.458333,48.545
170125,az,qaracuxur,Qaraçuxur,09,72989.0,40.396667,49.973611
170280,az,qax,Qax,39,11993.0,41.4225,46.924167
170304,az,qazax,Qazax,40,18904.0,41.093333,45.366111
170380,az,qobustan,Qobustan,09,13398.0,40.08238,49.412048
170406,az,qovlar,Qovlar,58,12819.0,40.942137,45.732171
170425,az,quba,Quba,42,22405.0,41.362587,48.515186
170453,az,qusar,Qusar,44,16022.0,41.427284,48.42893
170587,az,sabirabad,Sabirabad,46,28076.0,40.009458,48.475154
170603,az,sabuncu,Sabunçu,09,20996.0,40.4425,49.948056
170726,az,salyan,Salyan,49,36555.0,39.593615,48.980552
170786,az,saray,Saray,01,10173.0,40.532222,49.716389
171595,az,susa,Susa,56,18663.0,39.758934,46.749187
171949,az,tovuz,Tovuz,58,12626.0,40.992222,45.628889
172067,az,ucar,Ucar,59,15741.0,40.518333,47.654167
172365,az,xacmaz,Xaçmaz,60,37175.0,41.463489,48.80605
172413,az,xanlar,Xanlar,62,17816.0,40.586944,46.31583300000001
172490,az,xudat,Xudat,60,13625.0,41.630965,48.681
172720,az,yevlax,Yevlax,68,53715.0,40.612732,47.142329
172925,az,zabrat,Zabrat,09,21396.0,40.476104,49.941582
172985,az,zaqatala,Zaqatala,70,18277.0,41.633611,46.643333
173521,ba,banja luka,Banja Luka,02,221100.0,44.7758333,17.1855556
173806,ba,bihac,Bihac,01,75641.0,44.8169444,15.8708333
173836,ba,bijeljina,Bijeljina,02,37691.0,44.7569444,19.2161111
173867,ba,bileca,Bileca,02,13256.0,42.8719444,18.4297222
174276,ba,bosanska gradiska,Bosanska Gradiska,02,13345.0,45.1411111,17.25
174279,ba,bosanska krupa,Bosanska Krupa,01,15193.0,44.8825,16.1513889
174430,ba,brcko,Brcko,BD,38478.0,44.8727778,18.8083333
174717,ba,bugojno,Bugojno,01,41378.0,44.0572222,17.450833300000006
175031,ba,cazin,Cazin,01,21741.0,44.9669444,15.943055599999996
175852,ba,doboj,Doboj,02,27234.0,44.7347222,18.0877778
177204,ba,foca,Foca,02,14614.0,43.505,18.7786111
177578,ba,gorazde,Gorazde,01,17649.0,43.6669444,18.9763889
178299,ba,gracanica,Gracanica,01,15758.0,44.7033333,18.3097222
178305,ba,gradacac,Gradacac,01,15659.0,44.8808333,18.4269444
179479,ba,kakanj,Kakanj,01,12405.0,44.1272222,18.1180556
180091,ba,konjic,Konjic,01,15950.0,43.6519444,17.9613889
181133,ba,livno,Livno,01,11748.0,43.8269444,17.007777800000003
181354,ba,lukavac,Lukavac,01,12607.0,44.5419444,18.5258333
182374,ba,mostar,Mostar,01,104517.0,43.3433333,17.8080556
182456,ba,mrkonjic grad,Mrkonjic Grad,02,14737.0,44.4158333,17.0861111
182820,ba,novi travnik,Novi Travnik,01,10006.0,44.17111110000001,17.6575
182930,ba,odzak,Odzak,01,11621.0,45.0111111,18.3266667
184514,ba,prijedor,Prijedor,02,36346.0,44.9813889,16.713055599999993
184616,ba,prozor,Prozor,01,10349.0,43.8222222,17.6091667
185592,ba,sanski most,Sanski Most,01,13550.0,44.7652778,16.665555599999998
185607,ba,sarajevo,Sarajevo,01,696726.0,43.85,18.3833333
185962,ba,sipovo,Sipovo,02,10737.0,44.2813889,17.083888899999998
186658,ba,stijena,Stijena,01,10844.0,44.9352778,16.0172222
187333,ba,travnik,Travnik,01,31127.0,44.2266667,17.6705556
187356,ba,trebinje,Trebinje,02,33177.0,42.71194439999999,18.3441667
187624,ba,tuzla,Tuzla,01,142484.0,44.5427778,18.6694444
187893,ba,velika kladusa,Velika Kladusa,01,19330.0,45.1894444,15.811666699999998
188105,ba,visoko,Visoko,01,17890.0,43.9888889,18.1780556
188804,ba,zavidovici,Zavidovici,01,14380.0,44.4458333,18.1497222
188922,ba,zenica,Zenica,01,164422.0,44.2013889,17.9063889
188991,ba,zivinice,Zivinice,01,13640.0,44.4494444,18.6497222
189216,bb,bridgetown,Bridgetown,08,98511.0,13.1,-59.6166667
189720,bd,abhaynagar,Abhaynagar,82,42658.0,23.0166667,89.4666667
190853,bd,badarganj,Badarganj,83,32604.0,25.6666667,89.05
191364,bd,bajitpur,Bajitpur,81,34564.0,24.2166667,90.95
191809,bd,bandarban,Bandarban,80,32526.0,22.2,92.2166667
191893,bd,baniachang,Baniachang,86,37812.0,24.5166667,91.3666667
192688,bd,barisal,Barisal,84,280437.0,22.7,90.3666667
193231,bd,bera,Bera,81,39608.0,24.0833333,89.6166667
193449,bd,bhairab bazar,Bhairab Bazar,81,105470.0,24.0666667,90.9666667
193516,bd,bhandaria,Bhandaria,84,30222.0,22.4833333,90.0666667
193811,bd,bheramara,Bheramara,81,38164.0,24.0333333,88.9666667
193891,bd,bhola,Bhola,80,99090.0,22.6833333,90.65
195401,bd,chandpur,Chandpur,80,120183.0,23.15,90.7166667
195659,bd,char bhadrasan,Char Bhadrasan,81,34427.0,23.3166667,90.2166667
196546,bd,chhagalnaiya,Chhagalnaiya,80,39339.0,23.03,91.5069444
196588,bd,chhatak,Chhatak,86,39223.0,25.0333333,91.6666667
197034,bd,chilmari,Chilmari,81,49742.0,25.55,89.7166667
198311,bd,dhaka,Dhaka,81,6493177.0,23.7230556,90.4086111
198395,bd,dhamrai,Dhamrai,81,38003.0,23.9122222,90.2683333
198891,bd,dinajpur,Dinajpur,83,206251.0,25.6333333,88.6333333
198959,bd,dohar,Dohar,81,45549.0,23.5883333,90.1469444
199526,bd,faridpur,Faridpur,81,112200.0,23.6,89.83333329999998
199569,bd,fatikchhari,Fatikchhari,80,39974.0,22.725,91.7675
199594,bd,feni,Feni,85,84038.0,23.0186111,91.41
199707,bd,gafargaon,Gafargaon,81,34181.0,24.4333333,90.5666667
200056,bd,gaurnadi,Gaurnadi,81,40524.0,22.9666667,90.2333333
200104,bd,gazipur,Gazipur,81,132249.0,23.8,90.65
200893,bd,habiganj,Habiganj,86,88770.0,24.3833333,91.4166667
200942,bd,hajiganj,Hajiganj,80,44349.0,23.2511111,90.8591667
201827,bd,ishurdi,Ishurdi,81,82005.0,24.1333333,89.08333329999998
202061,bd,jaipur hat,Jaipur Hat,83,73076.0,25.1,89.0166667
202157,bd,jamalpur,Jamalpur,81,167914.0,24.9166667,89.9333333
202524,bd,jhikargachha,Jhikargachha,82,41962.0,23.1166667,89.1166667
203301,bd,kalia,Kalia,81,40497.0,23.05,89.6333333
203332,bd,kaliganj,Kaliganj,82,45636.0,23.4166667,89.1333333
204361,bd,keshabpur,Keshabpur,82,30930.0,22.9166667,89.2166667
204435,bd,khagrachari,Khagrachari,80,50364.0,23.1,91.9666667
205021,bd,khulna,Khulna,82,1342429.0,22.8,89.55
205096,bd,kishorganj,Kishorganj,81,90700.0,24.4333333,90.7666667
205812,bd,laksham,Laksham,85,82299.0,23.2472222,91.1425
205875,bd,lakshmipur,Lakshmipur,85,61710.0,22.95,90.8333333
205910,bd,lalmanir hat,Lalmanir Hat,83,65135.0,25.9,89.45
205912,bd,lalmohan,Lalmohan,80,42225.0,22.3166667,90.7166667
206214,bd,madaripur,Madaripur,81,84799.0,23.175277800000003,90.2072222
207067,bd,manikchhari,Manikchhari,80,24836.0,22.8386111,91.8455556
207074,bd,manikganj,Manikganj,81,85800.0,23.855277800000003,90.0125
207304,bd,mathbaria,Mathbaria,84,29764.0,22.3,89.95
207393,bd,maulvi bazar,Maulvi Bazar,86,57448.0,24.4833333,91.7833333
207472,bd,mehendiganj,Mehendiganj,80,39429.0,22.8166667,90.5333333
207626,bd,mirzapur,Mirzapur,81,41142.0,24.1,90.1
207804,bd,morrelganj,Morrelganj,84,31651.0,22.4666667,89.85
207906,bd,muktagachha,Muktagachha,81,24687.0,24.7666667,90.2333333
208088,bd,nabinagar,Nabinagar,80,31675.0,23.8916667,90.9733333
208201,bd,nageshwari,Nageshwari,83,49431.0,25.9666667,89.7166667
208307,bd,nalchiti,Nalchiti,84,38708.0,22.6333333,90.2833333
208551,bd,naral,Naral,81,55118.0,23.1666667,89.5
208581,bd,narayanganj,Narayanganj,81,223773.0,23.6233333,90.5011111
208651,bd,narsingdi,Narsingdi,81,281110.0,23.9208333,90.7180556
208758,bd,nawabganj,Nawabganj,83,142373.0,24.6,88.2833333
208877,bd,netrakona,Netrakona,81,79025.0,24.8833333,90.7166667
209466,bd,pabna,Pabna,81,137904.0,24.0,89.25
209717,bd,palang,Palang,81,67659.0,23.2166667,90.35
209795,bd,panchagarh,Panchagarh,83,48536.0,26.3333333,88.5666667
210061,bd,parbatipur,Parbatipur,83,48026.0,25.65,88.91666670000002
210426,bd,patiya,Patiya,80,51367.0,22.3030556,91.9783333
210629,bd,phultala,Phultala,82,37990.0,22.7,89.5166667
210695,bd,pirganj,Pirganj,83,34610.0,25.8666667,88.3666667
210703,bd,pirojpur,Pirojpur,84,54424.0,22.5666667,89.9833333
211478,bd,rajshahi,Rajshahi,81,700206.0,24.3666667,88.6
211562,bd,ramganj,Ramganj,80,55247.0,23.1,90.85
211563,bd,ramgarh,Ramgarh,80,28017.0,22.9702778,91.7966667
211735,bd,rangpur,Rangpur,83,285586.0,25.75,89.25
211781,bd,raozan,Raozan,80,25711.0,22.5661111,91.9325
211930,bd,raypur,Raypur,80,64659.0,23.05,90.7666667
212419,bd,sakhipur,Sakhipur,81,40874.0,24.3,90.1833333
212806,bd,sarankhola,Sarankhola,84,36475.0,22.3,89.7833333
212873,bd,sarishabari,Sarishabari,81,81334.0,24.7333333,89.83333329999998
213021,bd,satkhira,Satkhira,82,128933.0,22.7166667,89.1
213353,bd,sherpur,Sherpur,81,107431.0,25.0166667,90.0166667
213359,bd,shibganj,Shibganj,83,35965.0,24.6833333,88.16666670000002
213705,bd,sirajganj,Sirajganj,81,167501.0,24.45,89.7166667
214447,bd,sunamganj,Sunamganj,86,76491.0,25.0666667,91.4
214991,bd,teknaf,Teknaf,85,40562.0,20.8666667,92.3
215140,bd,thakurgaon,Thakurgaon,83,71104.0,26.0333333,88.4666667
215372,bd,tungi,Tungi,81,337620.0,23.89,90.4058333
216113,be,aalst,Aalst,08,77534.0,50.93333300000001,4.033333
216117,be,aalter,Aalter,08,18802.0,51.083333,3.45
216138,be,aarschot,Aarschot,02,27656.0,50.983333,4.8333330000000005
216144,be,aartselaar,Aartselaar,01,14193.0,51.133333,4.383333
216263,be,alken,Alken,05,10933.0,50.866667,5.3
216301,be,amay,Amay,04,13307.0,50.55,5.316667
216326,be,andenne,Andenne,07,24055.0,50.483333,5.1
216330,be,anderlues,Anderlues,03,11597.0,50.4,4.266667
216353,be,ans,Ans,04,27297.0,50.65,5.533333
216365,be,antwerp,Antwerp,01,459805.0,51.216667,4.416667
216370,be,anzegem,Anzegem,09,13920.0,50.833333,3.466667
216404,be,arendonk,Arendonk,01,12247.0,51.316667,5.0833330000000005
216411,be,arlon,Arlon,06,26179.0,49.68333300000001,5.816667
216442,be,asse,Asse,02,28985.0,50.916667,4.2
216448,be,assenede,Assenede,08,13495.0,51.233333,3.75
216459,be,ath,Ath,03,26681.0,50.633333,3.783333
216469,be,aubange,Aubange,06,14932.0,49.583333,5.8
216593,be,aywaille,Aywaille,04,10636.0,50.466667,5.666667
216668,be,balen,Balen,01,19978.0,51.166667,5.15
216793,be,bastogne,Bastogne,06,14395.0,50.0,5.716667
216905,be,beernem,Beernem,09,14512.0,51.15,3.333333
216906,be,beerse,Beerse,01,16208.0,51.316667,4.866667
216908,be,beersel,Beersel,02,23228.0,50.766667,4.3
217003,be,beloeil,Beloeil,03,13405.0,50.55,3.716667
217092,be,beringen,Beringen,05,40930.0,51.05,5.216667
217106,be,berlaar,Berlaar,01,10370.0,51.116667,4.65
217109,be,berlare,Berlare,08,13853.0,51.033333,4.0
217119,be,bernissart,Bernissart,03,11588.0,50.466667,3.633333
217189,be,beveren,Beveren,08,45179.0,51.216667,4.25
217203,be,beyne-heusay,Beyne-Heusay,04,11608.0,50.616667,5.65
217269,be,bilzen,Bilzen,05,29622.0,50.866667,5.516667
217270,be,binche,Binche,03,32030.0,50.4,4.166667
217321,be,blankenberge,Blankenberge,09,18230.0,51.316667,3.1333330000000004
217340,be,blegny,Blegny,04,12745.0,50.666667,5.733333
217398,be,bocholt,Bocholt,05,12346.0,51.166667,5.5833330000000005
217412,be,boechout,Boechout,01,12145.0,51.166667,4.5
217564,be,bonheiden,Bonheiden,01,14260.0,51.033333,4.533333
217597,be,boom,Boom,01,15810.0,51.083333,4.366667
217608,be,boortmeerbeek,Boortmeerbeek,02,11570.0,50.983333,4.566667
217639,be,bornem,Bornem,01,19997.0,51.1,4.233333
217645,be,borsbeek,Borsbeek,01,10334.0,51.2,4.483333
217827,be,boussu,Boussu,03,20058.0,50.43333300000001,3.8
217892,be,braine-le-comte,Braine-le-Comte,03,20133.0,50.6,4.133333
217914,be,brasschaat,Brasschaat,01,37040.0,51.283333,4.45
217921,be,brecht,Brecht,01,25908.0,51.35,4.633333
217925,be,bredene,Bredene,09,14862.0,51.233333,2.966667
217931,be,bree,Bree,05,14363.0,51.133333,5.6
218048,be,brugge,Brugge,09,116709.0,51.216667,3.233333
218097,be,brussels,Brussels,11,1019022.0,50.833333,4.3333330000000005
218142,be,buggenhout,Buggenhout,08,13510.0,51.016667,4.2
218430,be,chapelle-lez-herlaimont,Chapelle-lez-Herlaimont,03,14353.0,50.466667,4.283333
218440,be,charleroi,Charleroi,03,200132.0,50.416667,4.433333
218460,be,chatelet,Châtelet,03,35238.0,50.4,4.516667
218466,be,chaudfontaine,Chaudfontaine,04,20960.0,50.583333,5.633333
218471,be,chaumont-gistoux,Chaumont-Gistoux,02,10943.0,50.68333300000001,4.733333
218549,be,ciney,Ciney,07,14830.0,50.3,5.1
218630,be,colfontaine,Colfontaine,03,19964.0,50.383333,3.866667
218763,be,courcelles,Courcelles,03,29473.0,50.466667,4.366667
218787,be,couvin,Couvin,07,13518.0,50.05,4.483333
218918,be,damme,Damme,09,10924.0,51.25,3.2833330000000003
218996,be,deerlijk,Deerlijk,09,11292.0,50.85,3.35
219007,be,de haan,De Haan,09,11766.0,51.266667,3.0333330000000003
219046,be,deinze,Deinze,08,27777.0,50.983333,3.5333330000000003
219149,be,denderleeuw,Denderleeuw,08,16969.0,50.883333,4.066667
219150,be,dendermonde,Dendermonde,08,43055.0,51.033333,4.116667
219215,be,de pinte,De Pinte,08,10020.0,51.0,3.65
219284,be,destelbergen,Destelbergen,08,16853.0,51.05,3.8
219376,be,diepenbeek,Diepenbeek,05,17699.0,50.9,5.4
219385,be,diest,Diest,02,22516.0,50.983333,5.05
219402,be,diksmuide,Diksmuide,09,15515.0,51.033333,2.866667
219404,be,dilbeek,Dilbeek,02,39482.0,50.85,4.266667
219407,be,dinant,Dinant,07,12875.0,50.266667,4.916667
219412,be,dison,Dison,04,13642.0,50.616667,5.85
219492,be,dour,Dour,03,16861.0,50.4,3.783333
219601,be,duffel,Duffel,01,16011.0,51.1,4.516667
219631,be,durbuy,Durbuy,06,10251.0,50.35,5.466667
219660,be,edegem,Edegem,01,21839.0,51.15,4.45
219699,be,eeklo,Eeklo,08,19116.0,51.18333300000001,3.566667
219741,be,eghezee,Éghezée,07,14352.0,50.6,4.9
219896,be,enghien,Enghien,03,11367.0,50.7,4.033333
219969,be,esneux,Esneux,04,13497.0,50.533333,5.566667
219986,be,essen,Essen,01,16754.0,51.466667,4.466667
220010,be,eupen,Eupen,04,18029.0,50.633333,6.033333
220023,be,evergem,Evergem,08,31615.0,51.116667,3.7
220095,be,farciennes,Farciennes,03,11488.0,50.43333300000001,4.55
220211,be,fleron,Fléron,04,15994.0,50.616667,5.683333
220214,be,fleurus,Fleurus,03,22080.0,50.483333,4.533333
220229,be,florennes,Florennes,07,10723.0,50.25,4.616667
220400,be,frameries,Frameries,03,20598.0,50.4,3.9
220548,be,gavere,Gavere,08,11888.0,50.93333300000001,3.666667
220561,be,geel,Geel,01,34697.0,51.166667,5.0
220624,be,gembloux,Gembloux,07,21676.0,50.566667,4.683333
220641,be,genappe,Genappe,02,14266.0,50.6,4.45
220675,be,genk,Genk,05,63666.0,50.966667,5.5
220688,be,gent,Gent,08,231493.0,51.05,3.716667
220694,be,geraardsbergen,Geraardsbergen,08,30807.0,50.766667,3.866667
220724,be,gerpinnes,Gerpinnes,03,11977.0,50.333333,4.516667
220789,be,gistel,Gistel,09,11084.0,51.166667,2.95
221066,be,grez-doiceau,Grez-Doiceau,02,12367.0,50.733333,4.7
221078,be,grimbergen,Grimbergen,02,33561.0,50.93333300000001,4.383333
221096,be,grobbendonk,Grobbendonk,01,10724.0,51.2,4.716667
221281,be,haacht,Haacht,02,13541.0,50.983333,4.633333
221294,be,haaltert,Haaltert,08,17129.0,50.9,4.0
221423,be,halle,Halle,02,34479.0,50.733333,4.233333
221462,be,hamme,Hamme,08,22891.0,51.1,4.133333
221503,be,hannut,Hannut,04,14129.0,50.666667,5.0833330000000005
221534,be,harelbeke,Harelbeke,09,25978.0,50.85,3.3
221574,be,hasselt,Hasselt,05,69222.0,50.93333300000001,5.3333330000000005
221832,be,heist-op-den-berg,Heist-op-den-Berg,01,37873.0,51.083333,4.716667
221947,be,herentals,Herentals,01,25912.0,51.18333300000001,4.8333330000000005
221949,be,herent,Herent,02,19218.0,50.9,4.666667
221964,be,herk-de-stad,Herk-de-Stad,05,11566.0,50.93333300000001,5.166667
222002,be,herselt,Herselt,01,13493.0,51.05,4.883333
222004,be,herstal,Herstal,04,36503.0,50.666667,5.633333
222015,be,herve,Herve,04,16544.0,50.633333,5.8
222018,be,herzele,Herzele,08,16523.0,50.883333,3.883333
222223,be,hoeilaart,Hoeilaart,02,10272.0,50.766667,4.466667
222473,be,hoogstraten,Hoogstraten,01,18524.0,51.4,4.766667
222721,be,huy,Huy,04,19973.0,50.516667,5.233333
222732,be,ichtegem,Ichtegem,09,13582.0,51.1,3.0
222736,be,ieper,Ieper,09,35089.0,50.85,2.8833330000000004
222767,be,ingelmunster,Ingelmunster,09,10603.0,50.916667,3.25
222803,be,izegem,Izegem,09,26382.0,50.916667,3.2
222808,be,jabbeke,Jabbeke,09,13488.0,51.18333300000001,3.083333
222867,be,jodoigne,Jodoigne,02,11930.0,50.716667,4.866667
222944,be,kalmthout,Kalmthout,01,17485.0,51.383333,4.466667
222967,be,kampenhout,Kampenhout,02,10784.0,50.95,4.55
222998,be,kapellen,Kapellen,01,26410.0,51.316667,4.433333
223038,be,kasterlee,Kasterlee,01,17765.0,51.25,4.95
223074,be,keerbergen,Keerbergen,02,12363.0,51.0,4.616667
223215,be,kinrooi,Kinrooi,05,11946.0,51.15,5.75
223415,be,knokke-heist,Knokke-Heist,09,33781.0,51.35,3.266667
223458,be,koksijde,Koksijde,09,21027.0,51.1,2.65
223492,be,kontich,Kontich,01,20290.0,51.133333,4.45
223527,be,kortemark,Kortemark,09,11937.0,51.033333,3.0333330000000003
223529,be,kortenberg,Kortenberg,02,17774.0,50.883333,4.533333
223543,be,kortrijk,Kortrijk,09,73879.0,50.833333,3.266667
223570,be,kraainem,Kraainem,02,12815.0,50.866667,4.466667
223633,be,kruibeke,Kruibeke,08,14815.0,51.166667,4.316667
223691,be,kuurne,Kuurne,09,12638.0,50.85,3.2833330000000003
223745,be,laarne,Laarne,08,11600.0,51.033333,3.85
224020,be,la louviere,La Louvière,03,76668.0,50.466667,4.183333
224073,be,lanaken,Lanaken,05,24771.0,50.883333,5.65
224084,be,landen,Landen,02,14458.0,50.75,5.0833330000000005
224319,be,lebbeke,Lebbeke,08,17372.0,51.0,4.133333
224388,be,lede,Lede,08,16813.0,50.966667,3.983333
224556,be,leopoldsburg,Leopoldsburg,05,14149.0,51.116667,5.25
224845,be,lessines,Lessines,03,17687.0,50.716667,3.833333
224923,be,leuven,Leuven,12,92892.0,50.883333,4.7
224975,be,liedekerke,Liedekerke,02,11980.0,50.866667,4.0833330000000005
224980,be,liege,Liège,04,182597.0,50.633333,5.566667
225017,be,lille,Lille,01,15466.0,51.233333,4.8333330000000005
225109,be,lochristi,Lochristi,08,19696.0,51.1,3.833333
225132,be,lokeren,Lokeren,08,37567.0,51.1,3.983333
225154,be,lommel,Lommel,05,31993.0,51.233333,5.3
225161,be,londerzeel,Londerzeel,02,17274.0,51.0,4.3
225276,be,lubbeek,Lubbeek,02,13574.0,50.883333,4.8333330000000005
225299,be,lummen,Lummen,05,13689.0,50.983333,5.2
225341,be,maaseik,Maaseik,05,23684.0,51.1,5.8
225343,be,maasmechelen,Maasmechelen,05,36251.0,50.816667,5.666667
225351,be,machelen,Machelen,02,12252.0,50.916667,4.433333
225425,be,maldegem,Maldegem,08,22092.0,51.216667,3.45
225449,be,malmedy,Malmédy,04,11514.0,50.416667,6.033333
225463,be,manage,Manage,03,22196.0,50.5,4.216667
225503,be,marche-en-famenne,Marche-en-Famenne,06,16856.0,50.2,5.3333330000000005
225654,be,mechelen,Mechelen,01,77531.0,51.033333,4.466667
225759,be,meise,Meise,02,18497.0,50.93333300000001,4.3333330000000005
225787,be,melle,Melle,08,10687.0,51.0,3.8
225809,be,menen,Menen,09,31916.0,50.8,3.116667
225823,be,merchtem,Merchtem,02,14660.0,50.966667,4.233333
225827,be,merelbeke,Merelbeke,08,22047.0,51.0,3.75
225872,be,mettet,Mettet,07,12014.0,50.316667,4.666667
225875,be,meulebeke,Meulebeke,09,10948.0,50.95,3.2833330000000003
225928,be,middelkerke,Middelkerke,09,17789.0,51.18333300000001,2.816667
226098,be,mol,Mol,01,32659.0,51.18333300000001,5.1
226132,be,mons,Mons,03,91277.0,50.45,3.933333
226223,be,moorslede,Moorslede,09,10720.0,50.883333,3.066667
226245,be,morlanwelz,Morlanwelz,03,18233.0,50.45,4.233333
226258,be,mortsel,Mortsel,01,24525.0,51.166667,4.466667
226305,be,mouscron,Mouscron,03,52069.0,50.733333,3.216667
226408,be,namur,Namur,07,106284.0,50.466667,4.866667
226430,be,nazareth,Nazareth,08,10890.0,50.966667,3.6
226503,be,neerpelt,Neerpelt,05,16122.0,51.216667,5.416667
226592,be,nevele,Nevele,08,11153.0,51.033333,3.55
226667,be,nieuwpoort,Nieuwpoort,09,10845.0,51.133333,2.75
226676,be,nijlen,Nijlen,01,20792.0,51.166667,4.65
226696,be,ninove,Ninove,08,34795.0,50.833333,4.016667
226704,be,nivelles,Nivelles,02,24149.0,50.6,4.3333330000000005
226858,be,olen,Olen,01,11070.0,51.15,4.85
226952,be,oosterzele,Oosterzele,08,13151.0,50.95,3.8
226959,be,oostkamp,Oostkamp,09,21489.0,51.15,3.233333
227031,be,opwijk,Opwijk,02,12045.0,50.966667,4.183333
227071,be,ostend,Ostend,09,69011.0,51.216667,2.916667
227106,be,oudenaarde,Oudenaarde,08,27935.0,50.85,3.6
227137,be,oud-heverlee,Oud-Heverlee,02,10533.0,50.833333,4.666667
227148,be,oud-turnhout,Oud-Turnhout,01,12354.0,51.316667,4.983333
227158,be,oupeye,Oupeye,04,23594.0,50.7,5.65
227206,be,overijse,Overijse,02,23486.0,50.766667,4.533333
227218,be,overpelt,Overpelt,05,13344.0,51.216667,5.416667
227367,be,peer,Peer,05,15551.0,51.133333,5.466667
227420,be,peruwelz,Péruwelz,03,16647.0,50.516667,3.583333
227756,be,pont-a-celles,Pont-à-Celles,03,15909.0,50.5,4.35
227794,be,poperinge,Poperinge,09,19537.0,50.85,2.716667
227900,be,profondeville,Profondeville,07,11401.0,50.383333,4.866667
227941,be,putte,Putte,01,15276.0,51.066667,4.633333
227947,be,puurs,Puurs,01,15944.0,51.083333,4.283333
227962,be,quaregnon,Quaregnon,03,18491.0,50.43333300000001,3.85
228080,be,ranst,Ranst,01,17405.0,51.2,4.55
228114,be,ravels,Ravels,01,13560.0,51.366667,5.0
228264,be,retie,Retie,01,10069.0,51.266667,5.066667
228307,be,riemst,Riemst,05,15809.0,50.8,5.6
228333,be,rijkevorsel,Rijkevorsel,01,10606.0,51.35,4.766667
228377,be,rixensart,Rixensart,02,21616.0,50.716667,4.533333
228403,be,rochefort,Rochefort,07,11978.0,50.166667,5.216667
228447,be,roeselare,Roeselare,09,56016.0,50.95,3.1333330000000004
228531,be,ronse,Ronse,08,24204.0,50.75,3.6
228631,be,rotselaar,Rotselaar,02,15007.0,50.95,4.716667
228747,be,rumst,Rumst,01,14521.0,51.083333,4.416667
228865,be,saint-ghislain,Saint-Ghislain,03,22500.0,50.45,3.816667
228915,be,saint-nicolas,Saint-Nicolas,04,22586.0,50.633333,5.533333
229155,be,schilde,Schilde,01,20373.0,51.233333,4.566667
229241,be,schoten,Schoten,01,33622.0,51.25,4.5
229325,be,seneffe,Seneffe,03,11025.0,50.516667,4.25
229340,be,seraing,Seraing,04,60737.0,50.6,5.483333
229439,be,sint-genesius-rode,Sint-Genesius-Rode,02,17990.0,50.75,4.35
229446,be,sint-gillis-waas,Sint-Gillis-Waas,08,17658.0,51.216667,4.133333
229486,be,sint-katelijne-waver,Sint-Katelijne-Waver,01,19487.0,51.066667,4.533333
229526,be,sint-niklaas,Sint-Niklaas,08,69010.0,51.166667,4.133333
229544,be,sint-pieters-leeuw,Sint-Pieters-Leeuw,02,30446.0,50.783333,4.233333
229562,be,sint-truiden,Sint-Truiden,05,37859.0,50.8,5.2
229679,be,soignies,Soignies,03,24869.0,50.583333,4.066667
229733,be,soumagne,Soumagne,04,15237.0,50.616667,5.75
229764,be,spa,Spa,04,10756.0,50.5,5.866667
229809,be,sprimont,Sprimont,04,12945.0,50.5,5.666667
229824,be,stabroek,Stabroek,01,17294.0,51.333333,4.366667
229828,be,staden,Staden,09,10786.0,50.983333,3.016667
229909,be,steenokkerzeel,Steenokkerzeel,02,10566.0,50.916667,4.516667
229934,be,stekene,Stekene,08,16989.0,51.2,4.033333
230201,be,temse,Temse,08,26054.0,51.133333,4.216667
230305,be,ternat,Ternat,02,14569.0,50.866667,4.183333
230331,be,tervuren,Tervuren,02,20623.0,50.816667,4.516667
230338,be,tessenderlo,Tessenderlo,05,16574.0,51.066667,5.0833330000000005
230352,be,theux,Theux,04,11587.0,50.533333,5.816667
230420,be,thuin,Thuin,03,14682.0,50.333333,4.283333
230445,be,tielt,Tielt,09,19299.0,51.0,3.316667
230447,be,tienen,Tienen,02,31743.0,50.8,4.95
230509,be,tongeren,Tongeren,05,29816.0,50.783333,5.466667
230529,be,torhout,Torhout,09,18933.0,51.066667,3.1
230543,be,tournai,Tournai,03,67720.0,50.6,3.3833330000000004
230578,be,tremelo,Tremelo,02,13721.0,50.983333,4.7
230697,be,tubize,Tubize,02,21859.0,50.68333300000001,4.2
230723,be,turnhout,Turnhout,01,39654.0,51.316667,4.95
230963,be,verviers,Verviers,04,52824.0,50.583333,5.866667
230974,be,veurne,Veurne,09,11983.0,51.066667,2.666667
231109,be,vilvoorde,Vilvoorde,02,36955.0,50.93333300000001,4.433333
231133,be,virton,Virton,06,11259.0,49.566667,5.533333
231138,be,vise,Visé,04,17054.0,50.733333,5.7
231300,be,vosselaar,Vosselaar,01,10317.0,51.316667,4.883333
231417,be,waasmunster,Waasmunster,08,10460.0,51.1,4.0833330000000005
231458,be,walcourt,Walcourt,01,17501.0,50.25,4.416667
231516,be,wanze,Wanze,04,12918.0,50.533333,5.216667
231528,be,waregem,Waregem,09,35896.0,50.883333,3.416667
231529,be,waremme,Waremme,04,13737.0,50.68333300000001,5.25
231586,be,waterloo,Waterloo,02,28910.0,50.716667,4.383333
231631,be,wavre,Wavre,10,32112.0,50.716667,4.616667
231687,be,wemmel,Wemmel,02,14406.0,50.916667,4.3
231712,be,wervik,Wervik,09,17340.0,50.783333,3.0333330000000003
231736,be,westerlo,Westerlo,01,22579.0,51.083333,4.916667
231760,be,wetteren,Wetteren,08,22930.0,51.0,3.883333
231762,be,wevelgem,Wevelgem,09,30954.0,50.8,3.166667
231785,be,wezembeek-oppem,Wezembeek-Oppem,02,13245.0,50.85,4.483333
231792,be,wichelen,Wichelen,08,11014.0,51.0,3.983333
231865,be,willebroek,Willebroek,01,22808.0,51.066667,4.366667
231894,be,wingene,Wingene,09,12887.0,51.066667,3.266667
231999,be,wommelgem,Wommelgem,01,11917.0,51.2,4.516667
232041,be,wuustwezel,Wuustwezel,01,18117.0,51.383333,4.6
232109,be,zandhoven,Zandhoven,01,12306.0,51.216667,4.65
232139,be,zaventem,Zaventem,02,28188.0,50.883333,4.466667
232140,be,zedelgem,Zedelgem,09,21968.0,51.15,3.1333330000000004
232158,be,zele,Zele,08,20236.0,51.066667,4.033333
232165,be,zelzate,Zelzate,08,11901.0,51.2,3.816667
232167,be,zemst,Zemst,02,21096.0,50.983333,4.466667
232222,be,zoersel,Zoersel,01,20642.0,51.266667,4.7
232239,be,zonhoven,Zonhoven,05,19922.0,50.983333,5.35
232240,be,zonnebeke,Zonnebeke,09,11581.0,50.866667,2.983333
232248,be,zottegem,Zottegem,08,24434.0,50.866667,3.8
232265,be,zulte,Zulte,08,14670.0,50.916667,3.433333
232316,be,zwevegem,Zwevegem,09,23358.0,50.8,3.333333
232320,be,zwijndrecht,Zwijndrecht,01,18249.0,51.216667,4.3333330000000005
232644,bf,banfora,Banfora,55,63883.0,10.633333300000002,-4.7666667
233219,bf,bobo dioulasso,Bobo Dioulasso,51,370809.0,11.2,-4.3
233413,bf,boromo,Boromo,45,13240.0,11.75,-2.9333333
233618,bf,boulsa,Boulsa,64,17623.0,12.6675,-0.5758333000000001
233727,bf,bousse,Boussé,73,11093.0,13.1,-3.3833333
234021,bf,dano,Dano,52,11224.0,11.15,-3.0666667000000003
234136,bf,dedougou,Dédougou,63,47235.0,12.4666667,-3.4666667
234246,bf,diapaga,Diapaga,42,24302.0,12.070833300000002,1.7888889
234281,bf,diebougou,Diébougou,48,12814.0,10.9666667,-3.25
234461,bf,djibo,Djibo,40,22821.0,14.102222199999998,-1.6305556
234570,bf,dori,Dori,71,27554.0,14.0333333,-0.0333333
235009,bf,garango,Garango,18,29076.0,11.8,-0.5505555999999999
235362,bf,gourcy,Gourcy,78,17982.0,13.2166667,-2.35
235540,bf,hounde,Houndé,74,23617.0,11.5,-3.5166667
236035,bf,kaya,Kaya,70,39130.0,13.0916667,-1.0844444
236323,bf,kokologo,Kokologo,19,25958.0,12.1897222,-1.8855556
236415,bf,kombissiri,Kombissiri,47,19180.0,12.0655556,-1.3375
236508,bf,kongoussi,Kongoussi,15,26338.0,13.3258333,-1.5347222
236715,bf,koudougou,Koudougou,19,86965.0,12.25,-2.3666667
236942,bf,koupela,Koupéla,28,19850.0,12.1794444,-0.3516667
237315,bf,leo,Léo,72,21151.0,11.1,-2.1
237631,bf,manga,Manga,44,15269.0,11.6636111,-1.0730556
238636,bf,nouna,Nouna,58,21144.0,12.733333300000002,-3.8666667
238738,bf,orodara,Orodara,54,18635.0,10.9491667,-4.9341667000000005
238758,bf,ouagadougou,Ouagadougou,53,1031330.0,12.3702778,-1.5247222
238763,bf,ouahigouya,Ouahigouya,76,61439.0,13.5833333,-2.4166667
238795,bf,ouargaye,Ouargaye,59,30726.0,11.5033333,0.0572222
239413,bf,po,Pô,65,21003.0,11.1697222,-1.145
239587,bf,reo,Réo,36,24616.0,12.3166667,-2.4666667
240466,bf,solenzo,Solenzo,46,10451.0,12.1833333,-4.0833333
241217,bf,tenkodogo,Tenkodogo,49,37123.0,11.78,-0.3697222
241734,bf,tougan,Tougan,73,17702.0,13.0666667,-3.0666667000000003
242215,bf,yako,Yako,34,23080.0,12.9666667,-2.2666667
242694,bf,ziniare,Ziniaré,68,12783.0,12.5822222,-1.2983333
242756,bf,zorgo,Zorgo,20,19789.0,12.2488889,-0.6158333
242889,bg,ajtos,Ajtos,39,21177.0,42.7,27.25
243280,bg,asenovgrad,Asenovgrad,51,50735.0,42.0166667,24.8666667
243962,bg,belene,Belene,50,10401.0,43.65,25.1166667
244115,bg,berkovica,Berkovica,47,13574.0,43.2361111,23.1258333
244275,bg,bjala,Bjala,61,10284.0,42.8833333,27.8833333
244302,bg,blagoevgrad,Blagoevgrad,38,69547.0,42.0166667,23.1
244675,bg,botevgrad,Botevgrad,58,20497.0,42.9,23.7833333
245134,bg,burgas,Burgas,39,188554.0,42.5,27.4666667
246060,bg,cirpan,Cirpan,59,17622.0,42.2,25.3333333
246532,bg,dimitrovgrad,Dimitrovgrad,43,42827.0,42.05,25.6
246647,bg,dobric,Dobric,40,92309.0,43.5666667,27.8333333
247485,bg,dupnica,Dupnica,45,38656.0,42.2666667,23.1166667
247816,bg,elhovo,Elhovo,65,11723.0,42.1666667,26.566666700000006
248048,bg,etropole,Etropole,58,11024.0,42.8333333,24.0
248228,bg,gabrovo,Gabrovo,41,61109.0,42.8747222,25.3341667
249756,bg,harmanli,Harmanli,43,20065.0,41.9333333,25.9
249770,bg,haskovo,Haskovo,43,78865.0,41.9402778,25.5694444
249855,bg,ihtiman,Ihtiman,58,11554.0,42.4333333,23.8166667
250159,bg,jambol,Jambol,65,75290.0,42.4833333,26.5
250927,bg,karlovo,Karlovo,51,24464.0,42.6333333,24.8
250939,bg,karnobat,Karnobat,39,19902.0,42.65,26.9833333
251077,bg,kavarna,Kavarna,40,10626.0,43.4333333,28.3333333
251162,bg,kazanlak,Kazanlak,59,50336.0,42.6166667,25.4
251722,bg,kjustendil,Kjustendil,45,47315.0,42.2838889,22.6911111
252425,bg,kostinbrod,Kostinbrod,58,11239.0,42.8166667,23.2166667
252559,bg,kozloduj,Kozloduj,64,10602.0,43.7833333,23.7333333
253440,bg,levski,Levski,50,13203.0,43.3666667,25.1333333
253598,bg,lom,Lom,47,24906.0,43.8138889,23.2361111
253644,bg,lovec,Lovec,46,39788.0,43.1333333,24.7166667
254838,bg,montana,Montana,47,44982.0,43.4125,23.225
255359,bg,nova zagora,Nova Zagora,56,24034.0,42.4833333,26.0166667
255367,bg,novi iskar,Novi Iskar,42,13194.0,42.8,23.35
255374,bg,novi pazar,Novi Pazar,54,13017.0,43.35,27.2
256067,bg,panagjuriste,Panagjuriste,48,18755.0,42.5,24.1833333
256245,bg,pavlikeni,Pavlikeni,62,12129.0,43.2427778,25.3219444
256259,bg,pazardzik,Pazardzik,48,76254.0,42.2,24.3333333
256340,bg,pernik,Pernik,49,82185.0,42.6,23.0333333
256375,bg,pestera,Pestera,48,19161.0,42.0333333,24.3
256424,bg,petric,Petric,38,29956.0,41.4,23.2166667
256587,bg,pleven,Pleven,50,132542.0,43.4166667,24.6166667
256601,bg,plovdiv,Plovdiv,51,332088.0,42.15,24.75
256758,bg,pomorie,Pomorie,39,12941.0,42.55,27.65
256805,bg,popovo,Popovo,60,18836.0,43.35,26.2333333
257088,bg,provadija,Provadija,61,14253.0,43.1833333,27.4333333
257241,bg,radnevo,Radnevo,59,13157.0,42.3,25.9333333
257252,bg,radomir,Radomir,49,14971.0,42.5444444,22.9577778
257355,bg,rakovski,Rakovski,51,16009.0,42.3,24.9666667
257526,bg,razgrad,Razgrad,52,31791.0,43.5333333,26.5166667
257533,bg,razlog,Razlog,38,12347.0,41.8902778,23.4791667
257831,bg,ruse,Ruse,53,157519.0,43.8563889,25.9708333
258016,bg,samokov,Samokov,58,26582.0,42.3333333,23.55
258051,bg,sandanski,Sandanski,38,26282.0,41.5666667,23.2833333
258467,bg,sevlievo,Sevlievo,41,23574.0,43.0258333,25.1136111
258703,bg,silistra,Silistra,55,38166.0,44.1166667,27.2666667
258999,bg,sliven,Sliven,56,94252.0,42.6858333,26.3291667
259084,bg,smoljan,Smoljan,57,31870.0,41.5852778,24.6919444
259122,bg,sofia,Sofia,42,1062065.0,42.6833333,23.3166667
259193,bg,sopot,Sopot,46,10141.0,43.0166667,24.4166667
259464,bg,stara zagora,Stara Zagora,59,137760.0,42.4327778,25.6419444
259882,bg,sumen,Sumen,54,85394.0,43.2766667,26.929166700000003
260008,bg,svilengrad,Svilengrad,43,17378.0,41.7666667,26.2
260024,bg,svistov,Svistov,62,29762.0,43.6230556,25.3538889
260381,bg,teteven,Teteven,46,10697.0,42.9166667,24.2666667
260659,bg,trjavna,Trjavna,41,10180.0,42.8666667,25.5
260677,bg,trojan,Trojan,46,22431.0,42.8833333,24.7166667
261386,bg,varna,Varna,61,307952.0,43.21666670000001,27.9166667
261471,bg,velingrad,Velingrad,48,24129.0,42.0166667,24.0
261561,bg,vidin,Vidin,63,50315.0,43.99,22.8725
261775,bg,vraca,Vraca,64,48995.0,43.21,23.5625
263132,bh,manama,Manama,2,147097.0,26.2361111,50.5830556
263215,bh,sitrah,Sitrah,6,37690.0,26.1547222,50.6205556
263300,bi,bubanza,Bubanza,9,12728.0,-3.0833333,29.3944444
263354,bi,bujumbura,Bujumbura,2,330539.0,-3.3761111000000006,29.36
263406,bi,bururi,Bururi,10,19740.0,-3.9511111,29.616666700000003
263483,bi,cibitoke,Cibitoke,12,14220.0,-2.8861111,29.123611100000005
263754,bi,gitega,Gitega,13,23168.0,-3.425,29.9333333
263952,bi,karuzi,Karuzi,14,10705.0,-3.1013889,30.1647222
263973,bi,kayanza,Kayanza,15,19443.0,-2.9222222,29.6222222
264258,bi,makamba,Makamba,17,19642.0,-4.1347222000000015,29.805
264530,bi,muramvya,Muramvya,5,18039.0,-3.2680556,29.616666700000003
264655,bi,muyinga,Muyinga,18,71095.0,-2.8494444,30.336111100000004
264739,bi,ngozi,Ngozi,19,21506.0,-2.9083333,29.8277778
265156,bi,rutana,Rutana,20,20894.0,-3.9191667,29.993611100000006
265190,bi,ruyigi,Ruyigi,21,38459.0,-3.4763888999999994,30.248611100000005
265310,bj,abomey,Abomey,18,82158.0,7.1833333,1.9833333
265311,bj,abomey-calavi,Abomey-Calavi,5,385823.0,6.45,2.35
265591,bj,allada,Allada,2,20094.0,6.65,2.15
265637,bj,aplahoue,Aplahoué,12,19862.0,6.9333333,1.6833333
265694,bj,athieme,Athiémé,15,13585.0,6.5833333,1.6666667000000002
265875,bj,banikoara,Banikoara,3,22487.0,11.3,2.4333333
265925,bj,bassila,Bassila,1,23616.0,9.016666699999998,1.6666667000000002
265986,bj,bembereke,Bembèrèkè,3,24006.0,10.2288889,2.6652778
266033,bj,beterou,Bétérou,3,13108.0,9.2,2.2666667
266100,bj,bohicon,Bohicon,18,125116.0,7.2,2.0666667000000003
266291,bj,come,Comé,4,29208.0,6.4,1.8833333
266298,bj,cotonou,Cotonou,14,690584.0,6.35,2.4333333
266305,bj,cove,Cové,18,38566.0,7.2333333,2.3
266526,bj,djougou,Djougou,13,202834.0,9.705,1.6669444
266539,bj,dogbo,Dogbo,12,41312.0,6.8166667,1.7833332999999998
267254,bj,kandi,Kandi,7,109705.0,11.134166699999998,2.9386111
267363,bj,ketou,Kétou,18,22341.0,7.3666667000000015,2.6
267875,bj,lokossa,Lokossa,15,86987.0,6.6333332999999985,1.7166667000000002
267928,bj,malanville,Malanville,3,37117.0,11.8613889,3.3858333
268120,bj,natitingou,Natitingou,8,80896.0,10.3066667,1.375
268196,bj,nikki,Nikki,3,54009.0,9.9338889,3.2044444
268343,bj,ouidah,Ouidah,9,83506.0,6.3666667000000015,2.0833333
268441,bj,parakou,Parakou,10,163759.0,9.35,2.6166667
268528,bj,pobe,Pobé,17,32983.0,6.9666667,2.6833333
268616,bj,sakete,Sakété,17,30111.0,6.7166667,2.6666667
268715,bj,savalou,Savalou,11,30187.0,7.9333333,1.9666667
268717,bj,save,Savé,11,75973.0,8.0333333,2.4833333
269159,bj,tchaourou,Tchaourou,3,20971.0,8.883333300000002,2.6
270681,bo,ascension,Ascensión,8,14431.0,-15.7,-63.0833333
270975,bo,bermejo,Bermejo,9,28287.0,-22.65,-64.3666667
271441,bo,camiri,Camiri,8,27971.0,-20.05,-63.5166667
271696,bo,caranavi,Caranavi,4,14915.0,-15.8166667,-67.55
272933,bo,cobija,Cobija,6,26583.0,-11.0333333,-68.7333333
272945,bo,cochabamba,Cochabamba,2,900440.0,-17.3833333,-66.15
273833,bo,cotoca,Cotoca,8,18349.0,-17.75,-62.9833333
274212,bo,el carmen,El Carmen,8,14297.0,-17.85,-63.21666670000001
274412,bo,el torno,El Torno,8,15544.0,-17.9833333,-63.3833333
277651,bo,guayaramerin,Guayaramerín,3,36010.0,-10.8,-65.3833333
277997,bo,huanuni,Huanuni,5,15492.0,-18.2666667,-66.85
279353,bo,la guardia,La Guardia,8,10259.0,-17.9,-63.3333333
279504,bo,la paz,La Paz,4,812819.0,-16.5,-68.15
279776,bo,llallagua,Llallagua,7,28070.0,-18.4166667,-66.6333333
280398,bo,mineros,Mineros,8,14386.0,-17.1166667,-63.2333333
280560,bo,montero,Montero,8,88623.0,-17.3333333,-63.25
281038,bo,oruro,Oruro,5,208687.0,-17.9833333,-67.15
281533,bo,patacamaya,Patacamaya,4,12261.0,-17.2333333,-67.91666670000001
281960,bo,portachuelo,Portachuelo,8,11486.0,-17.35,-63.4
282003,bo,potosi,Potosí,7,141254.0,-19.5836111,-65.7530556
282292,bo,puerto quijarro,Puerto Quijarro,8,10393.0,-17.783333300000006,-57.7666667
282316,bo,puerto suarez,Puerto Suárez,8,12254.0,-18.95,-57.8
282394,bo,punata,Punata,2,15195.0,-17.55,-65.83333329999999
282798,bo,riberalta,Riberalta,3,74018.0,-10.983333300000002,-66.1
282923,bo,rurrenabaque,Rurrenabaque,3,11750.0,-14.4666667,-67.5666667
283127,bo,san borja,San Borja,3,19641.0,-14.8166667,-66.85
283195,bo,san ignacio,San Ignacio,8,23570.0,-16.3666667,-60.95
283929,bo,sucre,Sucre,1,224846.0,-19.0430556,-65.25916670000001
284361,bo,tarija,Tarija,9,159275.0,-21.5166667,-64.75
284930,bo,trinidad,Trinidad,3,84264.0,-14.8333333,-64.9
285034,bo,tupiza,Tupiza,7,22234.0,-21.45,-65.7166667
285250,bo,uyuni,Uyuni,7,10294.0,-20.4666667,-66.83333329999999
285492,bo,villamontes,Villamontes,9,18762.0,-21.25,-63.5
285549,bo,villazon,Villazón,7,30254.0,-22.1,-65.6
285656,bo,warnes,Warnes,8,22038.0,-17.5,-63.1666667
285687,bo,yacuiba,Yacuiba,9,82808.0,-22.0333333,-63.6833333
285979,br,abaete,Abaeté,15,20371.0,-19.15,-45.45
285981,br,abaetetuba,Abaetetuba,16,78052.0,-1.7,-48.9
286033,br,abreu e lima,Abreu e Lima,30,81960.0,-7.9,-34.883333
286058,br,acajutiba,Acajutiba,5,14349.0,-11.666667,-38.016667
286067,br,acara,Acará,16,12803.0,-1.95,-48.18333300000001
286077,br,acarau,Acaraú,6,28389.0,-2.8833330000000004,-40.116667
286098,br,acopiara,Acopiara,6,24562.0,-6.1,-39.45
286110,br,acu,Açu,22,36126.0,-5.577222,-36.9075
286113,br,acucena,Açucena,15,14506.0,-19.066667,-42.533333
286156,br,adamantina,Adamantina,27,31079.0,-21.683333,-51.066667
286188,br,afogados da ingazeira,Afogados da Ingàzeira,30,25060.0,-7.75,-37.65
286195,br,afonso claudio,Afonso Cláudio,8,13543.0,-20.083333,-41.133333
286223,br,agrestina,Agrestina,30,14453.0,-8.45,-35.95
286263,br,agua branca,Água Branca,20,13912.0,-5.883333,-42.633333
286331,br,aguai,Aguaí,27,27503.0,-22.066667,-46.966667
286356,br,agua preta,Água Preta,30,16444.0,-8.7,-35.516667
286374,br,aguas belas,Águas Belas,30,22563.0,-9.116667,-37.116667
286389,br,aguas de lindoia,Águas de Lindóia,27,18806.0,-22.483333,-46.65
286394,br,aguas formosas,Águas Formosas,15,11512.0,-17.083333,-40.95
286405,br,aguas vermelhas,Águas Vermelhas,15,16410.0,-15.75,-41.466667
286418,br,agudos,Agudos,27,30808.0,-22.466667,-49.0
286434,br,aimores,Aimorés,15,19133.0,-19.5,-41.066667
286478,br,alagoa grande,Alagoa Grande,17,16406.0,-7.05,-35.633333
286495,br,alagoinhas,Alagoinhas,5,122692.0,-12.116667,-38.43333300000001
286645,br,alegre,Alegre,8,19758.0,-20.766667,-41.533333
286662,br,alegrete,Alegrete,23,77540.0,-29.766667,-55.76666700000001
286692,br,alem paraiba,Além Paraíba,15,33907.0,-21.866667,-42.68333300000001
286696,br,alenquer,Alenquer,16,26291.0,-1.933333,-54.76666700000001
286709,br,alfenas,Alfenas,15,71407.0,-21.433333,-45.95
286740,br,alhandra,Alhandra,17,10788.0,-7.433333,-34.9
286752,br,alianca,Aliança,30,17329.0,-7.583333,-35.216667
286794,br,almeirim,Almeirim,16,20464.0,-1.533333,-52.566667
286795,br,almenara,Almenara,15,29333.0,-16.183332999999998,-40.7
286806,br,almirante tamandare,Almirante Tamandaré,18,89500.0,-25.3,-49.316667
286818,br,alpinopolis,Alpinópolis,15,13286.0,-20.866667,-46.383333
286820,br,alta floresta,Alta Floresta,14,40468.0,-9.9,-55.9
286827,br,altamira,Altamira,16,70890.0,-3.2,-52.2
286839,br,altinho,Altinho,30,11913.0,-8.483333,-36.066667
286841,br,altinopolis,Altinópolis,27,14616.0,-21.025278,-47.374444
286953,br,altonia,Altônia,18,11242.0,-23.933333,-53.9
286962,br,alto parana,Alto Paraná,18,10888.0,-23.083333,-52.366667
286968,br,alto piquiri,Alto Piquiri,18,10039.0,-24.016667,-53.466667
286983,br,altos,Altos,20,28769.0,-5.05,-42.466667
287013,br,alvares machado,Álvares Machado,27,21642.0,-22.133333,-51.5
287029,br,alvinopolis,Alvinópolis,15,12068.0,-20.1,-43.05
287039,br,alvorada,Alvorada,31,10232.0,-12.47,-49.082222
287046,br,amambai,Amambaí,11,20261.0,-23.083333,-55.216667
287069,br,amaraji,Amaraji,30,16660.0,-8.4,-35.45
287076,br,amarante do maranhao,Amarante do Maranhão,13,11510.0,-5.6,-46.75
287084,br,amargosa,Amargosa,5,22531.0,-13.033333,-39.6
287136,br,america dourada,América Dourada,5,14018.0,-11.466667,-41.43333300000001
287137,br,americana,Americana,27,196026.0,-22.740278,-47.334444
287145,br,americo brasiliense,Américo Brasiliense,27,34332.0,-21.716667,-48.116667
287159,br,amontada,Amontada,6,13520.0,-3.3833330000000004,-39.833333
287177,br,amparo,Amparo,27,41498.0,-22.7,-46.783333
287184,br,ampere,Ampère,18,14275.0,-25.916667,-53.466667
287217,br,ananindeua,Ananindeua,16,433956.0,-1.366667,-48.383333
287221,br,anapolis,Anápolis,29,319592.0,-16.333333,-48.966667
287224,br,anastacio,Anastácio,11,18817.0,-20.516667,-55.8
287252,br,andira,Andirá,18,20758.0,-23.0488,-50.2276
287258,br,andradas,Andradas,15,26773.0,-22.066667,-46.566667
287266,br,andradina,Andradina,27,52407.0,-20.9,-51.383333
287270,br,andrelandia,Andrelândia,15,10079.0,-21.733333,-44.3
287285,br,angatuba,Angatuba,27,14476.0,-23.483333,-48.416667
287350,br,angra dos reis,Angra dos Reis,21,153637.0,-23.0,-44.3
287374,br,anicuns,Anicuns,29,15685.0,-16.466667,-49.966667
287439,br,antonina,Antonina,18,16152.0,-25.4314,-48.7184
287551,br,aparecida,Aparecida,27,34237.0,-22.8418,-45.2287
287560,br,aparecida do taboado,Aparecida do Taboado,11,17332.0,-20.083333,-51.083333
287572,br,apiai,Apiaí,27,18260.0,-24.511926000000006,-48.84467100000001
287579,br,apodi,Apodi,22,16757.0,-5.65,-37.8
287602,br,apucarana,Apucarana,18,107086.0,-23.55,-51.483333
287618,br,aquidaba,Aquidabã,28,10596.0,-10.283333,-37.033333
287622,br,aquidauana,Aquidauana,11,35304.0,-20.466667,-55.8
287627,br,aquiraz,Aquiraz,6,65117.0,-3.9,-38.366667
287654,br,aracaju,Aracaju,28,490184.0,-10.916667,-37.066667
287663,br,aracati,Aracati,6,44294.0,-4.566667,-37.766667
287674,br,aracatuba,Araçatuba,27,170028.0,-21.2,-50.416667
287680,br,araci,Araci,5,15089.0,-11.333333,-38.95
287684,br,aracoiaba,Aracoiaba,6,13425.0,-4.383333,-38.816667
287685,br,aracoiaba,Araçoiaba,30,13095.0,-7.8,-35.05
287686,br,aracoiaba da serra,Araçoiaba da Serra,27,15395.0,-23.5049,-47.6185
287688,br,aracruz,Aracruz,8,58272.0,-19.816667,-40.266667
287689,br,aracuai,Araçuaí,15,22005.0,-16.866667,-42.066667
287695,br,aragarcas,Aragarças,29,16781.0,-15.916667000000002,-52.25
287705,br,araguaina,Araguaína,31,114959.0,-7.16,-48.0575
287710,br,araguari,Araguari,15,96567.0,-18.633333,-48.18333300000001
287712,br,araguatins,Araguatins,31,17106.0,-5.600278,-47.933056
287748,br,arapiraca,Arapiraca,2,166566.0,-9.75,-36.65
287758,br,arapongas,Arapongas,18,97513.0,-23.383333,-51.45
287771,br,araquari,Araquari,26,35691.0,-26.3692,-48.7221
287782,br,ararangua,Araranguá,26,43445.0,-28.933333,-49.483333
287785,br,araraquara,Araraquara,27,185191.0,-21.783333,-48.166667
287796,br,araras,Araras,27,107465.0,-22.366667,-47.383333
287798,br,arari,Arari,13,16777.0,-3.466667,-44.783333
287802,br,araripe,Araripe,6,11860.0,-7.2,-40.133333
287805,br,araripina,Araripina,30,38570.0,-7.55,-40.566667
287808,br,araruama,Araruama,21,109638.0,-22.883333,-42.333333
287843,br,araucaria,Araucária,18,111303.0,-25.583333,-49.416667
287849,br,araxa,Araxá,15,82597.0,-19.583333,-46.916667
287862,br,arcos,Arcos,15,33356.0,-20.283333,-45.533333
287867,br,arcoverde,Arcoverde,30,57164.0,-8.416667,-36.916667
287873,br,areado,Areado,15,10689.0,-21.35,-46.15
287877,br,areal,Areal,21,11041.0,-22.228889,-43.106944
287895,br,areia,Areia,17,13825.0,-6.966667,-35.7
287902,br,areia branca,Areia Branca,22,18372.0,-4.953889,-37.132222
287986,br,arinos,Arinos,15,10078.0,-15.916667000000002,-46.066667
287988,br,aripuana,Aripuanã,14,27043.0,-9.166667,-60.63333299999999
287990,br,ariquemes,Ariquemes,24,58102.0,-9.933333,-63.066667
288014,br,armacao dos buzios,Armação dos Búzios,21,23463.0,-22.75,-41.883333
288056,br,arraial do cabo,Arraial do Cabo,21,26164.0,-22.966667,-42.016667
288082,br,arroio do meio,Arroio do Meio,23,16331.0,-29.4,-51.95
288086,br,arroio dos ratos,Arroio dos Ratos,23,13405.0,-30.083333000000003,-51.716667
288089,br,arroio grande,Arroio Grande,23,16117.0,-32.233333,-53.083333
288127,br,artur nogueira,Artur Nogueira,27,40404.0,-22.583333,-47.15
288139,br,aruja,Arujá,27,72078.0,-23.4,-46.333333
288164,br,assai,Assaí,18,12545.0,-23.366667,-50.816667
288170,br,assare,Assaré,6,11369.0,-6.866667,-39.866667
288175,br,assis,Assis,27,87473.0,-22.666667,-50.416667
288196,br,astolfo dutra,Astolfo Dutra,15,10999.0,-21.316667,-42.866667
288197,br,astorga,Astorga,18,20129.0,-23.216667,-51.666667
288203,br,atalaia,Atalaia,2,18908.0,-9.516667,-36.033333
288237,br,atibaia,Atibaia,27,110970.0,-23.124167,-46.562222
288258,br,augusto correa,Augusto Correa,16,16280.0,-1.033333,-46.666667
288273,br,auriflama,Auriflama,27,11971.0,-20.683333,-50.566667
288278,br,aurora,Aurora,6,10757.0,-6.95,-38.966667
288291,br,avare,Avaré,27,81287.0,-23.083333,-48.916667
288351,br,bacabal,Bacabal,13,72374.0,-4.233333,-44.783333
288409,br,bady bassitt,Bady Bassitt,27,14216.0,-20.933333,-49.466667
288411,br,baependi,Baependi,15,12853.0,-21.95,-44.883333
288418,br,bage,Bagé,23,98943.0,-31.333333000000003,-54.1
288472,br,baiao,Baião,16,12316.0,-2.683333,-49.68333300000001
289160,br,baixo guandu,Baixo Guandu,8,19292.0,-19.516667,-41.016667
289215,br,balsas,Balsas,13,68058.0,-7.516667,-46.033333
289226,br,bambui,Bambuí,15,18840.0,-20.016667,-45.966667
289300,br,bandeirantes,Bandeirantes,18,29495.0,-23.1,-50.35
289341,br,barao de cocais,Barão de Cocais,15,22387.0,-19.933333,-43.466667
289367,br,barauna,Baraúna,22,14113.0,-5.0833330000000005,-37.616667
289373,br,barbacena,Barbacena,15,122213.0,-21.233333,-43.766667
289379,br,barbalha,Barbalha,6,33944.0,-7.316667,-39.283333
289397,br,barcarena,Barcarena,16,29872.0,-1.5,-48.666667
289412,br,bariri,Bariri,27,28802.0,-22.066667,-48.733333
289426,br,barra,Barra,5,20895.0,-11.083333,-43.166667
289442,br,barra bonita,Barra Bonita,27,37247.0,-22.483333,-48.533333
289517,br,barra da estiva,Barra da Estiva,5,12618.0,-13.633333,-41.316667
289564,br,barra de sao francisco,Barra de São Francisco,8,20743.0,-18.75,-40.866667
289591,br,barra do bugres,Barra do Bugres,14,31313.0,-15.083332999999998,-57.183333
289606,br,barra do corda,Barra do Corda,13,48902.0,-5.5,-45.25
289621,br,barra do garcas,Barra do Garças,14,52402.0,-15.883333,-52.25
289678,br,barra do pirai,Barra do Piraí,21,87669.0,-22.466111,-43.827778
289722,br,barra dos coqueiros,Barra dos Coqueiros,28,28590.0,-10.9,-37.05
289774,br,barra mansa,Barra Mansa,21,164054.0,-22.533333,-44.18333300000001
289810,br,barras,Barras,20,21597.0,-4.25,-42.3
289820,br,barra velha,Barra Velha,26,17665.0,-26.6406,-48.6851
289858,br,barreiras,Barreiras,5,158296.0,-12.133333,-45.0
289870,br,barreirinha,Barreirinha,4,11257.0,-2.793611,-57.068889
289877,br,barreirinhas,Barreirinhas,13,17437.0,-2.75,-42.833333
289926,br,barreiros,Barreiros,30,35565.0,-8.816667,-35.2
289947,br,barretos,Barretos,27,101222.0,-20.55,-48.55
289973,br,barrinha,Barrinha,27,26981.0,-21.2,-48.15
289993,br,barro,Barro,6,11519.0,-6.716667,-38.866667
290056,br,barroquinha,Barroquinha,6,12410.0,-2.983333,-41.083333
290066,br,barroso,Barroso,15,16975.0,-21.183333,-43.966667
290085,br,barueri,Barueri,27,251999.0,-23.516667,-46.883333
290098,br,bastos,Bastos,27,17681.0,-21.933333,-50.716667
290103,br,batalha,Batalha,2,11820.0,-9.683333,-37.133333
290117,br,batatais,Batatais,27,51977.0,-20.883333,-47.616667
290157,br,baturite,Baturité,6,22417.0,-4.3333330000000005,-38.883333
290170,br,bauru,Bauru,27,335031.0,-22.316667,-49.066667
290180,br,bayeux,Bayeux,17,91058.0,-7.133333,-34.933333000000005
290192,br,bebedouro,Bebedouro,27,71863.0,-20.933333,-48.466667
290201,br,beberibe,Beberibe,6,37028.0,-4.183333,-38.133333
290231,br,bela cruz,Bela Cruz,6,12715.0,-3.05,-40.18333300000001
290259,br,bela vista,Bela Vista,11,18127.0,-22.1,-56.51666700000001
290276,br,bela vista de goias,Bela Vista de Goiás,29,14289.0,-16.966667,-48.95
290278,br,bela vista do paraiso,Bela Vista do Paraíso,18,14332.0,-23.0,-51.2
290296,br,belem,Belém,16,1407737.0,-1.45,-48.483333
290297,br,belem,Belém,17,15550.0,-6.716667,-35.5
290309,br,belem de sao francisco,Belém de São Francisco,30,11124.0,-8.766667,-38.966667
290328,br,belford roxo,Belford Roxo,21,466101.0,-22.761995,-43.404654
290377,br,belo horizonte,Belo Horizonte,15,2373255.0,-19.916667,-43.93333300000001
290389,br,belo jardim,Belo Jardim,30,49923.0,-8.333333,-36.43333300000001
290399,br,belo oriente,Belo Oriente,15,18471.0,-19.233333,-42.466667
290432,br,benevides,Benevides,16,49813.0,-1.366667,-48.25
290455,br,benjamin constant,Benjamin Constant,4,13998.0,-4.374444,-70.02972199999999
290472,br,bento goncalves,Bento Gonçalves,23,90854.0,-29.166667,-51.516667
290530,br,betim,Betim,15,384038.0,-19.966667,-44.216667
290547,br,bezerros,Bezerros,30,51437.0,-8.233333,-35.75
290558,br,bicas,Bicas,15,12684.0,-21.716667,-43.066667
290570,br,biguacu,Biguaçu,26,51993.0,-27.5,-48.666667
290583,br,birigui,Birigui,27,102279.0,-21.3,-50.316667
290588,br,biritiba-mirim,Biritiba-Mirim,27,26459.0,-23.583333,-46.033333
290615,br,blumenau,Blumenau,26,293955.0,-26.9222,-49.0615
290640,br,boa esperanca,Boa Esperança,15,33840.0,-21.083333,-45.566667
290654,br,boa esperanca do sul,Boa Esperança do Sul,27,10787.0,-21.983333,-48.383333
290725,br,boa viagem,Boa Viagem,6,24671.0,-5.116667,-39.733333
290752,br,boa vista,Boa Vista,25,235159.0,2.816667,-60.666667
290795,br,boca da mata,Bôca da Mata,2,17834.0,-9.6,-36.25
290812,br,boca do acre,Bôca do Acre,4,14427.0,-8.75,-67.383333
290862,br,bocaiuva,Bocaiúva,15,32115.0,-17.116667,-43.816667
290896,br,bodoco,Bodocó,30,11329.0,-7.783333,-39.916667
290926,br,boituva,Boituva,27,48756.0,-23.283333,-47.68333300000001
290957,br,bom conselho,Bom Conselho,30,27801.0,-9.166667,-36.68333300000001
290961,br,bom despacho,Bom Despacho,15,40304.0,-19.716667,-45.25
291006,br,bom jardim,Bom Jardim,13,12343.0,-7.016667,-46.483333
291013,br,bom jardim,Bom Jardim,21,11716.0,-22.15,-42.416667
291021,br,bom jardim,Bom Jardim,30,13523.0,-7.783333,-35.583333
291041,br,bom jesus,Bom Jesus,20,12666.0,-9.066667,-44.366667
291052,br,bom jesus da lapa,Bom Jesus da Lapa,5,40693.0,-13.25,-43.416667
291071,br,bom jesus do galho,Bom Jesus do Galho,15,12476.0,-19.833333,-42.316667
291074,br,bom jesus do itabapoana,Bom Jesus do Itabapoana,21,30822.0,-21.133333,-41.68333300000001
291086,br,bom jesus dos perdoes,Bom Jesus dos Perdões,27,12422.0,-23.133333,-46.466667
291154,br,bom sucesso,Bom Sucesso,15,13786.0,-21.033333,-44.766667
291219,br,bonito,Bonito,11,14504.0,-21.133333,-56.466667
291259,br,boqueirao,Boqueirão,17,11566.0,-7.483333,-36.116667
291280,br,boquim,Boquim,28,14848.0,-11.15,-37.616667
291286,br,borba,Borba,4,11918.0,-4.388889,-59.593611
291293,br,borborema,Borborema,27,11759.0,-21.616667,-49.066667
291296,br,borda da mata,Borda da Mata,15,12814.0,-22.266667,-46.166667
291335,br,botelhos,Botelhos,15,11073.0,-21.65,-46.4
291339,br,botucatu,Botucatu,27,113865.0,-22.866667,-48.43333300000001
291361,br,braco do norte,Braço do Norte,26,22375.0,-28.283333,-49.18333300000001
291374,br,braganca,Bragança,16,57164.0,-1.05,-46.766667
291377,br,braganca paulista,Bragança Paulista,27,125099.0,-22.95,-46.566667
291402,br,brasileia,Brasiléia,1,11200.0,-11.0,-68.733333
291406,br,brasilia,Brasília,7,2207812.0,-15.783333,-47.916667
291412,br,brasilia de minas,Brasília de Minas,15,14730.0,-16.211944,-44.430833
291489,br,brejo,Brejo,13,11636.0,-3.683333,-42.783333
291500,br,brejo da madre de deus,Brejo da Madre de Deus,30,27370.0,-8.15,-36.366667
291558,br,brejo santo,Brejo Santo,6,27384.0,-7.483333,-39.0
291575,br,breves,Breves,16,46474.0,-1.666667,-50.483333
291606,br,brodowski,Brodowski,27,18366.0,-20.983333,-47.666667
291613,br,brotas,Brotas,27,18690.0,-22.283333,-48.116667
291618,br,brumadinho,Brumadinho,15,27564.0,-20.133333,-44.216667
291619,br,brumado,Brumado,5,41990.0,-14.216667,-41.666667
291626,br,brusque,Brusque,26,88286.0,-27.1,-48.93333300000001
291655,br,buerarema,Buerarema,5,16002.0,-14.95,-39.316667
291667,br,buique,Buíque,30,20324.0,-8.616667,-37.15
291695,br,buri,Buri,27,15959.0,-23.8,-48.583333
291700,br,buritama,Buritama,27,12712.0,-21.05,-50.133333
291702,br,buriti bravo,Buriti Bravo,13,17693.0,-5.8333330000000005,-43.833333
291739,br,buritis,Buritis,15,16243.0,-15.616667,-46.43333300000001
291752,br,buritizeiro,Buritizeiro,15,25104.0,-17.35,-44.966667
291782,br,butia,Butiá,23,19494.0,-30.116667,-51.966667
291800,br,caapora,Caaporã,17,13770.0,-7.516667,-34.9
291802,br,caarapo,Caarapó,11,13863.0,-22.633333,-54.8
291908,br,cabedelo,Cabedelo,17,54841.0,-6.966667,-34.833333
291934,br,cabo frio,Cabo Frio,21,108241.0,-22.883333,-42.016667
291952,br,cabreuva,Cabreúva,27,38743.0,-23.3,-47.133333
291956,br,cabrobo,Cabrobó,30,16096.0,-8.516667,-39.316667
291971,br,cacador,Caçador,26,63727.0,-26.783333,-51.0
291978,br,cacapava,Caçapava,27,72341.0,-23.1,-45.716667
291979,br,cacapava do sul,Caçapava do Sul,23,17522.0,-30.5,-53.5
291994,br,cacequi,Cacequi,23,12868.0,-29.883333,-54.816667
291996,br,caceres,Cáceres,14,73431.0,-16.066667000000002,-57.683333
292027,br,cachoeira,Cachoeira,5,16145.0,-12.6,-38.966667
292078,br,cachoeira do sul,Cachoeira do Sul,23,74696.0,-30.033333,-52.9
292097,br,cachoeiras de macacu,Cachoeiras de Macacu,21,46178.0,-22.466667,-42.65
292114,br,cachoeirinha,Cachoeirinha,23,121086.0,-29.95,-51.083333
292118,br,cachoeirinha,Cachoeirinha,30,12905.0,-8.483333,-36.233333
292124,br,cachoeiro de itapemirim,Cachoeiro de Itapemirim,8,187023.0,-20.85,-41.1
292197,br,cacoal,Cacoal,24,55566.0,-11.5,-61.416667
292205,br,caconde,Caconde,27,12434.0,-21.55,-46.633333
292208,br,cacu,Caçu,29,10098.0,-18.616667,-51.066667
292210,br,cacule,Caculé,5,12143.0,-14.5,-42.216667
292234,br,caete,Caeté,15,33232.0,-19.9,-43.666667
292245,br,caetite,Caetité,5,27188.0,-14.066667,-42.483333
292247,br,cafarnaum,Cafarnaum,5,12940.0,-11.7,-41.466667
292259,br,cafelandia,Cafelândia,27,13777.0,-21.816667,-49.583333
292310,br,caiaponia,Caiapônia,29,10947.0,-16.95,-51.816667
292345,br,caico,Caicó,22,54935.0,-6.45,-37.1
292357,br,caieiras,Caieiras,27,87199.0,-23.36193,-46.740681
292418,br,cajamar,Cajamar,27,56684.0,-23.35,-46.883333
292423,br,cajati,Cajati,27,27566.0,-24.728502,-48.110541
292435,br,cajazeiras,Cajàzeiras,17,43914.0,-6.9,-38.566667
292465,br,cajueiro,Cajueiro,2,15063.0,-9.716667,-36.45
292488,br,cajuru,Cajuru,27,19540.0,-21.283333,-47.3
292514,br,caldas novas,Caldas Novas,29,63681.0,-17.75,-48.633333
292593,br,camacari,Camaçari,5,188763.0,-12.483333,-38.216667
292605,br,camamu,Camamu,5,13924.0,-13.95,-39.116667
292606,br,camanducaia,Camanducaia,15,17823.0,-22.766667,-46.15
292609,br,camapua,Camapuã,11,11119.0,-19.5,-54.083333
292613,br,camaqua,Camaquã,23,53170.0,-30.85,-51.816667
292623,br,camaragibe,Camaragibe,30,148966.0,-8.016667,-34.966667
292654,br,cambara,Cambará,18,21380.0,-23.0411,-50.0741
292664,br,cambe,Cambé,18,91081.0,-23.233333,-51.25
292680,br,camboriu,Camboriú,26,49101.0,-26.983333,-48.633333
292694,br,cambui,Cambuí,15,21247.0,-22.616667,-46.066667
292699,br,cambuquira,Cambuquira,15,10116.0,-21.85,-45.3
292709,br,cameta,Cametá,16,45202.0,-2.25,-49.5
292734,br,camocim,Camocim,6,44482.0,-2.89,-40.846111
292736,br,camocim de sao felix,Camocim de São Félix,30,10270.0,-8.35,-35.766667
292746,br,campanha,Campanha,15,12507.0,-21.833333,-45.4
292761,br,campestre,Campestre,15,11802.0,-21.716667,-46.25
292800,br,campina grande,Campina Grande,17,348943.0,-7.216667,-35.883333
292802,br,campina grande do sul,Campina Grande do Sul,18,31112.0,-25.3,-49.083333
292817,br,campinas,Campinas,27,1031573.0,-22.9,-47.083333
292824,br,campina verde,Campina Verde,15,13137.0,-19.516667,-49.466667
292847,br,campo alegre,Campo Alegre,2,16786.0,-9.8,-36.35
292879,br,campo bom,Campo Bom,23,54762.0,-29.683333,-51.05
292935,br,campo formoso,Campo Formoso,5,23921.0,-10.516667,-40.333333
292945,br,campo grande,Campo Grande,11,729164.0,-20.45,-54.61666700000001
292960,br,campo largo,Campo Largo,18,94669.0,-25.433333,-49.533333
292976,br,campo maior,Campo Maior,20,31740.0,-4.816667,-42.166667
293000,br,campos altos,Campos Altos,15,12648.0,-19.683333,-46.166667
293007,br,campos belos,Campos Belos,29,15583.0,-13.05,-46.883333
293013,br,campos,Campos,21,387422.0,-21.75,-41.3
293023,br,campos do jordao,Campos do Jordão,27,53320.0,-22.7264,-45.5792
293031,br,campos gerais,Campos Gerais,15,22260.0,-21.233333,-45.766667
293039,br,campos novos,Campos Novos,26,22563.0,-27.4,-51.2
293048,br,campos sales,Campos Sales,6,17648.0,-7.066667,-40.383333
293056,br,campo verde,Campo Verde,11,22842.0,-20.416667,-54.066667
293150,br,cananeia,Cananéia,27,13786.0,-25.016667,-47.95
293154,br,canarana,Canarana,5,10785.0,-11.683333,-41.766667
293172,br,canavieiras,Canavieiras,5,26376.0,-15.65,-38.95
293189,br,candeias,Candeias,5,75673.0,-12.666667,-38.55
293196,br,candelaria,Candelária,23,15200.0,-29.666667,-52.8
293204,br,candido mota,Cândido Mota,27,28145.0,-22.716667,-50.383333
293220,br,canela,Canela,23,33529.0,-29.366667,-50.833333
293245,br,canguaretama,Canguaretama,22,18873.0,-6.383333,-35.133333
293246,br,cangucu,Canguçu,23,20134.0,-31.4,-52.683333
293255,br,canhotinho,Canhotinho,30,12074.0,-8.883333,-36.2
293262,br,caninde,Canindé,6,42721.0,-4.366667,-39.316667
293266,br,caninde de sao francisco,Canindé de São Francisco,28,11053.0,-9.65,-37.8
293304,br,canoas,Canoas,23,328297.0,-29.933333,-51.18333300000001
293310,br,canoinhas,Canoinhas,26,38863.0,-26.166667,-50.4
293323,br,cantagalo,Cantagalo,21,14019.0,-21.966667,-42.366667
293374,br,canto do buriti,Canto do Buriti,20,11715.0,-8.116667,-42.966667
293441,br,capanema,Capanema,16,47768.0,-1.2,-47.18333300000001
293452,br,capao bonito,Capão Bonito,27,37207.0,-24.016667,-48.333333
293465,br,capao da canoa,Capão da Canoa,23,35896.0,-29.766667,-50.016667
293514,br,capela,Capela,2,12520.0,-9.416667,-36.066667
293521,br,capela,Capela,28,16024.0,-10.5,-37.066667
293529,br,capela do alto,Capela do Alto,27,11991.0,-23.466667,-47.75
293539,br,capelinha,Capelinha,15,20074.0,-17.7,-42.516667
293577,br,capim grosso,Capim Grosso,5,17322.0,-11.366667,-40.016667
293593,br,capinopolis,Capinópolis,15,12486.0,-18.683333,-49.583333
293595,br,capinzal,Capinzal,26,23799.0,-27.333333000000003,-51.6
293618,br,capitao poco,Capitão Poço,16,32704.0,-1.75,-47.083333
293643,br,capivari,Capivari,27,35519.0,-23.000722,-47.502026
293731,br,caraguatatuba,Caraguatatuba,27,90844.0,-23.616667,-45.416667
293776,br,carambei,Carambeí,18,13466.0,-24.933333,-50.083333
293791,br,carandai,Carandaí,15,16657.0,-20.933333,-43.916667
293797,br,carangola,Carangola,15,25322.0,-20.733333,-42.033333
293813,br,carapicuiba,Carapicuíba,27,361120.0,-23.516667,-46.833333
293831,br,caratinga,Caratinga,15,60067.0,-19.783333,-42.133333
293833,br,carauari,Carauari,4,18059.0,-4.879167,-66.89805600000001
293840,br,caraubas,Caraúbas,22,12462.0,-5.53,-37.303056
293842,br,caravelas,Caravelas,5,11322.0,-17.75,-39.25
293845,br,carazinho,Caràzinho,23,59418.0,-28.3,-52.8
293859,br,cardoso,Cardoso,27,10556.0,-20.066667,-49.9
293874,br,cariacica,Cariacica,8,330681.0,-20.266667,-40.416667
293889,br,carinhanha,Carinhanha,5,11408.0,-14.3,-43.783333
293898,br,carira,Carira,28,10276.0,-10.35,-37.7
293900,br,caririacu,Caririaçu,6,12971.0,-7.033333,-39.283333
293920,br,carlos barbosa,Carlos Barbosa,23,19106.0,-29.3,-51.5
293921,br,carlos chagas,Carlos Chagas,15,13206.0,-17.716667,-40.75
293940,br,carmo,Carmo,21,11555.0,-21.933333,-42.616667
293950,br,carmo do cajuru,Carmo do Cajuru,15,16333.0,-20.183333,-44.766667
293953,br,carmo do paranaiba,Carmo do Paranaíba,15,26537.0,-18.983333,-46.35
293954,br,carmo do rio claro,Carmo do Rio Claro,15,14446.0,-20.966667,-46.116667
294036,br,carolina,Carolina,13,16229.0,-7.333333,-47.466667
294043,br,carpina,Carpina,30,70690.0,-7.85,-35.25
294094,br,caruaru,Caruaru,30,235375.0,-8.283333,-35.966667
294100,br,carutapera,Carutapera,13,12819.0,-1.216667,-46.016667
294120,br,casa branca,Casa Branca,27,22498.0,-21.766667,-47.083333
294138,br,casa nova,Casa Nova,5,33319.0,-9.416667,-41.133333
294160,br,cascavel,Cascavel,6,52357.0,-4.116667,-38.233333
294164,br,cascavel,Cascavel,18,257174.0,-24.95,-53.466667
294179,br,casimiro de abreu,Casimiro de Abreu,21,19087.0,-22.483333,-42.2
294192,br,cassia,Cássia,15,14391.0,-20.6,-46.93333300000001
294197,br,cassilandia,Cassilândia,11,18498.0,-19.15,-51.75
294217,br,castanhal,Castanhal,16,137410.0,-1.3,-47.916667
294242,br,castelo,Castelo,8,20198.0,-20.6,-41.2
294253,br,castilho,Castilho,27,11419.0,-20.866667,-51.483333
294259,br,castro alves,Castro Alves,5,13869.0,-12.75,-39.43333300000001
294262,br,castro,Castro,18,42092.0,-24.783333,-50.0
294272,br,cataguases,Cataguases,15,62619.0,-21.4,-42.68333300000001
294276,br,catalao,Catalão,29,63545.0,-18.166667,-47.95
294279,br,catanduva,Catanduva,27,109615.0,-21.133333,-48.966667
294298,br,catende,Catende,30,23323.0,-8.666667,-35.716667
294344,br,catole do rocha,Catolé do Rocha,17,19812.0,-6.35,-37.75
294361,br,catu,Catu,5,39933.0,-12.35,-38.383333
294394,br,caucaia,Caucaia,6,275023.0,-3.7,-38.65
294441,br,caxambu,Caxambu,15,22701.0,-21.983333,-44.93333300000001
294448,br,caxias,Caxias,13,117393.0,-4.8333330000000005,-43.35
294452,br,caxias do sul,Caxias do Sul,23,381277.0,-29.1689,-51.1785
294477,br,ceara-mirim,Ceará-Mirim,22,32668.0,-5.633333,-35.43333300000001
294485,br,cedro,Cedro,6,14644.0,-6.6,-39.05
294584,br,ceres,Ceres,29,18760.0,-15.283333,-49.583333
294589,br,cerqueira cesar,Cerqueira César,27,14261.0,-23.05,-49.166667
294591,br,cerquilho,Cerquilho,27,35367.0,-23.201218,-47.757822
294670,br,cha grande,Chã Grande,30,17117.0,-8.233333,-35.45
294718,br,chapada dos guimaraes,Chapada dos Guimarães,14,13657.0,-15.433333,-55.75
294729,br,chapadinha,Chapadinha,13,40805.0,-3.733333,-43.35
294733,br,chapeco,Chapecó,26,160160.0,-27.083333000000003,-52.983333
294761,br,charqueada,Charqueada,27,12391.0,-22.5,-47.766667
294763,br,charqueadas,Charqueadas,23,32076.0,-29.966667,-51.633333
294772,br,chavantes,Chavantes,27,10306.0,-23.033333,-49.716667
294842,br,chopinzinho,Chopinzinho,18,14142.0,-25.85,-52.5
294872,br,cianorte,Cianorte,18,55995.0,-23.616667,-52.61666700000001
294876,br,cicero dantas,Cícero Dantas,5,18317.0,-10.6,-38.383333
294978,br,claudio,Cláudio,15,21825.0,-20.433333,-44.766667
294995,br,clevelandia,Clevelândia,18,14701.0,-26.4,-52.35
295006,br,coaraci,Coaraci,5,32345.0,-14.633333,-39.533333
295009,br,coari,Coari,4,50491.0,-4.109444,-63.138889
295039,br,cocal,Cocal,20,12097.0,-3.466667,-41.566667
295090,br,codajas,Codajás,4,11185.0,-3.833333,-62.083333
295093,br,codo,Codó,13,83289.0,-4.483333,-43.883333
295103,br,coelho neto,Coelho Neto,13,36185.0,-4.25,-43.0
295132,br,colatina,Colatina,8,101193.0,-19.533333,-40.616667
295144,br,colina,Colina,27,15042.0,-20.733333,-48.583333
295145,br,colinas,Colinas,13,25159.0,-6.033333,-44.233333
295256,br,colombo,Colombo,18,217002.0,-25.283333,-49.233333
295335,br,colonia leopoldina,Colônia Leopoldina,2,11914.0,-8.95,-35.65
295407,br,colorado,Colorado,18,20449.0,-22.816667,-51.95
295482,br,conceicao da barra,Conceição da Barra,8,19310.0,-18.583333,-39.75
295485,br,conceicao da feira,Conceição da Feira,5,15838.0,-12.5,-39.0
295489,br,conceicao das alagoas,Conceição das Alagoas,15,16152.0,-19.916667,-48.383333
295509,br,conceicao do araguaia,Conceição do Araguaia,16,27116.0,-8.241111,-49.296111
295521,br,conceicao do coite,Conceição do Coité,5,35172.0,-11.55,-39.266667
295525,br,conceicao do mato dentro,Conceição do Mato Dentro,15,10708.0,-19.016667,-43.416667
295537,br,conceicao do rio verde,Conceição do Rio Verde,15,12402.0,-21.883333,-45.083333
295550,br,conchal,Conchal,27,21351.0,-22.333333,-47.166667
295554,br,conchas,Conchas,27,14301.0,-23.016667,-48.0
295561,br,concordia,Concórdia,26,55368.0,-27.233333,-52.016667
295569,br,condado,Condado,30,19585.0,-7.583333,-35.1
295571,br,conde,Conde,5,15565.0,-11.816667,-37.616667
295604,br,congonhas,Congonhas,15,48819.0,-20.5,-43.866667
295658,br,conselheiro lafaiete,Conselheiro Lafaiete,15,111598.0,-20.666667,-43.8
295666,br,conselheiro pena,Conselheiro Pena,15,12735.0,-19.166667,-41.5
295690,br,contagem,Contagem,15,627132.0,-19.916667,-44.1
295762,br,coracao de jesus,Coração de Jesus,15,12410.0,-16.684444,-44.360278
295767,br,corbelia,Corbélia,18,12725.0,-24.8,-53.3
295774,br,cordeiro,Cordeiro,21,15602.0,-22.033333,-42.366667
295778,br,cordeiropolis,Cordeirópolis,27,25639.0,-22.483333,-47.466667
295789,br,coreau,Coreaú,6,12383.0,-3.55,-40.65
295790,br,coremas,Coremas,17,11897.0,-7.016667,-37.966667
295799,br,corinto,Corinto,15,22121.0,-18.35,-44.45
295807,br,cornelio procopio,Cornélio Procópio,18,45031.0,-23.133333,-50.65
295825,br,coroata,Coroatá,13,34130.0,-4.133333,-44.133333
295828,br,coromandel,Coromandel,15,22648.0,-18.466667,-47.216667
295838,br,coronel fabriciano,Coronel Fabriciano,15,100918.0,-19.516667,-42.633333
295857,br,coronel vivida,Coronel Vivida,18,15841.0,-25.966667,-52.566667
295937,br,correia pinto,Correia Pinto,26,13752.0,-27.583333000000003,-50.4
295947,br,corrente,Corrente,20,13967.0,-10.436111,-45.131111
295954,br,correntina,Correntina,5,13187.0,-13.333332999999998,-44.65
295977,br,corumba,Corumbá,11,96523.0,-19.016667,-57.65
295988,br,coruripe,Coruripe,2,31428.0,-10.133333,-36.166667
295998,br,cosmopolis,Cosmópolis,27,47773.0,-22.633333,-47.2
296022,br,costa rica,Costa Rica,11,12931.0,-23.416667,-54.65
296040,br,cotia,Cotia,27,174832.0,-23.616667,-46.93333300000001
296085,br,coxim,Coxim,11,30216.0,-18.5,-54.75
296101,br,crateus,Crateús,6,52934.0,-5.166667,-40.666667
296104,br,crato,Crato,6,88788.0,-7.233333,-39.383333
296109,br,cravinhos,Cravinhos,27,32690.0,-21.316667,-47.75
296122,br,criciuma,Criciúma,26,161957.0,-28.666667,-49.383333
296155,br,cristalina,Cristalina,29,36532.0,-16.75,-47.6
296176,br,crixas,Crixás,29,11560.0,-14.45,-49.966667
296206,br,cruz alta,Cruz Alta,23,65276.0,-28.65,-53.6
296218,br,cruz das almas,Cruz das Almas,5,47846.0,-12.666667,-39.1
296246,br,cruzeiro,Cruzeiro,27,72023.0,-22.566667,-44.966667
296253,br,cruzeiro do oeste,Cruzeiro do Oeste,18,15058.0,-23.766667,-53.066667
296255,br,cruzeiro do sul,Cruzeiro do Sul,1,45517.0,-7.633333,-72.6
296271,br,cruzilia,Cruzília,15,12816.0,-21.833333,-44.8
296288,br,cubatao,Cubatão,27,118412.0,-23.883333,-46.416667
296299,br,cuiaba,Cuiabá,14,521961.0,-15.583332999999998,-56.083333
296314,br,cuite,Cuité,17,11392.0,-6.483333,-36.15
296356,br,cunha,Cunha,27,11896.0,-23.083333,-44.966667
296387,br,cupira,Cupira,30,19096.0,-8.616667,-35.95
296393,br,curaca,Curaçá,5,11858.0,-8.983333,-39.9
296424,br,curitiba,Curitiba,18,1718433.0,-25.416667,-49.25
296425,br,curitibanos,Curitibanos,26,32142.0,-27.3,-50.6
296440,br,currais novos,Currais Novos,22,35561.0,-6.25,-36.516667
296529,br,curuca,Curuçá,16,10843.0,-0.716667,-47.833333
296560,br,cururupu,Cururupu,13,22007.0,-1.833333,-44.866667
296568,br,curvelo,Curvelo,15,63955.0,-18.75,-44.416667
296571,br,custodia,Custódia,30,18107.0,-8.116667,-37.65
296646,br,delmiro gouveia,Delmiro Gouveia,2,35260.0,-9.383333,-37.983333
296650,br,demerval lobao,Demerval Lobão,20,15285.0,-5.366667,-42.68333300000001
296680,br,descalvado,Descalvado,27,26138.0,-21.9,-47.616667
296749,br,diadema,Diadema,27,390641.0,-23.7,-46.616667
296757,br,diamantina,Diamantina,15,37344.0,-18.25,-43.6
296763,br,diamantino,Diamantino,14,15700.0,-14.416667000000002,-56.45
296765,br,dianopolis,Dianópolis,31,12896.0,-11.700556,-46.743056
296806,br,divinopolis,Divinópolis,15,193835.0,-20.15,-44.9
296837,br,dois corregos,Dois Córregos,27,20975.0,-22.366667,-48.35
296851,br,dois irmaos,Dois Irmãos,23,28926.0,-29.583333000000003,-51.083333
296867,br,dois vizinhos,Dois Vizinhos,18,22766.0,-25.783333,-53.083333
296895,br,dom pedrito,Dom Pedrito,23,36912.0,-30.983333,-54.666667
296897,br,dom pedro,Dom Pedro,13,15570.0,-4.483333,-44.45
296930,br,dores do indaia,Dores do Indaiá,15,12859.0,-19.45,-45.6
296959,br,dourados,Dourados,11,162206.0,-22.216667,-54.8
296978,br,dracena,Dracena,27,37940.0,-21.533333,-51.483333
296980,br,duartina,Duartina,27,11903.0,-22.4,-49.416667
297018,br,duque de caxias,Duque de Caxias,21,818339.0,-22.790321,-43.325009
297028,br,ecoporanga,Ecoporanga,8,13774.0,-18.383333,-40.833333
297051,br,eirunepe,Eirunepé,4,17175.0,-6.666667,-69.866667
297062,br,elesbao veloso,Elesbão Veloso,20,10430.0,-6.216667,-42.133333
297066,br,elias fausto,Elias Fausto,27,12705.0,-23.033333,-47.383333
297074,br,eloi mendes,Elói Mendes,15,19413.0,-21.616667,-45.566667
297108,br,embu,Embu,27,221737.0,-23.65,-46.85
297109,br,embu-guacu,Embu-Guaçu,27,76311.0,-23.816667,-46.8
297147,br,encantado,Encantado,23,16637.0,-29.25,-51.883333
297155,br,encruzilhada do sul,Encruzilhada do Sul,23,17199.0,-30.533333,-52.51666700000001
297180,br,engenheiro beltrao,Engenheiro Beltrão,18,14955.0,-23.783333,-52.25
297279,br,entre rios,Entre Rios,5,27406.0,-11.933333,-38.083333
297321,br,erechim,Erechim,23,96089.0,-27.633333,-52.283333
297366,br,escada,Escada,30,48084.0,-8.366667,-35.233333
297401,br,esmeraldas,Esmeraldas,15,103252.0,-19.75,-44.316667
297413,br,espera feliz,Espera Feliz,15,13031.0,-20.65,-41.916667
297422,br,esperanca,Esperança,17,18817.0,-7.016667,-35.85
297430,br,esperantina,Esperantina,20,21044.0,-3.9,-42.233333
297432,br,esperantinopolis,Esperantinópolis,13,13167.0,-4.883333,-44.883333
297467,br,espinosa,Espinosa,15,17549.0,-14.933333,-42.833333
297470,br,espirito santo do pinhal,Espirito Santo do Pinhal,27,37449.0,-22.2,-46.75
297495,br,esplanada,Esplanada,5,18859.0,-11.783333,-37.95
297499,br,espumoso,Espumoso,23,10340.0,-28.733333,-52.85
297546,br,estancia,Estância,28,55655.0,-11.266667,-37.43333300000001
297575,br,estancia velha,Estância Velha,23,40391.0,-29.65,-51.18333300000001
297582,br,esteio,Esteio,23,84903.0,-29.85,-51.166667
297647,br,estreito,Estreito,13,17647.0,-5.783333,-43.25
297679,br,estrela,Estrêla,23,24200.0,-28.1,-50.983333
297713,br,euclides da cunha,Euclides da Cunha,5,29739.0,-10.516667,-39.016667
297734,br,eusebio,Eusébio,6,37290.0,-3.9,-38.45
297763,br,extrema,Extrema,15,13682.0,-22.85,-46.316667
297769,br,extremoz,Extremóz,22,17992.0,-5.7,-35.3
297774,br,exu,Exu,30,10875.0,-7.516667,-39.716667
297817,br,farias brito,Farias Brito,6,11288.0,-6.916667,-39.566667
297838,br,farroupilha,Farroupilha,23,57651.0,-29.233333,-51.35
297843,br,fartura,Fartura,27,12405.0,-23.383333,-49.5
297916,br,faxinal,Faxinal,18,13464.0,-23.983333,-51.366667
299009,br,feijo,Feijó,1,12951.0,-8.15,-70.35
299013,br,feira de santana,Feira de Santana,5,481926.0,-12.25,-38.95
299019,br,feira nova,Feira Nova,30,12985.0,-7.933333,-35.35
299093,br,fernandopolis,Fernandópolis,27,61932.0,-20.266667,-50.233333
299106,br,ferraz de vasconcelos,Ferraz de Vasconcelos,27,167904.0,-23.533333,-46.366667
299247,br,flores da cunha,Flores da Cunha,23,20522.0,-29.0287,-51.1822
299263,br,flores,Flores,30,11694.0,-7.85,-37.983333
299284,br,floresta,Floresta,30,18100.0,-8.6,-38.566667
299292,br,florestopolis,Florestópolis,18,13250.0,-22.866667,-51.4
299297,br,floriano,Floriano,20,48588.0,-6.783333,-43.016667
299308,br,florianopolis,Florianópolis,26,412731.0,-27.583333000000003,-48.566667
299337,br,fonte boa,Fonte Boa,4,16060.0,-2.5333330000000003,-66.016667
299361,br,formiga,Formiga,15,56405.0,-20.45,-45.416667
299373,br,formosa do rio preto,Formosa do Rio Prêto,5,14365.0,-11.046389,-45.059722
299385,br,formosa,Formosa,29,81233.0,-15.533333,-47.333333
299389,br,formoso do araguaia,Formoso do Araguaia,31,14963.0,-11.796667,-49.466944
299411,br,forquilhinha,Forquilhinha,26,23021.0,-28.75,-49.466667
299430,br,fortaleza,Fortaleza,6,2416920.0,-3.316667,-41.416667
299479,br,foz do iguacu,Foz do Iguaçu,18,293526.0,-25.55,-54.583333
299515,br,franca,Franca,27,305047.0,-20.533333,-47.4
299530,br,francisco beltrao,Francisco Beltrão,18,57618.0,-26.083333,-53.066667
299552,br,francisco morato,Francisco Morato,27,171793.0,-23.279503,-46.746403
299558,br,francisco sa,Francisco Sá,15,13997.0,-16.466667,-43.5
299568,br,franco da rocha,Franco da Rocha,27,108860.0,-23.324821,-46.718475
299592,br,frederico westphalen,Frederico Westphalen,23,20896.0,-27.366667,-53.4
299650,br,frutal,Frutal,15,40931.0,-20.033333,-48.916667
299673,br,fundao,Fundão,8,12715.0,-19.916667,-40.4
299819,br,gameleira,Gameleira,30,19424.0,-8.583333,-35.4
299843,br,gandu,Gandu,5,21566.0,-13.75,-39.5
299862,br,garanhuns,Garanhuns,30,110087.0,-8.9,-36.483333
299874,br,garca,Garça,27,41303.0,-22.233333,-49.616667
299897,br,garibaldi,Garibaldi,23,30364.0,-29.25,-51.533333
299929,br,gaspar,Gaspar,26,33659.0,-26.933333,-48.966667
300052,br,getulio vargas,Getúlio Vargas,23,13695.0,-27.833333000000003,-52.266667
300088,br,girua,Giruá,23,12170.0,-28.033333,-54.35
300109,br,gloria do goita,Glória do Goitá,30,17374.0,-8.016667,-35.283333
300152,br,goiana,Goiana,30,43981.0,-7.55,-34.983333
300153,br,goianapolis,Goianápolis,29,10114.0,-16.5,-49.016667
300159,br,goianesia,Goianésia,29,47884.0,-15.3,-49.116667
300160,br,goiania,Goiânia,29,1171209.0,-16.666667,-49.266667
300162,br,goianinha,Goianinha,22,13434.0,-6.266667,-35.2
300164,br,goianira,Goianira,29,22823.0,-16.5,-49.43333300000001
300168,br,goias,Goiás,29,19098.0,-15.933333,-50.133333
300170,br,goiatuba,Goiatuba,29,25925.0,-18.016667,-49.366667
300236,br,governador valadares,Governador Valadares,15,250882.0,-18.85,-41.93333300000001
300264,br,grajau,Grajaú,13,30218.0,-5.816667,-46.133333
300274,br,gramado,Gramado,23,26365.0,-29.4,-50.9
300305,br,granja,Granja,6,25880.0,-3.1,-40.833333
300329,br,gravata,Gravatá,30,61250.0,-8.2,-35.56666699999999
300331,br,gravatai,Gravataí,23,238782.0,-29.9426,-50.9933
300405,br,guacui,Guaçuí,8,19787.0,-20.766667,-41.68333300000001
300424,br,guaiba,Guaíba,23,101026.0,-30.111111,-51.316667
300437,br,guaira,Guaíra,18,27611.0,-24.066667,-54.25
300438,br,guaira,Guaíra,27,34093.0,-20.316667,-48.3
300440,br,guaiuba,Guaiuba,6,21822.0,-4.033333,-38.633333
300447,br,guajara-mirim,Guajará-Mirim,24,34123.0,-10.8,-65.366667
300473,br,guanambi,Guanambi,5,58879.0,-14.216667,-42.783333
300482,br,guanhaes,Guanhães,15,23728.0,-18.783333,-42.95
300487,br,guapiacu,Guapiaçu,27,14065.0,-20.833333,-49.216667
300491,br,guapimirim,Guapimirim,21,31202.0,-22.533333,-42.983333
300496,br,guapo,Guapó,29,10075.0,-16.816667000000002,-49.533333
300498,br,guapore,Guaporé,23,20050.0,-28.85,-51.9
300504,br,guarabira,Guarabira,17,43750.0,-6.85,-35.483333
300509,br,guaraciaba do norte,Guaraciaba do Norte,6,18186.0,-4.166667,-40.766667
300520,br,guara,Guará,27,18263.0,-20.433333,-47.833333
300531,br,guaramirim,Guaramirim,26,21422.0,-26.45,-49.0
300535,br,guaranesia,Guaranésia,15,17437.0,-21.3,-46.8
300559,br,guarapari,Guarapari,8,100927.0,-20.666667,-40.5
300564,br,guarapuava,Guarapuava,18,150851.0,-25.383333,-51.45
300570,br,guararapes,Guararapes,27,27558.0,-21.25,-50.633333
300575,br,guararema,Guararema,27,23572.0,-23.4132,-46.0377
300581,br,guaratingueta,Guaratinguetá,27,105882.0,-22.815156,-45.18923
300582,br,guaratuba,Guaratuba,18,18906.0,-25.8804,-48.57100000000001
300607,br,guariba,Guariba,27,30464.0,-21.35,-48.233333
300644,br,guaruja,Guarujá,27,310430.0,-24.0,-46.266667
300647,br,guarulhos,Guarulhos,27,1169601.0,-23.45068,-46.526175
300666,br,guaxupe,Guaxupé,15,47890.0,-21.3,-46.7
300711,br,guiratinga,Guiratinga,14,10938.0,-16.35,-53.75
300737,br,gurupi,Gurupi,31,64790.0,-11.7225,-49.012222
300812,br,hidrolandia,Hidrolândia,6,10299.0,-4.416667,-40.416667
300834,br,horizonte,Horizonte,6,51181.0,-4.0833330000000005,-38.483333
300840,br,horizontina,Horizontina,23,14416.0,-27.616667,-54.316667
300847,br,hortolandia,Hortolândia,27,203537.0,-22.85,-47.25
