	station_id	WMO_id	station_name	latitude	longitude	start_date	end_date	isRadio
0	24044		ALLIANCE MUNI AP	0.0	0.0	19441231.0	19470301.0	
1	54733		BEVERLY MUNICIPAL AP	0.0	0.0	19810731.0	19930101.0	
2	54733		BEVERLY MUNICIPAL AP	0.0	0.0	19930101.0	19950101.0	
3	54733		BEVERLY MUNICIPAL AP	0.0	0.0	19950101.0	19981209.0	
4	13882		CHATTANOOGA WSO AIRPORT	0.0	0.0	19480801.0	19480831.0	
5	13882		CHATTANOOGA WSO AIRPORT	0.0	0.0	19480831.0	19510101.0	
6	4839		HOLLAND TULIP CITY	0.0	0.0	19811130.0	19930101.0	
7	4839		HOLLAND TULIP CITY	0.0	0.0	19930101.0	19950101.0	
8	4839		HOLLAND TULIP CITY	0.0	0.0	19950101.0	19960621.0	
9	13809		LAWRENCEVILLE INT AP	0.0	0.0	19460131.0	19681001.0	
10	24110		MOSES LAKE GRANT CO	0.0	0.0	19450430.0	19490301.0	
11	53884		NEWNAN COWETA COUNTY AIRPORT	0.0	0.0	10101.0	99991231.0	
12	13737		NORFOLK WSO AIRPORT	0.0	0.0	19480101.0	19480131.0	
13	24023	72562.0	NORTH PLATTE WB ARPT	0.0	0.0	19471201.0	19471231.0	
14	12972		ROCKPORT ARANSAS CO	0.0	0.0	19810501.0	19930101.0	
15	12972		ROCKPORT ARANSAS CO	0.0	0.0	19930101.0	19960229.0	
16	25629		TOGIAK	0.0	0.0	19910417.0	99991231.0	
17	33601	40948.0	KABUL INTL	34.72	69.22	19570701.0	99991231.0	
18	33013		AIN EL	36.38	6.62	19430301.0	19441231.0	
19	33001		AIN MLILA	36.07	6.58	19430301.0	19430831.0	
20	33005		ALGIERS	36.77	3.05	19430301.0	19430831.0	
21	33045		ALGIERS	36.77	3.08	19430401.0	19440531.0	
22	33034		ANNABA	36.83	7.8	19450601.0	19451031.0	
23	33007		BERTEAUX	32.1	6.45	19430101.0	19430630.0	
24	33008		BISKRA	34.85	5.77	19430101.0	19430331.0	
25	33006		BLIDA	36.5	2.82	19421201.0	19431130.0	
26	33011		CANROBERT	35.87	7.13	19430301.0	19430430.0	
27	33012		CHATEAUDUN DU RHUMEL	36.17	6.33	19430201.0	19430831.0	
28	33018		EL GUERRAH	36.13	6.62	19430201.0	19430930.0	
29	33031		LA SENIA	35.62	0.62	19421101.0	19451231.0	
30	33016		LE KHROUB	36.3	6.7	19440701.0	19450831.0	
31	33023		MAISON BLANCHE	36.72	3.23	19430401.0	19460131.0	
32	33025		MASCARA	35.38	0.12	19430501.0	19430630.0	
33	33028		MONTESQUIEU	36.13	7.82	19430401.0	19430630.0	
34	33029		NAVARIN	36.08	5.8	19430801.0	19431130.0	
35	33030		NOUVION	35.68	0.18	19430101.0	19430630.0	
36	33033		ORLEANSVILLE	36.2	-1.32	19430101.0	19430430.0	
37	33002		REGHAIA	36.77	3.4	19430901.0	19451031.0	
38	33035		RELIZANE	35.75	0.63	19430101.0	19430630.0	
39	33042		ST DONAT	36.2	5.97	19430301.0	19430831.0	
40	33043		TAFARAOUI	35.45	-0.53	19421101.0	19430331.0	
41	33044		TELERGMA	36.12	6.35	19430101.0	19440630.0	
42	12001		TINDOUF	27.68	-8.15	19430301.0	19450630.0	
43	61707		CAPE MATATULA OBSRVY	-14.25	-170.57	19751101.0	99991231.0	
44	61706		PAGO PAGO AMERICAN S	-14.25	-170.57	10101.0	99991231.0	
45	61704		LEONE BAY AMERICAN S	-14.37	-170.78	19620401.0	19620731.0	
46	61705		PAGO PAGO WB AP	-14.33	-170.72	19660401.0	19701001.0	
47	61705		PAGO PAGO WSO AIRPORT	-14.33	-170.72	19701001.0	19820101.0	
48	61705		PAGO PAGO WSO AIRPORT	-14.33	-170.72	19820101.0	19950101.0	
49	61705		PAGO PAGO WSO AIRPORT	-14.33	-170.72	19950101.0	20040401.0	
50	61702		TAFUNA AMERICAN SAMO	-14.33	-170.68	19400501.0	19500531.0	
51	61705		PAGO PAGO WSO AIRPORT	-14.33	-170.71	20040401.0	99991231.0	
52	73701		AMSTERDAM IS AIR SAM	-37.95	77.53	19830102.0	19901207.0	
53	87701		ADARE HALLETT	-72.3	170.22	19570201.0	19690228.0	
54	90001		AMUNDSEN-SCOTT	-90.0	0.0	19570201.0	99991231.0	
55	68601		BEARDMORE CAMP	-85.03	-164.67	19570101.0	19570228.0	
56	88702		BEARDMORE CAMP	-83.4	174.75	19581101.0	19640228.0	
57	68701		BROCKTON STATION	-80.02	-178.42	19661001.0	19720131.0	
58	68201		BYRD STATION	-80.02	-119.53	19570101.0	19841231.0	
59	57701		EIGHTS	-75.23	-77.17	19611101.0	19651130.0	
60	57401		ELLSWORTH IGY	-77.73	-41.12	19570301.0	19621130.0	
61	57201		HALLEY BAY AIR SAMPL	-75.67	-25.5	19830117.0	99991231.0	
62	87603		HUT POINT	-77.88	166.73	19621001.0	99991231.0	
63	67601		LITTLE AMERICA	-78.2	-162.25	19560201.0	19590930.0	
64	88703		LITTLE JEANA STATION	-81.38	170.75	19641001.0	19660131.0	
65	67401		LITTLE ROCKFORD	-79.25	-147.5	19601001.0	19620228.0	
66	67402		LITTLE ROCKFORD	-76.27	-147.5	19621001.0	19650228.0	
67	67501		LITTLE ROCKFORD	-79.58	-152.93	19591001.0	19600930.0	
68	88701		LIV	-83.28	175.75	19571101.0	19571130.0	
69	87602		MARBLE POINT	-77.42	163.68	19571201.0	19590131.0	
70	87601		MCMURDO SOUND NAF	-77.88	166.73	19560301.0	99991231.0	
71	87604		MCMURDO STN AIR SAMP	-77.83	166.6	19851204.0	19871028.0	
72	89061	89061.0	PALMER STATION	-64.77	-64.08	19790101.0	19841231.0	
73	56601		PALMER STN AIR SAMPL	-64.92	-64.0	19830101.0	99991231.0	
74	77401		PLATEAU STATION	-79.47	40.58	19651201.0	19681231.0	
75	57801	89083.0	SIPLE STATION	-75.92	-83.92	19780101.0	19840131.0	
76	90002		SOUTH POLE OBSERVTRY	-90.0	-24.8	19580101.0	99991231.0	
77	76301		SYOWA AIR SAMPLE STN	-69.0	39.58	19860125.0	99991231.0	
78	86101		WILKES	-66.27	110.57	19570301.0	19590201.0	
79	86101		WILKES	-66.27	110.57	19590201.0	19631231.0	
80	86102		WILKES ICE CAP STATI	-66.47	112.28	19580301.0	19581031.0	
81	11647		ST JOHNS	17.13	-61.78	19570901.0	99991231.0	
82	11604		ST JOHNS COOLIDGE FI	17.12	-61.78	19411101.0	19490831.0	
83	52601		TARTAGAL	-22.77	-63.82	19661101.0	19661231.0	
84	50102		ASCENSION IS AIR SAM	-7.92	-14.42	19830511.0	99991231.0	
85	50101		ASCENSION ISLAND	-7.97	-14.4	19421001.0	19950101.0	
86	50101		ASCENSION ISLAND	-7.97	-14.4	19950101.0	99991231.0	
87	82301		ALICE SPRINGS	-23.63	133.58	19421201.0	19421231.0	
88	82502		AMBERLY	-27.6	152.72	19430201.0	19450731.0	
89	82501		ARCHER	-27.58	153.02	19430501.0	19440930.0	
90	83502		BANKSTOWN	-33.8	151.0	19420901.0	19420930.0	
91	81304		BATCHELOR FIELD	-13.05	131.07	19430101.0	19430630.0	
92	82506		BRISBANE	-27.43	153.08	19441001.0	19460131.0	
93	82507		BRISBANE	-27.45	153.08	19431001.0	19441031.0	
94	81401		CAIRNS	-16.88	145.75	19430101.0	19450131.0	
95	84401		CAPE GRIM AIR SAMPLE	-40.68	144.68	19840419.0	99991231.0	
96	82402		CHARLEVILLE	-26.42	146.27	19420701.0	19430331.0	
97	82401		CHARTERS TOWERS	-20.03	146.13	19420601.0	19441231.0	
98	82403		CLONCURRY	-20.68	140.5	19420601.0	19441031.0	
99	71901		COCOS ISLAND	-12.2	96.87	19450601.0	19450731.0	
100	83504		COFFS HARBOUR	-30.32	153.13	19421001.0	19430228.0	
101	81403		COOKTOWN	-15.45	145.18	19421101.0	19441130.0	
102	81302		DARWIN	-12.43	130.87	19440801.0	19450131.0	
103	81301		FENTON FIELD	-13.3	131.13	19430301.0	19441130.0	
104	81410		HIGGIN	-10.93	142.48	19440901.0	19450131.0	
105	81406		HOEVETT	-17.05	145.4	19420601.0	19440630.0	
106	81404		HORN ISLAND	-10.6	142.3	19420601.0	19440930.0	
107	81405		IRON RANGE	-12.7	143.3	19420901.0	19441130.0	
108	82504		JONDARYAN	-27.25	151.42	19431201.0	19441231.0	
109	81306		KATHERINE	-14.45	132.27	19421201.0	19430331.0	
110	82404		LONGREACH	-23.45	144.13	19420801.0	19430731.0	
111	82405		MACKAY	-21.17	149.17	19430401.0	19450831.0	
112	81411		NORMANTON SITE 8	-17.72	141.13	19640201.0	19640430.0	
113	82101		NORTHWEST CAPE	-22.33	114.05	19430501.0	19760630.0	
114	83101		PERTH	-31.98	115.82	19440101.0	19440630.0	
115	81412		PRINCESS CHARLOTTE B	-14.4	144.25	19640101.0	19640731.0	
116	81307		RANTYIRRITY POINT	-14.18	135.9	19640401.0	19640430.0	
117	81407		REID RIVER	-19.77	146.85	19421001.0	19430331.0	
118	82409		RICHMOND	-20.92	143.38	19640601.0	19640731.0	
119	82503		ROCKHAMPTON	-23.4	150.5	19430501.0	19450930.0	
120	83503		SYDNEY	-33.95	151.2	19430901.0	19450831.0	
121	83405		TOCUMWAL	-35.8	145.6	19420901.0	19421130.0	
122	82408		TORRENS CREEK	-21.42	145.23	19420901.0	19421031.0	
123	81408		TOWNSVILLE	-19.27	146.75	19430101.0	19450930.0	
124	83508		WILLIAMTOWN	-32.8	151.8	19420901.0	19430131.0	
125	81409		WOODSTOCK	-19.6	146.83	19430201.0	19431031.0	
126	34182		HORSCHING	48.23	14.18	19460601.0	19490131.0	
127	34166		SALZBURG	47.8	13.0	19450501.0	19461231.0	
128	34165		VIENNA	48.32	16.13	19460401.0	19550930.0	
129	13202		HORTA	38.53	-28.63	19431201.0	19440831.0	
130	13201		LAJES AB	38.73	-27.32	10101.0	99991231.0	
131	13204		TERCEIRA	38.82	-27.08	19441101.0	19450630.0	
132	13205		TERCEIRA IS AIR SAMP	38.75	-27.08	19830517.0	99991231.0	
133	13203		VILLA DO PORTO	36.97	-25.17	19440701.0	19460930.0	
134	12703		ABRAHAM BAY	22.35	-72.98	19440601.0	19451031.0	
135	12709		ABRAHAM BAY	22.35	-72.83	19490801.0	99991231.0	
136	12713		ELEUTHERA ISLAND	25.27	-76.3	19520201.0	19710630.0	
137	12712		GOLD ROCK CREEK	26.62	-78.37	19510101.0	19710630.0	
138	12708		GRAND TURK ISLAND	21.5	-71.03	19000701.0	19630831.0	
139	12714		GRAND TURK ISLAND	21.43	-71.13	19541101.0	19780228.0	
140	12704		GREAT EXUMA ISLAND	23.5	-75.75	19450601.0	19451031.0	
141	12706		GREAT EXUMA ISLAND	23.52	-75.78	19420901.0	19450630.0	
142	12715		MAYAGUAN	22.37	-73.03	19550101.0	19571031.0	
143	12710		NASSAU	25.05	-77.33	19390101.0	19431231.0	
144	12717		NASSAU AP	25.05	-77.47	19390101.0	19470228.0	
145	12717	78073.0	NASSAU AP	25.05	-77.47	19720901.0	19950101.0	
146	12717	78073.0	NASSAU AP	25.05	-77.47	19950101.0	99991231.0	
147	11708		NAVASSA ISLAND	18.48	-75.02	19440301.0	19440930.0	
148	11713		NAVASSA ISLAND	18.4	-75.02	19170101.0	19291031.0	
149	12716		SAN SALVADOR	24.07	-74.52	19550201.0	19641231.0	
150	12702		SOUTH CAICOS ISLAND	21.48	-71.52	19440101.0	19470930.0	
151	12707		WALKER CAY	27.27	-78.38	19431101.0	19440630.0	
152	32509		SHAIKH ISA NODE 023	25.92	50.58	19900823.0	19910531.0	
153	11501		CHRISTS CHURCH	13.07	-59.5	19430901.0	19451231.0	
154	11504		RAGGED PT AIR SAMPLE	13.17	-59.43	19871114.0	99991231.0	
155	35007		ENSIVAL	50.58	5.87	19450201.0	19450831.0	
156	35006		KEERBERGEN	51.0	4.62	19450201.0	19450430.0	
157	11818		BELIZE CITY	17.53	-88.3	10101.0	99991231.0	
158	13601	78016.0	BERMUDA	32.37	-64.68	19700701.0	99991231.0	
159	13601	78016.0	BERMUDA	32.37	-64.68	19411201.0	19700701.0	
160	13602		BERMUDA	32.27	-64.85	19411201.0	19650531.0	
161	13604		SOUTHHAMPTON AIR SAM	32.27	-65.88	19890511.0	99991231.0	
162	13603		ST DAVIDS HEAD AIR S	32.37	-64.65	19890213.0	99991231.0	
163	51601		LA PAZ	-16.52	-68.18	19630901.0	19950101.0	
164	51601		LA PAZ	-16.52	-68.18	19950101.0	99991231.0	
165	64117		CAMP DEMI	44.22	18.73	19990101.0	99991231.0	
166	10504		AMAPA	2.08	-50.87	19430401.0	19460930.0	
167	10507		AMAPA	2.08	-50.87	19431201.0	19440831.0	
168	51304		ARATU	-12.78	-38.5	19430601.0	19450531.0	
169	52402		CAMP DO MARTE	-23.52	-46.62	19550201.0	19590228.0	
170	51401		CAMP ECLIPSE	-17.2	-43.67	19470401.0	19470531.0	
171	51303		CARAVELLAS	-17.67	-39.27	19440101.0	19450531.0	
172	10505		CLEVELANDIA	3.87	-51.82	19431001.0	19451031.0	
173	50301		FERNANDO DE NORONHA	-3.83	-32.42	19430501.0	19620430.0	
174	50305		FERNANDO DE NORONHA	-3.85	-32.42	19440801.0	19450531.0	
175	50310		FERNANDO DE NORONHA	-3.85	-32.42	19440601.0	19440731.0	
176	50302		FORTALEZA	-3.77	-38.55	19430401.0	19460930.0	
177	50306		FORTALEZA	-3.73	-38.57	19440101.0	19450531.0	
178	52501		GRAVATAI	-29.95	-51.13	19500601.0	19541231.0	
179	11503		HARP	13.1	-59.62	19660101.0	99991231.0	
180	50404		IGARAPE	-1.07	-47.62	19450501.0	19450930.0	
181	50405		IGARAPE	-1.07	-47.62	19440101.0	19450331.0	
182	51301		IPITANGA	-12.9	-38.35	19430801.0	19460331.0	
183	51302		IPITANGA	-12.9	-38.35	19431001.0	19450430.0	
184	10506		MACAPA	0.03	-51.02	19430701.0	19450930.0	
185	50307		MACEIO	-9.52	-35.82	19431201.0	19450630.0	
186	50308		NATAL	-5.88	-35.23	19430901.0	19440630.0	
187	50402		PANAIR	-2.9	-40.87	19430501.0	19450930.0	
188	50304		PARNAMIRIM	-5.9	-35.25	19430801.0	19460930.0	
189	50303		RECIFE	-8.12	-34.92	19430801.0	19660930.0	
190	50309		RECIFE FAW 16	-8.12	-34.92	19431201.0	19440731.0	
191	52401		SANTA CRUZ	-22.92	-43.78	19431201.0	19450831.0	
192	50403		SAO LUIZ	-2.58	-44.23	19430501.0	19460831.0	
193	50406		SAO LUIZ	-2.6	-44.52	19431201.0	19440831.0	
194	50401		VAL DE CANS	-1.38	-48.48	19421001.0	19461031.0	
195	32945		AKYAB	20.13	92.88	19450301.0	19460430.0	
196	32952		ALON	22.22	95.1	19450201.0	19450228.0	
197	32939		BAHE	23.38	96.57	19450201.0	19450831.0	
198	32936		BHAMO	24.27	97.25	19450101.0	19451031.0	
199	32950		DWEHLA	21.63	96.03	19450401.0	19450430.0	
200	32903		FT HERTZ	27.4	97.4	19430301.0	19441031.0	
201	32940		INDAINGGALE	23.28	94.08	19450101.0	19450228.0	
202	32943		KUTKAI	23.47	97.92	19450301.0	19450531.0	
203	31902		KYAUKPYU RAMREE ISLA	19.43	93.57	19450401.0	19450630.0	
204	32942		LASHIO	22.98	97.75	19450301.0	19450831.0	
205	32922		MAINGKWAN	26.33	96.62	19440501.0	19440531.0	
206	32953		MEIKTILA	20.88	95.88	19450301.0	19450430.0	
207	32949		MYINGYAN	21.48	95.43	19450401.0	19450531.0	
208	32927		MYITKYINA	25.38	97.35	19440501.0	19450930.0	
209	32930		MYITKYINA	25.42	97.4	19441101.0	19450531.0	
210	31901		RANGOON	16.92	96.15	19450601.0	19451231.0	
211	32929		SAHMAW	25.23	96.78	19441001.0	19450531.0	
212	32925		SHINGBWIYANG	26.68	96.22	19440401.0	19450831.0	
213	32938		SHWEBO	22.58	95.73	19450201.0	19450930.0	
214	32941		SINTHE	21.4	94.63	19450201.0	19450331.0	
215	32923		SUMPRABUM	26.55	97.55	19440401.0	19441031.0	
216	32924		TINGKAWK SAKAN	26.07	96.72	19440501.0	19450228.0	
217	32931		WAINGMAW	25.38	97.45	19441101.0	19450430.0	
218	32926		WARAZUP	25.8	96.65	19440501.0	19450930.0	
219	31903		ZAYATKWIN	17.13	96.33	19450501.0	19450531.0	
220	94646		BATHHURST AIRPORT	47.63	-65.75	20021125.0	99991231.0	
221	25112		BANFF	51.18	-115.57	19340101.0	99991231.0	
222	25133		BEAVERLODGE	55.2	-119.45	19350801.0	19541231.0	
223	25140		BEAVERLODGE	55.18	-119.37	19591001.0	19640131.0	
224	25146		BROOKS	50.55	-111.9	19660201.0	99991231.0	
225	25110		CALGARY	51.1	-114.02	19340101.0	19950101.0	
226	25110		CALGARY	51.1	-114.02	19950101.0	99991231.0	
227	25130		CALGARY	51.1	-114.02	19430401.0	19450731.0	
228	25144		CANOE LAKE	54.95	-110.38	19630401.0	19710131.0	
229	25136		CHESTERMERE LAKE	51.03	-113.73	19460301.0	19480930.0	
230	25126		CLARESHOLM	50.0	-113.63	19410801.0	19580930.0	
231	25129		COLD LAKE	54.42	-110.28	19521101.0	99991231.0	
232	25113		CORONATION	52.1	-111.45	19440501.0	99991231.0	
233	94111		COWLEY	49.63	-114.08	19390201.0	19600831.0	
234	25102		EDMONTON	53.57	-113.52	19431201.0	19450131.0	
235	25111		EDMONTON	53.57	-113.52	19281001.0	99991231.0	
236	25142		EDMONTON	53.32	-113.58	19590501.0	19950101.0	
237	25142		EDMONTON	53.32	-113.58	19950101.0	99991231.0	
238	25108		EDMONTON NAMAO	53.67	-113.48	19431201.0	19460331.0	
239	25108		EDMONTON NAMAO	53.67	-113.47	19550801.0	99991231.0	
240	25145		EDMONTON STONY	53.55	-114.1	19660101.0	99991231.0	
241	25141		EDSON	53.58	-116.45	19600201.0	99991231.0	
242	25157		EDSON AUT	53.58	-116.45	19700501.0	99991231.0	
243	25103		EMBARRAS	58.2	-111.38	19430101.0	19620930.0	
244	25114		FAIRVIEW	56.07	-118.38	19310901.0	19700430.0	
245	25104		FAWCETT	54.47	-114.1	19430501.0	19450831.0	
246	25151		FOOTNER FR	58.62	-117.17	19701001.0	99991231.0	
247	25143		FT CHIPEWYAN	58.72	-111.15	19621001.0	19671031.0	
248	25148		FT CHIPEWYAN	58.77	-111.12	19671101.0	99991231.0	
249	25131		FT VERMILION	58.38	-116.05	19480501.0	19710131.0	
250	25115		GRANDE PRAIRIE	55.18	-118.88	19420101.0	99991231.0	
251	25147		HIGH LEVEL	58.52	-117.1	19670601.0	19701031.0	
252	25137		HIGH RIVER	50.47	-114.17	19210701.0	19290630.0	
253	25116		JASPER	52.88	-118.07	19340901.0	99991231.0	
254	25155		JASPER HINTON	53.32	-117.75	19710901.0	99991231.0	
255	25117		KEG RIVER	57.78	-117.83	19350701.0	19570430.0	
256	25125		LAC LA BICHE	54.77	-112.02	19440501.0	99991231.0	
257	25158		LAC LA BICHE AUT	54.77	-112.02	19581001.0	99991231.0	
258	25109		LITTLE SMOKEY	55.32	-116.98	19431001.0	19431231.0	
259	94148		MACLEOD	49.7	-113.42	19410401.0	19441031.0	
260	25105		MCMURRAY	56.65	-111.22	19340101.0	19441231.0	
261	25118		MEDICINE HAT	50.02	-110.72	19340101.0	99991231.0	
262	25138		MORLEY	51.17	-114.85	19200901.0	19201031.0	
263	25139		OGDEN	50.97	-113.98	19460301.0	19480930.0	
264	25101		PEACE RIVER	56.23	-117.43	19431201.0	19450930.0	
265	94153		PINCHER CREEK	49.5	-113.95	19600801.0	99991231.0	
266	94164		PINCHER CREEK AP	49.52	-114.0	19790601.0	99991231.0	
267	94159		PINCHER CREEK AUT	49.5	-113.95	19600801.0	99991231.0	
268	94165		PINCHER CREEK AUT	49.52	-114.0	19790601.0	99991231.0	
269	25154		PRIMROSE LAKE ROK SD	54.8	-110.08	19670401.0	99991231.0	
270	25119		RED DEER	52.18	-113.9	19380201.0	99991231.0	
271	25121		ROCKY MOUNTAIN HOUSE	52.38	-114.92	19450101.0	99991231.0	
272	25156		ROCKY MOUNTAIN HOUSE	52.43	-114.92	19780101.0	99991231.0	
273	25159		ROCKY MOUNTAIN HOUSE	52.43	-114.9	19690601.0	99991231.0	
274	25160		ROCKY MOUNTAIN HOUSE	52.43	-114.92	19780101.0	99991231.0	
275	25153		SLAVE LAKE	55.3	-114.78	19711101.0	99991231.0	
276	25132		STONEY MOUNTAIN	56.38	-111.27	19571001.0	19640131.0	
277	25122		SUFFIELD	50.27	-111.18	19450401.0	99991231.0	
278	25106		VALLEY VIEW	55.08	-117.25	19440201.0	19450831.0	
279	25123		VERMILION	53.35	-110.83	19450801.0	99991231.0	
280	25135		VULCAN	50.4	-113.43	19430901.0	19450531.0	
281	25107		WAGNER	55.35	-114.98	19430601.0	19711130.0	
282	25124		WHITECOURT	54.13	-115.67	19420501.0	99991231.0	
283	25161		WHITECOURT AUT	54.15	-115.78	19780801.0	99991231.0	
284	25166		CALGARY SPRINGBANK I	51.1	-114.03	19841211.0	99991231.0	
285	25165		EDMONTON BILLENTUVE	53.67	-113.87	19841101.0	99991231.0	
286	94188		LETHBRIDGE	49.7	-112.78	19851015.0	99991231.0	
287	25168		SOUSA CREEK	58.58	-118.5	19901210.0	19950101.0	
288	25168		SOUSA CREEK	58.58	-118.5	19950101.0	99991231.0	
289	24288		ABBOTSFORD	49.02	-122.37	19440301.0	19950101.0	
290	24288		ABBOTSFORD	49.02	-122.37	19950101.0	99991231.0	
291	25212		ALERT BAY	50.58	-126.93	19390101.0	99991231.0	
292	94233		ALLISON PASS	49.13	-120.83	19580901.0	99991231.0	
293	25230		ALTA LAKE	50.15	-122.95	19501001.0	99991231.0	
294	94272		AMPHITRITE POINT	48.92	-125.55	10101.0	99991231.0	
295	25213		ASHCROFT	50.7	-121.32	19441001.0	19710331.0	
296	25351		ATLIN	59.58	-133.72	19340101.0	19460930.0	
297	25163		BANFF	51.2	-115.55	19810201.0	99991231.0	
298	25214		BEATTON RIVER	57.38	-121.38	19440201.0	19671031.0	
299	25240		BELLA BELLA	52.15	-128.08	19400101.0	19451231.0	
300	14628		BLISSVILLE	45.62	-66.55	19400101.0	19510430.0	
301	25149		BLUE RIVER	52.02	-119.07	19691201.0	99991231.0	
302	25162		BLUE RIVER AUT	52.12	-119.3	19790601.0	99991231.0	
303	25354		BONILLA ISLAND	53.5	-130.63	19650501.0	99991231.0	
304	94229		BOUNDARY BAY	49.0	-122.73	19421201.0	19450930.0	
305	25215		BULL HARBOUR	50.92	-127.95	19381201.0	99991231.0	
306	25252		BURNS LAKE	54.22	-125.77	19690201.0	19901201.0	
307	25201		CAMP BLUEBERRY	56.7	-121.75	19430701.0	19450831.0	
308	94241		CAMPBELL RIVER	49.95	-125.27	19670201.0	99991231.0	
309	94252		CAMPBELL RIVER AUT	49.95	-125.27	19790601.0	99991231.0	
310	24289		CAPE LAZO	49.7	-124.87	19351101.0	19620930.0	
311	25250		CAPE SCOTT	50.78	-128.42	19651201.0	99991231.0	
312	25342		CAPE ST JAMES	51.93	-131.02	19441201.0	99991231.0	
313	94109		CARMI	49.5	-119.08	19381201.0	19621231.0	
314	94110		CASTLEGAR	49.3	-117.63	19480101.0	99991231.0	
315	25244		CHATHAM POINT	50.33	-125.43	19580601.0	99991231.0	
316	24291		CHILLIWACK	49.17	-121.95	19490301.0	19491031.0	
317	25254		CLINTON	51.15	-121.05	19710101.0	99991231.0	
318	25245		COAL HARBOUR	50.43	-127.58	19420101.0	19450731.0	
319	25202		COAL RIVER	59.65	-127.07	19501001.0	19610731.0	
320	24292		COMOX	49.72	-124.9	19440101.0	19950101.0	
321	24292		COMOX	49.72	-124.9	19950101.0	99991231.0	
322	94112		CRANBROOK	49.53	-115.77	19371201.0	19680228.0	
323	94157		CRANBROOK	49.6	-115.78	19680301.0	99991231.0	
324	94113		CRESCENT VALLEY	49.45	-117.57	19390301.0	19651130.0	
325	25203		DAWSON CREEK	55.75	-120.25	19430501.0	19450831.0	
326	25238		DAWSON CREEK	55.78	-120.2	19571001.0	19640131.0	
327	25248		DAWSON CREEK	55.73	-120.18	19640101.0	99991231.0	
328	25352		DEADTREE POINT	53.37	-131.93	19390201.0	19481231.0	
329	25305		DEASE LAKE	58.42	-130.0	19440901.0	19451031.0	
330	94237		DEPARTURE BAY RS	49.23	-123.95	19591001.0	99991231.0	
331	25216		DOG CREEK	51.63	-122.25	19440201.0	19601130.0	
332	24293		ESTEVAN POINT	49.38	-126.53	19340101.0	99991231.0	
333	94250		ESTEVAN POINT	49.38	-126.55	19790201.0	99991231.0	
334	25239		ETHELDA BAY	53.05	-129.68	19571201.0	99991231.0	
335	94254		FATURNA ISLAND AUT	48.78	-123.05	10101.0	99991231.0	
336	25217		FINLAY FORKS	56.0	-123.82	19450501.0	19510731.0	
337	25210		FORT NELSON	58.83	-122.58	19420201.0	19450630.0	
338	25258		FORT SAINT JAMES AUT	54.42	-124.42	10101.0	99991231.0	
339	25211		FORT ST JOHN	56.3	-120.83	19420701.0	19440228.0	
340	25231		FORT ST JOHN	56.23	-120.73	19420101.0	99991231.0	
341	25218		FT NELSON MUSKWA	58.83	-122.58	19370901.0	99991231.0	
342	25232		GERMANSEN LANDING	55.78	-124.7	19510801.0	99991231.0	
343	25237		HOLBERG	50.65	-128.0	19560701.0	99991231.0	
344	24294		HOPE	49.38	-121.43	19361001.0	99991231.0	
345	94283		HOPE	49.37	-121.48	19890209.0	99991231.0	
346	94244		HOPE AUT	49.37	-121.48	19751101.0	99991231.0	
347	25241		HUDSON HOPE	56.03	-121.92	19350801.0	19440930.0	
348	25219		IVORY ISLAND	52.27	-128.4	19480801.0	19541231.0	
349	25220		KAMLOOPS	50.72	-120.42	19340101.0	99991231.0	
350	94151		KELOWNA	49.97	-119.38	19590201.0	99991231.0	
351	25234		KELSEY BAY	50.38	-125.95	19540201.0	19540930.0	
352	94114		KIMBERLEY	49.73	-115.78	19420901.0	19690831.0	
353	25356		KINDA RUN POINT	53.32	-132.77	10101.0	99991231.0	
354	25221		KLENA KLEENE	51.98	-124.65	19400401.0	19680531.0	
355	25343		LANGARA	54.25	-133.05	19360701.0	99991231.0	
356	25259		LAWN POINT AUT	50.33	-127.97	19800201.0	99991231.0	
357	94108		LETHBRIDGE	49.63	-112.8	19360901.0	99991231.0	
358	25253		LIARD RIVER	59.45	-126.15	19691001.0	99991231.0	
359	25242		LILLODET	50.68	-121.93	19420501.0	19441231.0	
360	25304		LOG CABIN	59.77	-134.98	19431201.0	19470131.0	
361	25222		LYTTON	50.23	-121.57	19440801.0	99991231.0	
362	25271		LYTTON	50.23	-121.58	19890209.0	99991231.0	
363	25255		MACKENZIE	55.3	-123.13	19710201.0	99991231.0	
364	25344		MASSET	54.0	-132.17	19441001.0	19490630.0	
365	25236		MCINNES ISLAND	52.27	-128.72	19540201.0	99991231.0	
366	25249		MCLEOD LAKE	55.03	-123.03	19650701.0	19710831.0	
367	24295		MERRY ISLAND	49.47	-123.9	19420601.0	99991231.0	
368	25306		MORLEY RIVER	59.5	-131.77	19450301.0	19460831.0	
369	94160		MOUNT KOBAU OBSERVAT	49.12	-119.68	19660501.0	99991231.0	
370	25204		MUNCHO LAKE	58.92	-125.77	19430901.0	19450831.0	
371	24290		NANAIMO	49.05	-123.87	19470101.0	99991231.0	
372	94149		NELSON	49.48	-117.28	19340101.0	19511231.0	
373	25228		NELSON FORKS	59.5	-124.0	19450301.0	19450630.0	
374	25233		NEW HAZELTON	55.23	-127.6	19720201.0	99991231.0	
375	94115		OLD GLORY MOUNTAIN	49.15	-117.92	19440901.0	19680430.0	
376	15045		OSV P 17	50.0	-145.0	19501201.0	99991231.0	
377	24296		PACHENA POINT	48.72	-125.1	19390301.0	19590228.0	
378	24297		PATRICIA BAY	48.65	-123.43	19400701.0	19950101.0	
379	24297		PATRICIA BAY	48.65	-123.43	19950101.0	99991231.0	
380	94116		PENTICTON	49.47	-119.6	19410401.0	99991231.0	
381	94235		PITT MEADOWS	49.3	-122.68	19590901.0	19600831.0	
382	24298		PORT ALBERNI	49.25	-124.8	19470501.0	19691031.0	
383	94243		PORT ALBERNI	49.25	-124.83	19691101.0	99991231.0	
384	94260		PORT ALBERNI AUT	49.25	-124.83	10101.0	99991231.0	
385	25223		PORT HARDY	50.68	-127.37	19420701.0	99991231.0	
386	25206		PRINCE GEORGE	53.88	-122.68	19340101.0	99991231.0	
387	25345		PRINCE RUPERT	54.28	-130.38	19630101.0	99991231.0	
388	25353		PRINCE RUPERT	54.3	-130.43	19410101.0	19630131.0	
389	24299		PRINCETON	49.47	-120.52	19361101.0	99991231.0	
390	25246		PUNTZI MOUNTAIN	52.17	-124.2	19591001.0	19660930.0	
391	25251		PUNTZI MOUNTAIN	52.12	-124.08	19680501.0	99991231.0	
392	25256		PUNTZI MOUNTAIN AUT	52.12	-124.08	19680501.0	99991231.0	
393	25224		QUESNEL	53.03	-122.52	19451201.0	99991231.0	
394	25120		REVELSTOKE	51.0	-118.2	19400101.0	19691130.0	
395	25150		REVELSTOKE	50.97	-118.18	19691201.0	99991231.0	
396	25167		REVELSTOKE	50.97	-118.18	19890209.0	99991231.0	
397	25355		ROSE SPIT AUT	54.2	-131.65	19710701.0	99991231.0	
398	25346		SANDSPIT	53.25	-131.82	19450901.0	99991231.0	
399	25349		SEAL COVE	54.33	-130.28	19480801.0	19591130.0	
400	94245		SHERINGHAM POINT AUT	48.38	-123.92	19720601.0	99991231.0	
401	25226		SMITH RIVER	59.9	-126.43	19440401.0	19691031.0	
402	25225		SMITHERS	54.82	-127.18	19420601.0	99991231.0	
403	94166		SPARWOOD	49.75	-114.88	10101.0	99991231.0	
404	25227		SPRING ISLAND	50.0	-127.42	19491101.0	99991231.0	
405	25257		STEWART AUT	55.93	-129.98	19741201.0	99991231.0	
406	94152		SUMMERLAND RS	49.57	-119.65	19591001.0	99991231.0	
407	25205		SUMMIT LAKE	58.65	-124.63	19440201.0	19650630.0	
408	25209		TAKLA LANDING	55.47	-125.95	19441001.0	19450731.0	
409	25350		TELEGRAPH CREEK	57.9	-131.15	19420701.0	19551231.0	
410	25229		TERRACE	54.47	-128.58	19440201.0	99991231.0	
411	94231		TOFINO	49.08	-125.78	19430301.0	19461031.0	
412	94234		TOFINO	49.08	-125.77	19581101.0	99991231.0	
413	25347		TRIPLE ISLAND	54.3	-130.88	19460901.0	99991231.0	
414	25207		TROUT LIARD	59.38	-126.12	19430601.0	19450831.0	
415	25208		TRUTCH	57.75	-122.9	19430701.0	19450131.0	
416	94232		UCLUELET	48.93	-125.52	19401001.0	19440930.0	
417	24287		VANCOUVER	49.18	-123.17	19220301.0	19950101.0	
418	24287		VANCOUVER	49.18	-123.17	19950101.0	99991231.0	
419	94246		VANCOUVER HARBOUR	49.3	-123.12	19600601.0	99991231.0	
420	94230		VANCOUVER JERICHO BE	49.3	-123.2	19420101.0	19450930.0	
421	94238		VANCOUVER UNIV OF BC	49.27	-123.25	19591001.0	19591231.0	
422	25243		VANDERHOOF	54.07	-124.02	19440701.0	19460630.0	
423	25134		VERNON	50.25	-119.33	19340101.0	19541231.0	
424	25152		VERNON BRIDGE	50.23	-119.28	19711001.0	99991231.0	
425	94247		VICTORIA GON	48.42	-123.32	19710101.0	99991231.0	
426	94201		VICTORIA GONZALES HE	48.42	-123.32	19340101.0	99991231.0	
427	94242		VICTORIA MARINE RADI	48.37	-123.75	19671101.0	99991231.0	
428	94226		WESTVIEW	49.82	-124.5	19540101.0	99991231.0	
429	25235		WILLIAMS LAKE	52.15	-122.13	19390101.0	19601231.0	
430	25247		WILLIAMS LAKE	52.18	-122.05	19601201.0	99991231.0	
431	25269		PINK MOUNTAIN FIGURE 2	57.03	-122.52	19860915.0	99991231.0	
432	25275			50.13	-122.95	20020705.0	99991231.0	
433	25366	71484.0	BONNILLA ISLAND	53.5	-130.63	19850507.0	99991231.0	
434	25272	71952.0	BURNS LAKE AP	54.38	-125.95	19901201.0	99991231.0	
435	25266	71482.0	CATHEDRAL POINT	52.18	-127.47	19850329.0	99991231.0	
436	25365		GREY ISLET	54.58	-130.7	19841001.0	99991231.0	
437	25267	71481.0	HELMCKEN	50.4	-125.87	19860507.0	19950101.0	
438	25267	71481.0	HELMCKEN	50.4	-125.87	19950101.0	99991231.0	
439	25264	71485.0	HERBERT ISLAND	50.93	-127.63	19841026.0	99991231.0	
440	25169		NAKUSP CS	50.27	-117.82	19901224.0	99991231.0	
441	25268	46182.0	NANAKWA SHOALS	53.82	-128.83	19860528.0	99991231.0	
442	25270		PEMBERTON ARPT	50.3	-122.73	19880501.0	99991231.0	
443	25364	71477.0	ROSE SPIT AUTOMATIC	54.18	-131.65	19841001.0	99991231.0	
444	25263	71478.0	SARTINE ISLAND AUTO	50.82	-129.9	19841001.0	99991231.0	
445	25265		SOLANDER ISLAND	50.12	-127.93	19841124.0	99991231.0	
446	15916		BEAUSEJOUR	50.15	-96.22	19591101.0	99991231.0	
447	15912		BIRD	56.5	-94.2	19571001.0	19640131.0	
448	15920		BISSETT	51.03	-95.67	19681101.0	19701031.0	
449	14997		BRANDON	49.92	-99.95	19410701.0	99991231.0	
450	25007		BROCHET	57.88	-101.67	19450601.0	99991231.0	
451	94921		CAMP SHILO	49.82	-99.65	19540701.0	99991231.0	
452	94924		CARBERRY	49.87	-99.35	19420401.0	19440930.0	
453	15901		CHURCHILL	58.75	-94.07	19340101.0	19480331.0	
454	25024		CRANBERRY PORTAGE	54.62	-101.35	19571001.0	19640131.0	
455	15902		DUCK LAKE	59.37	-97.38	19430401.0	19450731.0	
456	25001		FLIN FLON	54.68	-101.68	19481201.0	99991231.0	
457	15903		GILLAM	56.35	-94.7	19430101.0	19450831.0	
458	15905		GIMLI	50.63	-97.05	19431001.0	99991231.0	
459	15922		GIMLI	50.62	-96.98	19711201.0	99991231.0	
460	15913		GODS LAKE	54.67	-94.13	19361001.0	19440331.0	
461	15917		GRAND RAPIDS	53.18	-99.27	19651201.0	99991231.0	
462	15927		GRAND RAPIDS	53.18	-99.27	19801001.0	99991231.0	
463	94920		GRETNA	49.03	-97.57	19550801.0	99991231.0	
464	15918		GYPSUMVILLE	51.67	-98.73	19660101.0	99991231.0	
465	15923		HECLE ISLAND AUT	51.17	-96.63	19750401.0	99991231.0	
466	15911		HODGSON	51.22	-97.57	19600901.0	19670331.0	
467	15921		ISLAND LAKE	53.87	-94.67	19701201.0	99991231.0	
468	15926		ISLAND LAKE AUT	53.87	-94.67	19780101.0	99991231.0	
469	15910		MACDONALD	50.08	-98.45	19510701.0	19590531.0	
470	15914		MINNEDOSA	50.25	-99.83	19340101.0	19511031.0	
471	15906		NEEPAWA	50.23	-99.5	19451001.0	19621130.0	
472	15915		NORWAY HOUSE	53.97	-97.78	19340101.0	19460228.0	
473	15924		NORWAY HOUSE AUT	53.97	-97.83	19730301.0	99991231.0	
474	25009		PAULSON	51.1	-100.05	19400101.0	99991231.0	
475	94912		PORTAGE LA PRAIRIE	49.9	-98.27	19410701.0	99991231.0	
476	25014		RIVERS	50.02	-100.32	19380701.0	19701031.0	
477	94009		SOURIS	49.63	-100.2	19400101.0	19450831.0	
478	15925		ST ANDREWS AUT	50.05	-97.03	19760301.0	99991231.0	
479	25004		THE PAS	53.97	-101.1	19340101.0	19450930.0	
480	15919		THOMPSON	55.8	-97.87	19670401.0	99991231.0	
481	15904		WABOWDEN	54.92	-98.63	19430301.0	19710831.0	
482	14996		WINNIPEG	49.9	-97.23	19340101.0	19950101.0	
483	14996		WINNIPEG	49.9	-97.23	19950101.0	99991231.0	
484	94916		WINNIPEG	49.9	-97.23	19340101.0	19380731.0	
485	15929	71859.0	BERENS RIVER	52.35	-97.03	19850401.0	99991231.0	
486	15930	71442.0	FISHER BRANCH	51.08	-97.55	19850927.0	99991231.0	
487	15928	71445.0	GEORGE ISLAND AUTO	52.8	-97.62	19840824.0	99991231.0	
488	94923		PILOT MOUND	49.2	-98.88	19571201.0	19860930.0	
489	94923	71148.0	PILOT MOUND	49.2	-98.9	19860930.0	19950101.0	
490	94923	71148.0	PILOT MOUND	49.2	-98.9	19950101.0	99991231.0	
491	25048	71443.0	SWAN RIVER	52.12	-101.23	19871001.0	99991231.0	
492	14629		CAMBELLTON	48.0	-66.68	19400101.0	19661130.0	
493	14683		CHARLO	48.0	-66.33	19661201.0	99991231.0	
494	14631		CHATHAM	47.02	-65.45	19340101.0	19950101.0	
495	14631		CHATHAM	47.02	-65.45	19950101.0	99991231.0	
496	14648		FREDERICTON	45.87	-66.53	19510401.0	19950101.0	
497	14648		FREDERICTON	45.87	-66.53	19950101.0	99991231.0	
498	14670		FREDERICTON EXP FARM	45.92	-66.62	19591001.0	19610630.0	
499	14666		FREDERICTON UNIVERSI	45.97	-66.62	19360801.0	19520930.0	
500	14685		GAGETOWN CAMP U	45.85	-66.45	19710101.0	99991231.0	
501	14661		KEDGWICK	47.63	-67.33	19360801.0	19430430.0	
502	14655		LOCH LOMOND	45.32	-65.88	19470101.0	19500331.0	
503	14678		MISCOU ISLAND	48.02	-64.5	19640801.0	99991231.0	
504	14625		MONCTON	46.12	-64.68	19391101.0	19950101.0	
505	14625		MONCTON	46.12	-64.68	19950101.0	99991231.0	
506	14641		PENNFIELD RIDGE	45.13	-66.68	19410901.0	19511231.0	
507	14662		SHEDIAC	46.22	-64.53	19380701.0	19451031.0	
508	14643		ST JOHN	45.32	-65.88	19340101.0	99991231.0	
509	14664		ST STEPHEN	45.2	-67.27	19471101.0	19490430.0	
510	14690		ST STEPHEN AUT	45.2	-67.25	19761201.0	99991231.0	
511	94617	71414.0	POINT ESCUMINAZ	47.07	-64.8	19850825.0	99991231.0	
512	94609	71703.0	ST LEONARD AP	49.15	-67.83	19850319.0	99991231.0	
513	14508		ARGENTIA	47.3	-54.0	19450301.0	19700531.0	
514	15608		ASHUANIPI	52.53	-66.23	19481001.0	19501231.0	
515	14532		BADGER	49.0	-56.0	19710601.0	99991231.0	
516	15507		BATTLE HARBOUR LORAN	52.25	-55.6	19571001.0	19831017.0	
517	14524		BAY ESPOIR ST ALB	47.97	-55.85	19660101.0	19681031.0	
518	15502		BELLE ISLE	51.88	-55.38	19300101.0	19701031.0	
519	14522		BONAVISTA	48.7	-53.08	19561101.0	99991231.0	
520	14510		BOTWOOD	49.15	-55.35	19370801.0	19501130.0	
521	14511		BUCHANS	48.85	-56.83	19431101.0	19650731.0	
522	14527		BURGEO	47.62	-57.62	19661101.0	99991231.0	
523	15501		CAPE HARRISON	54.77	-58.45	19431101.0	19620831.0	
524	14512		CAPE RACE	46.65	-53.07	19690101.0	19700131.0	
525	15503		CARTWRIGHT	53.7	-57.03	19341101.0	99991231.0	
526	15635		CHURCHILL FALLS	53.55	-64.1	19681101.0	99991231.0	
527	14528		COMFORT COVE	49.27	-54.88	19670101.0	99991231.0	
528	15504		DANIELS HARBOUR	50.23	-57.58	19461101.0	99991231.0	
529	14523		DEER LAKE	49.18	-57.47	19650701.0	99991231.0	
530	14536	71403.0	DEVILS HEAD	49.12	-58.42	19850115.0	19860424.0	
531	15515		FEROLLE POINT	51.02	-57.1	19850823.0	99991231.0	
532	14513		FOGO	49.88	-54.28	19341101.0	19500630.0	
533	14501		GANDER	48.95	-54.57	19410601.0	19460831.0	
534	14509		GANDER	48.95	-54.57	19370101.0	19950101.0	
535	14509		GANDER	48.95	-54.57	19950101.0	99991231.0	
536	15601		GOOSE BAY	53.32	-60.42	19430101.0	19451031.0	
537	15607		GOOSE LABRADOS	53.32	-60.42	19411201.0	19501231.0	
538	15615		GRACE LAKE MILE 163	52.27	-65.68	19520701.0	19530531.0	
539	14514		GRAND BANK	47.1	-55.75	19341001.0	19660228.0	
540	14537	71402.0	GWILLINGATE	49.67	-54.78	19850115.0	99991231.0	
541	14503		HARMON	48.53	-58.55	19411001.0	19660630.0	
542	15602		HEBRON	58.2	-62.63	19431101.0	19460131.0	
543	15602		HEBRON	58.22	-62.58	19470801.0	19570731.0	
544	15610		HOPEDALE	55.45	-60.23	19420101.0	19840828.0	
545	14535		KELLIGREWS	47.5	-53.2	19841224.0	99991231.0	
546	14534	71806.0	LA SCIE	49.92	-55.67	19840101.0	99991231.0	
547	15517		MAKKOVIK AP	55.08	-59.18	19851209.0	99991231.0	
548	15514		MARYS HARBOR	52.3	-55.83	19831017.0	99991231.0	
549	15518		MARYS HARBOR AUTO	52.3	-55.83	19881031.0	99991231.0	
550	15616		MENIHEK RAPIDS	54.45	-66.6	19520401.0	19530131.0	
551	14519		MILLERTOWN	48.82	-56.53	19350101.0	19460731.0	
552	14502		MIQUELON ISLAND	46.77	-56.17	19390501.0	19400831.0	
553	15626		NAIN	56.55	-61.68	19470101.0	19471231.0	
554	15624		NORTHWEST RIVER	53.53	-60.15	19340901.0	19420630.0	
555	14505		PEPPERRELL	47.58	-52.7	19411001.0	19520731.0	
556	14530		PLACENTIA	47.23	-54.02	19701101.0	99991231.0	
557	14526		PORT AUX BASQUES	47.57	-59.17	19660601.0	99991231.0	
558	15508		QUIRPON ISLAND	51.65	-55.45	19430801.0	19441031.0	
559	15618		ROSS BAY	52.98	-66.23	19530601.0	19541231.0	
560	15620		SAGLEK	58.48	-62.65	19550101.0	19601231.0	
561	15644	71804.0	SAGLEK 2	58.48	-62.58	19890101.0	99991231.0	
562	15643		SAGLEK AIRPORT	58.47	-62.65	19890101.0	99991231.0	
563	14538	71408.0	SAGONA	47.37	-55.8	19850620.0	99991231.0	
564	15625		SANDGIRT LAKE	53.83	-65.33	19420401.0	19480831.0	
565	14529		ST ALBANS	47.85	-55.87	19681101.0	99991231.0	
566	14515		ST ANDREWS	47.77	-59.33	19431101.0	19650531.0	
567	15506		ST ANTHONY	51.37	-55.58	19450901.0	19660131.0	
568	15509		ST ANTHONY	51.48	-55.82	19660101.0	19700831.0	
569	15512		ST ANTHONY	51.37	-55.63	19700901.0	99991231.0	
570	14520		ST GEORGES	48.43	-58.5	19341101.0	19441231.0	
571	14517		ST JOHNS	47.58	-52.7	19341101.0	19541231.0	
572	14521		ST JOHNS WEST	47.52	-52.78	19591001.0	99991231.0	
573	15510		ST LAWRENCE	46.88	-55.42	19660201.0	99991231.0	
574	14518		ST PIERRE ISLAND	46.78	-56.18	10101.0	99991231.0	
575	14506		TORBAY	47.62	-52.75	19420101.0	19430201.0	
576	14506		TORBAY	47.63	-52.7	19430201.0	19430228.0	
577	14531		TORBAY	47.67	-52.75	19710401.0	99991231.0	
578	14525		TREPASSEY	46.73	-53.17	19660101.0	19660228.0	
579	14516		TWILLINGATE	49.68	-54.82	19540101.0	19670131.0	
580	15634		TWIN FALLS	53.63	-64.48	19671001.0	19681031.0	
581	15628		WABUSH LAKE	52.93	-66.88	19601101.0	99991231.0	
582	14507		WESLEYVILLE	49.15	-53.58	19431101.0	19451130.0	
583	15520		ALEXIS RIVER	52.65	-56.87	19901116.0	99991231.0	
584	14533		ARGENTIA AUTO	47.3	-54.0	19760101.0	19870114.0	
585	14533	71807.0	ARGENTIA AUTO	47.3	-54.0	19870114.0	99991231.0	
586	15519		ENGLEE	50.72	-56.12	19890607.0	99991231.0	
587	15642	71900.0	HOPEDALE AUTO	55.45	-60.23	19861024.0	99991231.0	
588	15516	71405.0	MAKKOVIK	55.08	-59.17	19851125.0	19861020.0	
589	15626	71902.0	NAIN AP	56.55	-61.68	19840828.0	99991231.0	
590	14691		AMHERST AUT	45.85	-64.27	19760501.0	99991231.0	
591	14638		BIG FALLS	44.05	-64.72	19400101.0	19590831.0	
592	14677		CANSO	45.32	-60.97	19631201.0	19711231.0	
593	14667		CAPE NORTH	47.02	-60.45	19580901.0	19590430.0	
594	14632		COPPER LAKE	45.38	-61.97	19450901.0	99991231.0	
595	14634		DEBERT	45.42	-63.45	19420101.0	19600930.0	
596	14676		DEMING	45.22	-61.18	19610401.0	19631231.0	
597	14635		ECUM SECUM	44.97	-62.13	19400701.0	19610430.0	
598	14686		EDDY POINT	43.52	-61.25	19711201.0	99991231.0	
599	14636		GREENWOOD	44.98	-64.92	19420101.0	19950101.0	
600	14636		GREENWOOD	44.98	-64.92	19950101.0	99991231.0	
601	14673		HALIFAX	44.88	-63.52	19600601.0	19950101.0	
602	14673		HALIFAX	44.88	-63.52	19950101.0	99991231.0	
603	14624		HALIFAX ATL WEA CEN	44.65	-63.57	19340101.0	19641231.0	
604	14679		HALIFAX CITADEL	44.65	-63.58	19640201.0	99991231.0	
605	14671		HALIFAX DALHOUSIE UN	44.63	-63.57	19591001.0	19591031.0	
606	14651		HALIFAX MARITIME GR	44.63	-63.57	19390901.0	19631031.0	
607	14669		HARTLEN POINT	44.58	-63.47	19591001.0	19630228.0	
608	14687		INVERNESS AMOS	46.23	-61.3	19711201.0	99991231.0	
609	14692		INVERNESS AUT	46.23	-61.3	19711201.0	99991231.0	
610	14650		KELLY LAKE	44.87	-63.55	19530101.0	19540228.0	
611	14672		KENTVILLE RADAR STAT	45.07	-64.48	19591001.0	19601231.0	
612	14649		LUCASVILLE	44.75	-63.73	19511101.0	19540228.0	
613	14652		LURCHER LIGHTSHIP	43.82	-66.53	10101.0	19691031.0	
614	14640		NEW GLASGOW	45.62	-62.62	19450701.0	19501231.0	
615	14694		PORT HASTINGS CANAL	45.65	-61.42	19740701.0	99991231.0	
616	14642		SABLE ISLAND	43.93	-60.02	19340101.0	99991231.0	
617	14653		SAMBRO LIGHTSHIP	44.37	-63.43	10101.0	99991231.0	
618	14633		SHEARWATER	44.63	-63.5	19380901.0	19950101.0	
619	14633		SHEARWATER	44.63	-63.5	19950101.0	99991231.0	
620	14693		SHELBURNE	43.72	-65.25	19721101.0	99991231.0	
621	14644		ST PAUL ISLAND	47.2	-60.15	19340101.0	19560731.0	
622	14646		SYDNEY	46.17	-60.05	19340101.0	19950101.0	
623	14646		SYDNEY	46.17	-60.05	19950101.0	99991231.0	
624	14675		TRURO	45.37	-63.27	19601001.0	19870101.0	
625	14675		TRURO	45.37	-63.27	19870101.0	99991231.0	
626	14668		WESTERN HEAD	43.98	-64.67	19590801.0	99991231.0	
627	14663		WOLFVILLE	45.08	-64.37	19340101.0	19490930.0	
628	14647		YARMOUTH	43.83	-66.08	19340101.0	99991231.0	
629	94619		BEAVER ISLAND AUTO	44.82	-62.33	19860424.0	99991231.0	
630	94611	71415.0	CARIBOU POINT	45.77	-62.68	19850515.0	99991231.0	
631	94618	71416.0	FOURCHU HEAD	45.72	-60.23	19860714.0	99991231.0	
632	94610	71419.0	HART ISLAND	45.35	-60.98	19850503.0	99991231.0	
633	94608		MCNABS ISLAND	44.6	-63.53	19841218.0	99991231.0	
634	94616		ST PAUL ISLAND	47.23	-60.13	19851120.0	99991231.0	
635	94621	71398.0	TRURO AUTO	45.37	-63.22	19770401.0	99991231.0	
636	94620	71603.0	YARMOUTH	43.87	-66.1	19880901.0	99991231.0	
637	26317		AKLAVIK	68.23	-135.0	19340101.0	19601130.0	
638	18601		ALERT	82.5	-62.33	19500601.0	99991231.0	
639	18605		ALERT AIR SAMPLE STN	82.45	-62.52	19850610.0	99991231.0	
640	17801		ARCTIC BAY	73.0	-85.28	19430401.0	19440831.0	
641	17802		ARCTIC BAY	73.0	-85.3	19370901.0	19471231.0	
642	16903		BAKER LAKE	64.3	-96.0	19460201.0	19471231.0	
643	16910		BAKER LAKE	64.3	-96.0	19801001.0	99991231.0	
644	26004		BATHURST INLET	66.85	-108.02	19560901.0	19620930.0	
645	16609		BREVOORT ISLAND	63.35	-64.17	19591101.0	99991231.0	
646	16608		BROUGHTON ISLAND	67.55	-64.05	19560501.0	99991231.0	
647	26001		CAMBRIDGE BAY	69.12	-105.02	19350101.0	19601031.0	
648	26005		CAMBRIDGE BAY	69.1	-105.13	19601001.0	99991231.0	
649	16705		CAPE DORSET	64.22	-76.53	19700901.0	99991231.0	
650	16607		CAPE DYER	66.58	-61.62	19590801.0	99991231.0	
651	16696		CAPE DYER	66.58	-61.62	19551201.0	19590831.0	
652	17703		CAPE HERSCHEL	78.62	-74.7	19730601.0	19740930.0	
653	16692		CAPE HOOPER	68.43	-66.78	19560301.0	99991231.0	
654	27202		CAPE PARRY	70.17	-124.68	19590901.0	99991231.0	
655	27291		CAPE PARRY	70.17	-124.68	19550801.0	19590930.0	
656	16610		CAPE WARWICK RES I	61.58	-64.65	19620301.0	99991231.0	
657	26114		CAPE YOUNG PIN 2	68.93	-116.92	19660401.0	19670831.0	
658	16904		CHESTERFIELD	63.33	-90.72	19211101.0	19471231.0	
659	26294		CLINTON POINT	69.58	-120.75	19570601.0	99991231.0	
660	17601		CLYDE	70.45	-68.55	19330901.0	19480831.0	
661	26112		CONTWOYTO LAKE	65.48	-110.37	19560701.0	99991231.0	
662	26107		COPPERMINE	67.82	-115.08	19340101.0	19471231.0	
663	26115		COPPERMINE AP	67.82	-115.15	19780101.0	99991231.0	
664	16801		CORAL HARBOUR	64.2	-83.37	19430301.0	19471231.0	
665	17704		CORURG ISLAND	75.9	-79.03	19720701.0	19740930.0	
666	17805		DEVON ISLAND	74.67	-84.67	19610901.0	19620831.0	
667	16795		DEWAR LAKE	68.65	-71.17	19560601.0	99991231.0	
668	27003		DRAKE EAST	76.42	-107.82	19741101.0	19750430.0	
669	17803		DUNDAS HARBOUR	74.5	-82.5	19451001.0	19500831.0	
670	16612		DURBAN ISLAND FOX E	67.1	-62.17	19630301.0	19630331.0	
671	26002		ENNADAI LAKE	61.13	-100.92	19490101.0	99991231.0	
672	26007		ENNADAI LAKE AUT	61.13	-100.9	10101.0	99991231.0	
673	16901		ESKIMO POINT	61.07	-94.05	19430301.0	19450731.0	
674	18801		EUREKA	80.22	-86.18	19470601.0	19601231.0	
675	16905		FERGUSON LAKE	62.87	-96.82	19450401.0	19450930.0	
676	16793		FOLEY	68.95	-75.3	19560401.0	99991231.0	
677	26210		FORT GOOD HOPE	61.75	-121.23	19631001.0	99991231.0	
678	26213		FORT LIARD	60.23	-123.47	19730701.0	99991231.0	
679	26206		FORT NORMAN	64.9	-125.5	19340101.0	19510131.0	
680	26003		FORT RELIANCE	62.72	-109.1	19481001.0	99991231.0	
681	26101		FORT RESOLUTION	61.17	-113.68	19340101.0	19471231.0	
682	17902		FORT ROSS	71.92	-94.25	19380901.0	19480331.0	
683	26203		FORT SIMPSON	61.87	-121.35	19340101.0	19631031.0	
684	26102		FORT SMITH	60.02	-111.97	19340101.0	19471231.0	
685	26118		FORT SMITH U-A	60.03	-111.93	19780101.0	99991231.0	
686	26201		FORT WRIGLEY	63.2	-123.33	19430601.0	19441130.0	
687	26207		FT GOOD HOPE	66.25	-128.63	19340101.0	19541231.0	
688	26211		FT GOOD HOPE	66.27	-128.65	19650601.0	99991231.0	
689	26104		FT PROVIDENCE	61.33	-117.67	19430301.0	19620831.0	
690	16992		GLADMAN POINT	68.67	-97.8	19570601.0	99991231.0	
691	16895		HALL BEACH	68.78	-81.25	19570701.0	99991231.0	
692	26103		HAY RIVER	60.85	-115.77	19340101.0	19451031.0	
693	27102		HOLMAN ISLAND	70.5	-117.63	19391101.0	19471231.0	
694	15809		HUDSON BAY SITE 1	58.5	-87.17	19740901.0	19740930.0	
695	15810		HUDSON BAY SITE 2	58.5	-86.78	19740901.0	19741031.0	
696	15811		HUDSON BAY SITE 3	58.02	-84.3	19740801.0	19740930.0	
697	17904		ICE CAP	79.97	-99.15	19680601.0	19690630.0	
698	26108		INDIN LAKE	64.27	-115.22	19480301.0	19500731.0	
699	26323		INUVIK	68.3	-133.48	19550101.0	99991231.0	
700	26332		INUVIK UA	68.32	-133.53	19730301.0	99991231.0	
701	27001		ISACHSEN	78.78	-103.53	19480501.0	19481231.0	
702	26095		JENNY LIND ISLAND	68.65	-101.73	19551001.0	99991231.0	
703	26006		JENNY LIND ISLAND CA	68.67	-101.72	19660401.0	19670831.0	
704	17101		JOHNSON POINT	72.77	-118.5	19720501.0	99991231.0	
705	27103		JOHNSON POINT AUT	72.77	-118.5	19720401.0	19760430.0	
706	26315		KITTIGAZUIT	69.25	-134.0	19480501.0	19480901.0	
707	26315		KITTIGAZUIT	69.28	-133.93	19480901.0	19500331.0	
708	16611		KIVITOO FOX D	67.95	-64.87	19630301.0	19630331.0	
709	26113		LADY FRANKLIN POINT	68.47	-113.22	19660401.0	19670831.0	
710	26194		LADY FRANKLIN POINT	68.5	-113.22	19551001.0	99991231.0	
711	16601		LAKE HARBOUR	62.83	-69.9	19340101.0	19460630.0	
712	18701		LAKE HAZEN	81.82	-71.3	19570801.0	19580831.0	
713	26541		LUPIN AUT	65.77	-111.23	10101.0	99991231.0	
714	16893		MACKAR INLET	68.3	-85.68	19580801.0	99991231.0	
715	27104		MALLUCH DOME	78.22	-101.05	10101.0	99991231.0	
716	17903		MEIGHEN ISLAND NORTH	72.97	-99.13	19680601.0	19680831.0	
717	18901		MEIGHEN ISLAND NORTH	80.03	-99.03	19700601.0	19700831.0	
718	17905		MEIGHEN ISLAND WEST	79.97	-99.5	19690601.0	19690831.0	
719	26105		MILLS LAKE	61.25	-118.63	19440101.0	19440831.0	
720	27101		MOULD BAY	76.23	-119.33	19480501.0	19531231.0	
721	27106		MOULD BAY AIR SAMPLE	76.25	-119.35	19830405.0	99991231.0	
722	17806		NANIEIVIK	72.97	-84.38	19761101.0	99991231.0	
723	26212		NICHOLSON PENINSULA	69.92	-128.97	19660401.0	19670831.0	
724	26291		NICHOLSON PENINSULA	69.95	-128.92	19550801.0	99991231.0	
725	26202	71043.0	NORMAN WELLS	65.28	-126.8	19430401.0	19471231.0	
726	16701		NOTTINGHAM ISLAND	63.12	-77.93	19340101.0	19700831.0	
727	16907		NUELTIN LAKE	60.5	-99.0	19390901.0	19410831.0	
728	16602		PADLOPING ISLAND	67.1	-62.35	19411101.0	19561231.0	
729	16615		PADLOPING ISLAND SIT	67.1	-62.15	19551201.0	19580228.0	
730	16606		PANGNIRTUNG	66.13	-65.75	19340101.0	19500731.0	
731	16891		PELLY BAY	68.43	-89.65	19550601.0	99991231.0	
732	17701		POND INLET	72.72	-77.5	19340101.0	19541231.0	
733	17702		POND INLET AUT	72.67	-78.0	19741201.0	99991231.0	
734	16613		PORT BURWELL	60.42	-64.85	19750901.0	99991231.0	
735	26109		PORT RADIUM	66.08	-118.03	19371201.0	19610131.0	
736	26116		PORT RADIUM AUT	66.08	-117.93	19751101.0	99991231.0	
737	16909		RANKIN INLETS ARPT	62.82	-92.12	10101.0	99991231.0	
738	27002		REA POINT	75.37	-105.7	19690601.0	19710331.0	
739	17901		RESOLUTE	74.72	-94.98	19471001.0	19480831.0	
740	16702		ROWLEY ISLAND	69.08	-79.03	19570401.0	19710131.0	
741	27201		SACHS HARBOUR	71.95	-124.73	19551101.0	99991231.0	
742	26106		SAWMILL BAY	65.73	-118.92	19480201.0	19490930.0	
743	16994		SHEPHERD BAY	68.82	-93.42	19550801.0	19591231.0	
744	16908		SHEPHERD BAY CAM-3	68.8	-93.43	19660401.0	19670831.0	
745	17804		SHERWOOD HEAD	78.2	-89.72	19610801.0	19650930.0	
746	26111		SNARE RIVER	63.5	-116.0	19470601.0	99991231.0	
747	26117		SNOWDRIFT	62.4	-110.73	19720901.0	19740831.0	
748	16906		SPENCE BAY	69.52	-93.45	19510801.0	99991231.0	
749	16902		TAVANI	62.03	-93.07	19430501.0	19430831.0	
750	26008		THELON AUT	65.1	-102.43	10101.0	99991231.0	
751	26204		TROUT LAKE	60.27	-121.8	19440401.0	19451031.0	
752	26327		TUKTOYAKTUK	69.43	-133.03	19700901.0	19700930.0	
753	26394		TUKTOYAKTUK	69.45	-133.0	19570601.0	99991231.0	
754	26091		UNNAMED POINT	68.75	-109.07	19550801.0	99991231.0	
755	16603		UPPER FROBISHER BAY	63.75	-68.55	19420501.0	19500831.0	
756	16605		WARWICK	61.3	-64.88	19291001.0	19621031.0	
757	26208		WRIGLEY	63.2	-123.42	19430801.0	19470930.0	
758	26110		YELLOWKNIFE	62.47	-114.45	19420701.0	19471231.0	
759	26192		YOUNG POINT	68.93	-116.93	19550801.0	19570731.0	
760	16618		BREVOORT ISLAND	63.33	-64.15	19890101.0	99991231.0	
761	16619	71097.0	BREVOORT ISLAND (2)	63.33	-64.15	19890101.0	99991231.0	
762	17807		GRISE SIORD	76.42	-82.95	19841007.0	99991231.0	
763	16803		IGLOOLIK AP	69.37	-81.82	19841001.0	99991231.0	
764	16616	71098.0	KILLIMEK	60.42	-64.85	19850825.0	99991231.0	
765	16914		CHESTERFIELD	63.33	-90.72	19840901.0	19850107.0	
766	16915		CHESTERFIELD INLET A	63.33	-90.72	19850107.0	99991231.0	
767	16912		ESKIMO POINT AP	61.1	-94.07	19840725.0	99991231.0	
768	16911		GJOA HAVEN AP	68.63	-95.85	19840824.0	99991231.0	
769	16802		REPULSE BAY AP	66.53	-86.25	19840823.0	99991231.0	
770	16913		WHALE COVE	62.15	-92.58	19840730.0	99991231.0	
771	26121		CAMSELL RIVER AUT	65.62	-118.13	19840501.0	99991231.0	
772	27204	71503.0	CAPE BATHURST	70.55	-127.95	19860802.0	99991231.0	
773	26215		FORD LIARD AUTO	60.23	-123.47	19900124.0	99991231.0	
774	26009		FORT RELIANCE	62.72	-109.17	19910110.0	99991231.0	
775	27004	71074.0	ISACHSEN AUTO	78.78	-103.55	19890701.0	99991231.0	
776	26214		NORMAN WELLS	65.28	-126.75	19841016.0	99991231.0	
777	26336	71502.0	PELLY ISLAND	69.63	-135.43	19861003.0	99991231.0	
778	27205	71051.0	SACHS HARBOUR AUTO	72.0	-125.27	19860909.0	99991231.0	
779	26339			68.75	-133.65	20020705.0	99991231.0	
780	16617		IQALUIT ARPT	63.75	-68.55	19870101.0	99991231.0	
781	15801		ARMSTRONG	50.28	-88.9	19380801.0	99991231.0	
782	94932		ATIKOKAN	48.75	-91.6	19660601.0	99991231.0	
783	54732		BARRIE	44.38	-79.78	19801001.0	99991231.0	
784	4792		BORDEN	44.27	-79.93	19660901.0	19700531.0	
785	94844		BRANTFORD	43.13	-80.27	19420101.0	19431231.0	
786	94873		BRITT AUT	45.8	-80.53	19761001.0	99991231.0	
787	94796		CAMP BORDEN	44.27	-79.93	19340101.0	19391231.0	
788	94825		CARIBOU ISLAND	47.33	-85.83	19350501.0	19650930.0	
789	94877		CARIBOU ISLAND AUT	47.33	-85.83	10101.0	99991231.0	
790	94837		CARTIER	46.7	-81.55	19451001.0	19480430.0	
791	94801		CENTRALIA	43.3	-81.52	19421001.0	19660831.0	
792	4757		CHALK RIVER	46.02	-77.45	19490501.0	19541231.0	
793	4777		CHALK RIVER	46.05	-77.37	19600801.0	19601231.0	
794	94862		CHAPLEAU	47.83	-83.43	19651101.0	99991231.0	
795	94802		CLEAR CREEK	42.58	-80.57	19420601.0	19610630.0	
796	54705		COBOURG AUT	43.95	-78.17	19750701.0	99991231.0	
797	4762		COCHRANE	47.48	-73.65	19340101.0	19390430.0	
798	54714		DARLINGTON AUT	43.87	-78.78	19720401.0	19741130.0	
799	4765		DESERONTO	44.2	-77.03	19450101.0	19450831.0	
800	94856		DOUGLAS POINT	44.33	-81.6	19610601.0	19620831.0	
801	4747		DOWNSVIEW	43.75	-79.48	19550101.0	99991231.0	
802	94934		DRYDEN	49.83	-92.75	19691201.0	99991231.0	
803	94797		EARLTON	47.7	-79.85	19380901.0	99991231.0	
804	94874		ELORA RESEARCH STATI	43.65	-80.42	19690301.0	99991231.0	
805	94864		GERALDTON	49.7	-86.95	19671001.0	99991231.0	
806	94888		GERALOTON AP	49.78	-86.93	10101.0	99991231.0	
807	94867		GODERICH	43.77	-81.7	19691101.0	99991231.0	
808	94883		GODRICH AUT	43.77	-81.72	10101.0	99991231.0	
809	94803		GORE BAY	45.88	-82.57	19470101.0	99991231.0	
810	14998		GRAHAM	49.27	-90.58	19481001.0	19670731.0	
811	94838		GUELPH	43.58	-80.28	19340101.0	19520430.0	
812	94851		GUELPH AGR COLLEGE	43.55	-80.27	19591001.0	99991231.0	
813	94845		HAGERSVILLE	42.95	-80.05	19450101.0	19450930.0	
814	4755		HAILEYBURY	47.43	-79.63	19340101.0	19500331.0	
815	4797		HAMILTON	43.17	-79.93	19700101.0	99991231.0	
816	94798		HAMILTON	43.28	-79.88	19500401.0	19691231.0	
817	94859		HARROW	42.03	-82.88	19630701.0	99991231.0	
818	94839		HIGH FALLS	46.37	-81.52	19470101.0	19491031.0	
819	14899		KAPUSKASING	49.42	-82.47	19371001.0	19501231.0	
820	14999		KENORA	49.8	-94.37	19380801.0	99991231.0	
821	94799		KILLALOE	45.57	-77.42	19381001.0	99991231.0	
822	4756		KINGSTON	44.23	-76.4	19340101.0	19451231.0	
823	4793		KINGSTON	44.22	-76.6	19670501.0	99991231.0	
824	54721		KINGSTON AUT	44.22	-76.6	19780101.0	99991231.0	
825	15802		LANSDOWNE HOUSE	52.23	-87.88	19410301.0	99991231.0	
826	4764		LINDSAY	44.33	-78.75	19340101.0	19371231.0	
827	94805		LONDON	43.03	-81.15	19340101.0	99991231.0	
828	4733		MAIN DUCK	43.93	-76.63	19430401.0	99991231.0	
829	15808		MOOSE FACTORY	51.25	-80.6	19340101.0	19381231.0	
830	94857		MOUNT FOREST	43.98	-80.75	19620101.0	99991231.0	
831	94876		MOUNT FOREST AUT	43.98	-80.75	19790701.0	99991231.0	
832	4766		MOUNT HOPE	43.27	-79.9	19411101.0	19450930.0	
833	4704		MUSKOKA	44.97	-79.3	19380701.0	99991231.0	
834	94861		NAGAGAMI	49.77	-84.52	19640901.0	19691231.0	
835	94872		NAGAGAMI AMOS	49.75	-84.17	19771101.0	99991231.0	
836	15804		NAKINA	50.18	-86.7	19390601.0	19671130.0	
837	4705		NORTH BAY	46.37	-79.42	19390101.0	99991231.0	
838	4754		OAK RIDGES	44.0	-79.47	19340101.0	19490531.0	
839	4706		OTTAWA	45.32	-75.67	19381001.0	19950101.0	
840	4706		OTTAWA	45.32	-75.67	19950101.0	99991231.0	
841	4772		OTTAWA	45.45	-75.62	19591001.0	19601231.0	
842	4709		OTTAWA ROCKCLIFFE	45.45	-75.63	19420401.0	19640430.0	
843	15805		PAGWA	49.77	-84.52	19380801.0	19641031.0	
844	94840		PARRY SOUND	45.33	-80.03	19340101.0	19491231.0	
845	15812		PEN ISLAND EAST	56.77	-88.78	19740701.0	19741031.0	
846	4767		PENDLETON	45.48	-75.1	19450301.0	19450831.0	
847	54706	71625.0	PETAWAWA AP	45.95	-77.32	19690601.0	99991231.0	
848	4796		PETERBOROUGH	44.23	-78.35	19690201.0	99991231.0	
849	15907		PICKLE LAKE	51.45	-90.2	19330601.0	19900125.0	
850	4740		PICTON	43.98	-77.15	19550901.0	19610430.0	
851	54707		POINT PETRE AUT	43.83	-77.15	19720501.0	99991231.0	
852	94806		PORQUIS JUNCTION	48.73	-80.8	19381001.0	19550331.0	
853	15908		RED LAKE	51.07	-93.82	19380801.0	20020819.0	
854	94865		SAMIA	43.0	-82.3	19671101.0	99991231.0	
855	94826		SARNIA	42.92	-82.3	19480901.0	19510630.0	
856	94842		SAULT STE MARIE	46.5	-84.5	19450601.0	99991231.0	
857	4773		SCARBOROUGH	43.72	-79.23	19591001.0	19601231.0	
858	94858		SIMCOE	42.85	-80.27	19620101.0	99991231.0	
859	15909		SIOUX LOOKOUT	50.12	-91.9	19340101.0	19501231.0	
860	94827		SLATE ISLAND	48.62	-87.0	19660901.0	19660930.0	
861	94841		SOUTHAMPTON	44.5	-81.35	19340101.0	19521130.0	
862	14727		ST CATHARINES	43.18	-79.18	19710601.0	99991231.0	
863	4758		ST CATHERINES	43.17	-79.23	19340101.0	19541231.0	
864	54716		STELPORT AUT	45.47	-75.65	19740401.0	19760430.0	
865	4713		STIRLING	44.32	-77.63	19400301.0	19690131.0	
866	94807		SUDBURY	46.48	-80.98	19540101.0	19550228.0	
867	94828		SUDBURY	46.62	-80.8	19470101.0	99991231.0	
868	94843		SUNFLOWER	43.13	-80.75	19470101.0	19521231.0	
869	94804		THUNDER BAY	48.37	-89.32	19340101.0	99991231.0	
870	94831		TIMMINS	48.57	-81.37	19550401.0	99991231.0	
871	4714		TORONTO	43.67	-79.4	19340101.0	19691231.0	
872	54717		TORONTO HEADLAND	43.63	-79.32	19720401.0	19760228.0	
873	54715		TORONTO HEPC	43.65	-79.4	19560401.0	19671231.0	
874	4737		TORONTO ISLAND	43.63	-79.4	19570101.0	99991231.0	
875	54709		TORONTO ISLAND AUT	43.63	-79.4	19700101.0	99991231.0	
876	4795		TORONTO MET RES STN	43.8	-79.55	19670801.0	19670831.0	
877	54718		TORONTO NEW INT'L AP	43.95	-79.13	19730601.0	19760331.0	
878	4715		TRENTON	44.12	-77.53	19341101.0	19950101.0	
879	4715		TRENTON	44.12	-77.53	19950101.0	99991231.0	
880	15806		TROUT LAKE	53.83	-89.87	19390201.0	99991231.0	
881	4736		UPLANDS	45.32	-75.67	19381001.0	19640831.0	
882	94935		UPSALA	49.03	-90.47	19701001.0	99991231.0	
883	4761		VINELAND	43.32	-79.77	19470101.0	19491231.0	
884	4784		VIRGINIATOWN	48.15	-79.52	19620501.0	19641231.0	
885	94875		WAWA AUT	47.97	-84.78	19761001.0	99991231.0	
886	94863		WELLINGTON	43.45	-80.38	19660601.0	99991231.0	
887	94808		WHITE RIVER	48.6	-85.28	19340101.0	19450731.0	
888	94809		WIARTON	44.75	-81.1	19470701.0	99991231.0	
889	94810		WINDSOR	42.27	-82.97	19400701.0	19950101.0	
890	94810		WINDSOR	42.27	-82.97	19950101.0	99991231.0	
891	15807		WINISK	55.23	-85.12	19561001.0	19650831.0	
892	64757			44.23	-79.78	20040715.0	99991231.0	
893	94972	71747.0	ATIKOKAN AUTO	48.77	-91.63	19881026.0	99991231.0	
894	4819		BELLE RIVER	42.3	-82.23	19861006.0	99991231.0	
895	54713		BURLINGTON PIERS AUT	43.3	-79.8	19720501.0	19760228.0	
896	54748		BURLINGTON PIERS AUT	43.3	-79.8	19840425.0	99991231.0	
897	4814	71439.0	COVE ISLAND	45.33	-81.73	19850704.0	99991231.0	
898	54755		EGBERT	44.23	-79.78	19910108.0	99991231.0	
899	4817	71465.0	ERIEAU	42.25	-81.9	19860801.0	99991231.0	
900	4817	71465.0	ERIEAU	42.25	-81.9	10101.0	19860801.0	
901	4820		GRAND BEND	43.33	-81.73	19861006.0	19950101.0	
902	4820		GRAND BEND	43.33	-81.73	19950101.0	99991231.0	
903	4812	71462.0	GREAT DUCK ISLAND	45.63	-82.97	19850115.0	99991231.0	
904	4811	71460.0	KILLARNEY AUTOMATIC	45.97	-81.48	19841001.0	99991231.0	
905	4815	71464.0	LONG POINT	42.57	-80.05	19850823.0	99991231.0	
906	4821		MITCHELL'S BAY	42.47	-82.42	19860906.0	99991231.0	
907	4822		OLIPHANT	44.73	-81.28	19861006.0	99991231.0	
908	15814		ONAKAWANA AUTO	50.6	-81.42	19900117.0	99991231.0	
909	54749		OTTAWA CDA	45.58	-75.72	19850301.0	99991231.0	
910	54751	71463.0	PORT COLBORNE	45.87	-79.25	19851022.0	99991231.0	
911	15815		SEVERN RIVER	55.38	-88.33	19901024.0	99991231.0	
912	4818	71466.0	SOUTHEAST SHOAL	41.83	-82.47	19851115.0	99991231.0	
913	54753		TORONTO BUTTONVILLE AP	43.87	-79.37	19860523.0	99991231.0	
914	94791		TORONTO PEARSON INTL	43.68	-79.63	19371101.0	19860601.0	
915	94791	71624.0	TORONTO PEARSON INTL	43.68	-79.63	19860601.0	19950101.0	
916	94791	71624.0	TORONTO PEARSON INTL	43.68	-79.63	19950101.0	99991231.0	
917	4816	71461.0	TROWBRIDGE	48.3	-88.87	19840824.0	99991231.0	
918	4823		WASAGA BEACH	44.5	-80.05	19861006.0	99991231.0	
919	4810		WESTEIN ISLAND AUTO	45.03	-80.37	19840425.0	99991231.0	
920	15813		WINISK	55.23	-85.12	19811001.0	99991231.0	
921	15908		RED LAKE	51.07	-93.8	20020819.0	99991231.0	
922	14630		CHARLOTTETOWN	46.28	-63.13	19330101.0	99991231.0	
923	14688		CHARLOTTETOWN	46.25	-63.13	19100701.0	99991231.0	
924	14695		EAST POINT AUT	46.45	-61.97	19770101.0	99991231.0	
925	14645		SUMMERSIDE	46.43	-63.83	19410101.0	99991231.0	
926	94622	71420.0	EAST BALTIC AUTO	46.43	-62.17	19881115.0	99991231.0	
927	14626		ANTICOSTI	49.4	-63.55	19340101.0	19581130.0	
928	4753		ARVIDA	48.43	-71.18	19340101.0	19541231.0	
929	16703		ASBESTOS HILL	61.8	-73.95	19630801.0	19640228.0	
930	94795		BAGOTVILLE	48.33	-71.0	19420901.0	19950101.0	
931	94795		BAGOTVILLE	48.33	-71.0	19950101.0	99991231.0	
932	14627		BAIE COMEAU	49.2	-68.27	19470601.0	99991231.0	
933	15511		BLANC SABLON	51.43	-57.22	19670801.0	99991231.0	
934	15639		BORDER AUT	55.33	-63.22	10101.0	99991231.0	
935	15631		BORDER BEACON	55.33	-63.22	19650101.0	99991231.0	
936	15638		CACEON AUT	51.85	-63.28	10101.0	99991231.0	
937	4732		CACHE LAKE	49.83	-74.42	19511101.0	19600228.0	
938	16604		CAPE HOPES ADVANCE	61.08	-69.55	19330101.0	19711231.0	
939	15630		CAPE WHITTLE	50.17	-60.07	19630901.0	19691231.0	
940	4788		CHAPAIS	49.62	-74.87	19621201.0	19710930.0	
941	4786		CHARLEVOIX	47.6	-70.23	19620701.0	19670930.0	
942	15513		CHEVERY	50.47	-59.63	19810201.0	99991231.0	
943	15706		CHIBOUGAMAU	49.82	-74.58	19710901.0	99991231.0	
944	15622		CLARKE CITY	50.18	-66.63	19360701.0	19471231.0	
945	16704		DECEPTION BAY	62.1	-74.58	19640201.0	99991231.0	
946	4748		DOLBEAU	48.88	-72.23	19340101.0	19580630.0	
947	4763		DOUCET	48.28	-76.67	19340101.0	19391231.0	
948	14659		FAME POINT	49.12	-64.62	19340101.0	19440930.0	
949	14656		FATHER POINT	48.52	-68.47	19340101.0	19510731.0	
950	14654		FORESTVILLE	48.73	-69.1	19481001.0	19671231.0	
951	15705		FORT GEORGE	53.83	-79.02	19340101.0	19440228.0	
952	15609		FORT MCKENZIE	56.88	-69.05	19480901.0	19510930.0	
953	14665		FOX RIVER	49.02	-64.4	19580901.0	99991231.0	
954	15632		GAGNON	51.95	-68.13	19650801.0	99991231.0	
955	14660		GASPE	48.83	-64.48	19400601.0	19450831.0	
956	14680		GASPE	48.77	-64.48	19650201.0	99991231.0	
957	54744		GATINEAU AP	45.52	-75.57	10101.0	99991231.0	
958	15701		GREATWHALE RIVER	55.28	-77.77	19340101.0	99991231.0	
959	14637		GRINDSTONE ISLAND	47.38	-61.87	19340101.0	99991231.0	
960	15505		HARRINGTON HARBOUR	50.53	-59.5	19340101.0	99991231.0	
961	15633		HAVRE ST PIERRE	50.25	-63.6	19670601.0	99991231.0	
962	4794		HIGH WATER	45.03	-72.47	19670701.0	19670731.0	
963	15627		HOPES ADVANCE BAY	59.33	-69.77	19580901.0	19590831.0	
964	14696		ILES DE LA MADELEINA	47.42	-61.78	19780701.0	99991231.0	
965	15606		INDIAN HOUSE LAKE	56.23	-64.73	19440901.0	19650131.0	
966	15611		KNOB LAKE	54.83	-66.7	19480801.0	19531231.0	
967	15619		KNOB LAKE	54.8	-66.82	19540101.0	99991231.0	
968	16614		KOARTAK	61.07	-69.68	19711101.0	99991231.0	
969	15605	71906.0	KUUJJAUQ AP	58.1	-68.42	19410901.0	19810301.0	
970	15605	71906.0	KUUJJAUQ AP	58.1	-68.42	19810301.0	99991231.0	
971	15707		LA GRANDE RIVIERE AU	53.63	-77.7	19761001.0	99991231.0	
972	4775		LA TUQUE	47.42	-72.8	19600301.0	19600430.0	
973	4701		LAKE DORE	49.9	-74.3	19361001.0	19510531.0	
974	15621		LAKE EON	51.85	-63.28	19550101.0	99991231.0	
975	4708		LORETTA	46.8	-71.38	19340101.0	99991231.0	
976	15629		MANICOUAGAN	50.65	-68.83	19611001.0	19711231.0	
977	4734		MANIWAKI	46.37	-75.98	19530701.0	99991231.0	
978	54719		MANIWAKI AUT	46.38	-75.97	19700701.0	19720630.0	
979	15702		MANUAN LAKE	50.63	-70.53	19420201.0	19611031.0	
980	54711		MATAGAMI AUT	49.77	-77.8	19730201.0	99991231.0	
981	15603		MECATINA	51.83	-62.88	19431001.0	19520630.0	
982	4702		MEGANTIC	45.58	-70.87	19391101.0	19620531.0	
983	15617		MILE 134	51.92	-65.82	19520401.0	19531031.0	
984	15604		MINGAN	50.28	-64.17	19430101.0	19500831.0	
985	15637		MINGAN AP	50.28	-64.15	19780101.0	19840831.0	
986	14639		MONT JOLI	48.6	-68.2	19420201.0	99991231.0	
987	4735		MONTREAL	45.47	-73.75	19570101.0	19600831.0	
988	54720		MONTREAL ADAC A	45.48	-73.55	19740401.0	19760430.0	
989	4770		MONTREAL JEAN BREBEU	45.5	-73.62	19591001.0	99991231.0	
990	4703		MONTREAL MCGILL UNIV	45.5	-73.58	19470101.0	19600831.0	
991	54712		MONTREAL MIRABEL	45.68	-74.03	19751001.0	99991231.0	
992	15803		MOOSONEE	51.27	-80.65	19340101.0	99991231.0	
993	15612		NATASHQUAN	50.2	-61.82	19420301.0	99991231.0	
994	15703		NITCHEQUON	53.2	-70.9	19420901.0	99991231.0	
995	15623		NORMAN LAKE	52.08	-63.67	19420401.0	19451231.0	
996	4771		NORMANDIN	48.85	-72.53	19591001.0	99991231.0	
997	4707		PARENT	47.92	-74.62	19430701.0	99991231.0	
998	4778		PARENT	47.88	-74.68	19600901.0	19640731.0	
999	14674		PORT MENIER	49.82	-64.35	19600701.0	99991231.0	
1000	14689		PORT MENIER	49.85	-64.45	19741001.0	99991231.0	
1001	14699		PORT MENIER AUT	49.83	-64.28	19810401.0	99991231.0	
1002	14682		RIVIERE DU LOUP	47.8	-69.55	19650601.0	99991231.0	
1003	14698		RIVIERE DU LOUP AUT	47.8	-69.55	10101.0	99991231.0	
1004	4752		ROBERVAL	48.52	-72.27	19571001.0	99991231.0	
1005	4731		ROUYN	48.22	-78.83	19490501.0	99991231.0	
1006	4768		SANMAUR	47.88	-73.8	19340101.0	19391031.0	
1007	4710		SENNETERRE	48.4	-77.25	19400101.0	19510430.0	
1008	4776		SENNETERRE	48.33	-77.18	19600401.0	19601231.0	
1009	15613		SEPT ILES	50.22	-66.27	19440801.0	19950101.0	
1010	15613		SEPT ILES	50.22	-66.27	19950101.0	99991231.0	
1011	15636		SEPT ILES UA	50.22	-66.25	19680101.0	99991231.0	
1012	4760		SHERBROOKE	45.4	-71.9	19340101.0	19541231.0	
1013	4785		SHERBROOKE	45.43	-71.68	19620401.0	99991231.0	
1014	4790		ST AGATHE DES MONTS	46.05	-74.28	19660101.0	99991231.0	
1015	14681		ST ANNE DES MONTS	49.12	-66.53	19650201.0	19661130.0	
1016	54708		ST AUGUSTIN	46.73	-71.5	19641201.0	99991231.0	
1017	4711		ST FELICIEN	48.65	-72.45	19381001.0	19531031.0	
1018	4712		ST HUBERT	45.52	-73.42	19340101.0	99991231.0	
1019	4759		ST JOHNS	45.33	-73.3	19400101.0	19450930.0	
1020	54703		SUTTON	45.15	-72.58	19710901.0	99991231.0	
1021	54710		SUTTON JUNCTION AUT	45.15	-72.58	19750101.0	99991231.0	
1022	54784		TROIS RIVIERES	46.35	-72.68	19630901.0	99991231.0	
1023	4730		VAL DOR	48.05	-77.78	19490601.0	99991231.0	
1024	54724	71716.0	VALCARTIER AP	46.9	-71.5	19780101.0	99991231.0	
1025	15614		WACOUNO LAKE	51.42	-65.63	19510301.0	19520630.0	
1026	94607		HEATH POINT	49.08	-61.7	19841021.0	99991231.0	
1027	94613	71428.0	CAP CHAT	49.08	-66.73	19850731.0	19950101.0	
1028	94613	71428.0	CAP CHAT	49.08	-66.73	19950101.0	99991231.0	
1029	94612	71429.0	CAP D'ESPOIR	48.42	-64.32	19850712.0	99991231.0	
1030	94614	71425.0	CAP MADELEINE	49.25	-65.33	19850914.0	99991231.0	
1031	15640		HAVRE ST PIERRE AP	50.28	-60.62	19831205.0	99991231.0	
1032	54750	71424.0	ILE D'ORLEANS	47.0	-70.82	19850613.0	99991231.0	
1033	15709		INUKJUAK AIRPORT	58.47	-78.08	19880613.0	99991231.0	
1034	15704		INUKJUAK WPH	58.45	-78.13	19660801.0	19820301.0	
1035	15704		INUKJUAK WPH	58.45	-78.13	19340101.0	19660801.0	
1036	15704		INUKJUAK WPH	58.45	-78.13	19820301.0	99991231.0	
1037	94606	71426.0	ISLE ROUGE AUTO	48.07	-69.55	19840824.0	99991231.0	
1038	16708		IVUJIVIK AIRPORT	62.42	-77.93	19880613.0	99991231.0	
1039	16707		KANGIRSUSK AIRPORT	60.02	-70.0	19880613.0	99991231.0	
1040	15641	71906.0	KUUJJAUQ AP #2	58.1	-68.42	19851016.0	99991231.0	
1041	15708	71823.0	LA GRANDE IV(4) A	53.75	-73.67	19851009.0	99991231.0	
1042	94792		MONTREAL DORVAL AP	45.47	-73.75	19340101.0	19950101.0	
1043	94792		MONTREAL DORVAL AP	45.47	-73.75	19950101.0	99991231.0	
1044	94615	71427.0	POINTE DES MONTS	49.32	-67.38	19851126.0	99991231.0	
1045	25040		BAD LAKE IHD 102	51.32	-108.4	19670701.0	99991231.0	
1046	25006		BROADVIEW	50.28	-102.53	19380701.0	19650228.0	
1047	25030		BROADVIEW	50.38	-102.58	19650201.0	99991231.0	
1048	25033		BUFFALO NARROWS	55.83	-108.47	19680601.0	99991231.0	
1049	25043		BUFFALO NARROWS AP	55.83	-108.43	10101.0	99991231.0	
1050	25044		BUFFALO NARROWS AUT	55.83	-108.43	10101.0	99991231.0	
1051	25038		COLLINE BAY	58.18	-103.68	19720901.0	99991231.0	
1052	25034		CREE LAKE	57.35	-107.13	19691201.0	99991231.0	
1053	25008		DAFOE	51.93	-104.57	19440801.0	19640930.0	
1054	94019		EASTEND CYPRESS AUT	49.43	-108.98	19761001.0	99991231.0	
1055	25035		ELBOW	51.13	-106.58	19691201.0	99991231.0	
1056	24092		ESTEVAN	49.07	-103.0	19431001.0	99991231.0	
1057	25002		HUDSON BAY	52.87	-102.4	19430401.0	19450731.0	
1058	25042		HUDSON BAY	59.82	-107.32	19780601.0	99991231.0	
1059	25041		HUDSON BAY AUT	59.82	-102.32	19780601.0	99991231.0	
1060	25003		ISLAND FALLS	55.53	-102.35	19400101.0	19450731.0	
1061	25036		JIMMY LAKE	54.92	-109.97	19701001.0	99991231.0	
1062	25020		KINDERSLEY	51.47	-109.13	19430901.0	19840824.0	
1063	25010		LAC LA RONGE	55.1	-105.28	19411001.0	19440831.0	
1064	25026		LAC LA RONGE	55.12	-105.3	19590701.0	99991231.0	
1065	25127		LLOYDMINISTER	53.3	-109.98	19040601.0	99991231.0	
1066	25023		LYNN LAKE	56.87	-101.07	19540701.0	99991231.0	
1067	25031		MEADOW LAKE	54.12	-108.43	19650801.0	99991231.0	
1068	25037		MEADOW LAKE AUT	54.13	-108.52	19770801.0	99991231.0	
1069	25018		MOOSE JAW	50.33	-105.55	19340101.0	99991231.0	
1070	25039		NIPAWIN AUT	53.33	-104.0	19730801.0	99991231.0	
1071	25012		NORTH BATTLEFORD	52.77	-108.25	19340101.0	99991231.0	
1072	25013		PRINCE ALBERT	53.22	-105.68	19340101.0	99991231.0	
1073	25005		REGINA	50.43	-104.67	19371001.0	99991231.0	
1074	94020		ROCK GLEN AUT	49.17	-105.97	10101.0	99991231.0	
1075	94016		ROCKGLEN	49.17	-105.97	19701201.0	99991231.0	
1076	25015		SASKATOON	52.17	-106.68	19340101.0	99991231.0	
1077	25021		SASKATOON	52.17	-106.68	19420101.0	19650731.0	
1078	25027		SASKATOON N R C	52.13	-106.63	19591001.0	99991231.0	
1079	25032		SQUAW RAPIDS	53.7	-103.35	19660701.0	19700731.0	
1080	25025		STANLEY	55.42	-104.53	19400201.0	19401231.0	
1081	25016		SWIFT CURRENT	50.28	-107.68	19340101.0	99991231.0	
1082	25028		SWIFT CURRENT	50.27	-107.75	19591001.0	99991231.0	
1083	25029		WYNWARD	51.77	-104.2	19640901.0	99991231.0	
1084	25017		YORKTON	51.27	-102.47	19410501.0	99991231.0	
1085	25049		OUTLOOK PFRA	51.48	-107.05	19880501.0	99991231.0	
1086	25047	71132.0	STONY RAPIDS AP	59.25	-105.83	19860701.0	99991231.0	
1087	25019		URANIUM CITY AUTO	59.57	-108.48	19521201.0	19860602.0	
1088	25019		URANIUM CITY AUTO	59.57	-108.48	19860602.0	99991231.0	
1089	25046		KINDERSLEY AP	51.52	-109.17	19840824.0	99991231.0	
1090	25050		WASKESIU LAKE AUTO	53.92	-106.07	19891221.0	99991231.0	
1091	26314		AISHIHIK	61.6	-137.53	19420901.0	19430331.0	
1092	26314		AISHIHIK	61.65	-137.48	19430601.0	19471231.0	
1093	26454		BEAVER CREEK	62.38	-140.88	19681101.0	99991231.0	
1094	26305		BROOKS BROOK	60.48	-133.45	19430801.0	19450430.0	
1095	26313		BROOKS BROOK STP 6	60.48	-133.45	19450501.0	19450831.0	
1096	26325		BURWASH	61.37	-139.05	19660901.0	99991231.0	
1097	26301		CANYON CREEK	60.87	-137.13	19431101.0	19460331.0	
1098	26321		CARMACKS	62.1	-136.3	19500901.0	19530331.0	
1099	26321		CARMACKS	62.1	-136.3	19630801.0	99991231.0	
1100	26324		CHAPMAN LAKE	64.85	-138.37	19600501.0	19600831.0	
1101	26319		DAWSON	64.07	-139.43	19340101.0	19471231.0	
1102	26328		DAWSON AUT	64.05	-139.13	19760101.0	99991231.0	
1103	26310		DESTRUCTION ISLAND S	61.35	-139.03	19440101.0	19450930.0	
1104	26306		DEVILS PASS	60.42	-133.75	19430801.0	19440731.0	
1105	26329		FARO	62.23	-133.35	19711001.0	99991231.0	
1106	26302		FISH LAKE	60.63	-132.05	19430401.0	19450831.0	
1107	26209		FRANCES LAKE	61.28	-129.4	19411001.0	19480531.0	
1108	26322		HAINES JUNCTION	60.75	-137.58	19441001.0	19710331.0	
1109	26333		HERSCHEL ISLAND	69.57	-138.92	19740701.0	19751031.0	
1110	26456		KOMAKUK BEACH	69.58	-140.18	19660401.0	19670831.0	
1111	26463		KOMAKUK BEACH	69.58	-140.18	19610101.0	99991231.0	
1112	26320		MAYO LANDING	63.62	-135.87	19340101.0	99991231.0	
1113	26330		OLD CROW AUT	67.57	-139.83	19510901.0	99991231.0	
1114	26312		ORCHIE LAKE	62.18	-131.75	19440801.0	19450331.0	
1115	26307		RANCHERIA	60.08	-130.17	19430801.0	19450831.0	
1116	26309		ROSS RIVER	62.02	-132.42	19440101.0	19440831.0	
1117	26392		SHINGLE POINT	68.95	-137.2	19560501.0	99991231.0	
1118	26326		SHINGLE POINT BAR-2	68.92	-137.25	19660401.0	19670831.0	
1119	26450		SNAG	62.37	-140.4	19430801.0	19661031.0	
1120	26304		SWIFT RIVER	60.0	-131.18	19431101.0	19460331.0	
1121	26318	71045.0	TESLIN	60.17	-132.75	19430901.0	19471231.0	
1122	26331		TESLIN AUT	60.17	-132.75	19760501.0	99991231.0	
1123	26303		UPPER TESLIN	60.5	-133.4	19420901.0	19430331.0	
1124	26205		WATSON LAKE	60.12	-128.82	19381001.0	19471231.0	
1125	26311		WHITEHORSE	60.72	-135.08	19440601.0	19460331.0	
1126	26316		WHITEHORSE	60.72	-135.07	19401001.0	99991231.0	
1127	26337	71504.0	BABBAGE RIVER	68.82	-138.75	19870723.0	99991231.0	
1128	26335	71501.0	HERSCHEL ISLAND	69.57	-138.92	19860727.0	99991231.0	
1129	26334	71500.0	KINGS POINT	69.08	-137.05	19851028.0	99991231.0	
1130	12102		CABO JUBY RIO DE ORO	27.93	-13.0	19450801.0	19451031.0	
1131	12104		TENERIFE AIR SAMPLE	28.3	-16.48	19911116.0	99991231.0	
1132	12103		VILLA CISNEROS	23.75	-15.93	19451001.0	19460430.0	
1133	11804		GEORGETOWN	19.3	-81.38	19420601.0	19441031.0	
1134	11812		GEORGETOWN	19.25	-81.42	19570701.0	19711231.0	
1135	11809		GRAND CAYMEN	19.33	-81.33	19450701.0	19461130.0	
1136	11813		ROBERTS	19.3	-81.37	19560801.0	99991231.0	
1137	70701	61967.0	DIEGO GARCIA NAF	-7.3	72.4	19710701.0	19950101.0	
1138	70701	61967.0	DIEGO GARCIA NAF	-7.3	72.4	19950101.0	99991231.0	
1139	52701		ANTOFAGASTA	-23.37	-70.47	19570701.0	99991231.0	
1140	62001		ISLA PASCUA	-27.17	-109.43	19660601.0	99991231.0	
1141	54702		PUERTO MONTT	-41.43	-73.12	19700301.0	19950101.0	
1142	54702		PUERTO MONTT	-41.43	-73.12	19950101.0	99991231.0	
1143	54701		PUERTO MONTT B	-41.47	-72.82	19501101.0	19620131.0	
1144	55701		PUNTA ARENAS	-53.03	-70.85	19750401.0	99991231.0	
1145	53701		QUINTERO	-32.78	-71.53	10101.0	99991231.0	
1146	43013		ANKANG	32.58	109.25	19450301.0	19451031.0	
1147	42109		CHANTING	26.77	116.35	19450801.0	19460131.0	
1148	42008		CHANYI	25.63	103.78	19440101.0	19451130.0	
1149	42018		CHAOTUNG	27.33	103.67	19450101.0	19450228.0	
1150	42013		CHENGKUNG	24.88	102.78	19440401.0	19451031.0	
1151	43001		CHENGTU	30.25	104.03	19440101.0	19460430.0	
1152	43202		CHIEN CHI	30.23	120.17	19451001.0	19460430.0	
1153	42001		CHIH CHI	27.45	109.63	19431001.0	19461031.0	
1154	33902		CHIUCHUAN NORTH	39.83	98.25	19460401.0	19470731.0	
1155	33901		CHIUCHUAN SOUTH	39.67	98.72	19451001.0	19451031.0	
1156	42106		CHUNG SHUEN ANHWEI	29.75	118.52	19440701.0	19450430.0	
1157	42028		CHUNGKING	28.6	106.58	19450701.0	19450831.0	
1158	43008		ENSHIH	30.28	109.48	19450401.0	19450831.0	
1159	43012		FUNG WHANG SHAN	30.67	104.67	19470101.0	19471231.0	
1160	42101		HENGYANG	26.93	112.57	19430901.0	19440630.0	
1161	42108		HSUPU	27.87	110.57	19450701.0	19450930.0	
1162	43204		HUNG CHIA	31.23	121.45	19451201.0	19490430.0	
1163	42012		IPING	28.82	104.53	19440301.0	19450831.0	
1164	42107		KANCHOW	25.83	114.83	19441201.0	19450131.0	
1165	42111		KIUKIANG	29.75	116.13	19460701.0	19460930.0	
1166	43004		KIUNGLAI	30.45	103.53	19450201.0	19450228.0	
1167	42002		KUNMING	25.03	102.72	19420701.0	19461130.0	
1168	43003		KWANGHAN	31.12	104.0	19450201.0	19450831.0	
1169	42029		KWEIYANG	26.53	106.67	19450801.0	19450831.0	
1170	42024		LAIFENG	29.52	109.4	19450401.0	19450731.0	
1171	43009		LANCHOW	36.0	103.75	19450601.0	19461231.0	
1172	43010		LANCHOW	36.6	103.5	19450801.0	19451231.0	
1173	43101		LAOHOKOW	32.42	111.5	19450201.0	19450228.0	
1174	42021		LAOWHANGPING	26.92	107.83	19450201.0	19450831.0	
1175	42102		LI CHIATS	25.33	110.17	19430501.0	19440930.0	
1176	43005		LIANGSHAN	30.58	107.83	19450301.0	19460430.0	
1177	42009		LIKIANG	26.88	100.23	19440201.0	19450731.0	
1178	42103		LINLING	26.25	111.53	19430501.0	19440630.0	
1179	42003		LIUCHOW	24.3	109.27	19430901.0	19460131.0	
1180	42025		LOPING	24.95	104.35	19450501.0	19451031.0	
1181	42026		LUHSIEN	28.85	105.35	19450601.0	19451130.0	
1182	42015		LULIANG	25.0	103.58	19440501.0	19451130.0	
1183	32933		MANGSHIH	24.45	98.58	19441201.0	19450831.0	
1184	42020		MENGTSZ	23.38	103.45	19450201.0	19450930.0	
1185	44201		MUKDEN MANCHURIA	41.8	123.38	19460401.0	19480831.0	
1186	42007		NANNING	22.8	108.3	19431201.0	19450930.0	
1187	43011		NINGHSIA	35.25	106.25	19451101.0	19451231.0	
1188	42019		PAI-SE	23.75	106.08	19450101.0	19450930.0	
1189	42027		PAKHOI	21.4	109.08	19450801.0	19450930.0	
1190	32919		PAOSHAN	25.08	99.17	19440301.0	19460630.0	
1191	43104		PEIPING WEST	39.92	116.42	19451101.0	19461130.0	
1192	42016		PEISHIYI	29.5	106.37	19441101.0	19460531.0	
1193	44101		PEKING	40.0	116.5	19460501.0	19460630.0	
1194	43015		QINGHAI PROV AIR SAM	36.27	100.92	19900805.0	99991231.0	
1195	43203		SHANGHAI	31.32	121.5	19451001.0	19461231.0	
1196	43007		SIAN	34.25	108.92	19450301.0	19461231.0	
1197	42011		SICHANG	27.92	102.3	19440301.0	19460630.0	
1198	42006		SICHOW	25.82	100.12	19431101.0	19441231.0	
1199	43014		SINTSING	30.42	103.92	19460501.0	19460831.0	
1200	42104		SUICHWAN	26.42	114.5	19431001.0	19460228.0	
1201	42014		SZEMAO	22.45	101.03	19440501.0	19450930.0	
1202	42105		TA TO	28.2	112.98	19440201.0	19440531.0	
1203	43102		TAI CHIAO	32.08	118.75	19450901.0	19470331.0	
1204	43105		TAIHO	33.17	115.67	19450501.0	19450930.0	
1205	42110		TIENHO	23.13	113.33	19451101.0	19461231.0	
1206	43108		TIENTSIN MAB 1	39.17	117.17	19460601.0	19460630.0	
1207	43269		TSANG	36.07	120.32	19460501.0	19461130.0	
1208	42017		TSINGCHEN	26.75	106.75	19441201.0	19450430.0	
1209	43205		TSINGTAO	36.18	120.38	19460101.0	19480930.0	
1210	42010		TSUYUNG	25.03	101.57	19440101.0	19450731.0	
1211	42023		TUSHAN	25.83	107.75	19450401.0	19450831.0	
1212	43103		WANG CHIA T	30.58	114.25	19451001.0	19461231.0	
1213	43006		WU CHU SU	32.97	107.2	19450201.0	19451031.0	
1214	42004		YANGKAI	25.5	103.08	19430201.0	19451031.0	
1215	43002		YENAN	36.52	109.45	19441101.0	19460228.0	
1216	42005		YUNNANYI	25.42	100.73	19430101.0	19451031.0	
1217	10717		BOGOTA EL DORADO	4.7	-74.15	19600801.0	99991231.0	
1218	11814		SAN ANDRES ISLAND	12.58	-81.7	19561101.0	19721003.0	
1219	11814	80001.0	SAN ANDRES ISLAND	12.58	-81.7	19721003.0	19950101.0	
1220	11814	80001.0	SAN ANDRES ISLAND	12.58	-81.7	19950101.0	99991231.0	
1221	11705		SOLEDAD	10.87	-74.78	19431101.0	19491031.0	
1222	61501		AMURI FIELD AAF	-18.83	-159.82	19430801.0	19460831.0	
1223	60501		PENRHYN	-9.07	-158.03	19430801.0	19460630.0	
1224	10807		PARRITA	9.52	-84.33	19440901.0	19470930.0	
1225	10806		SAN JOSE	9.9	-84.13	19430201.0	19450930.0	
1226	10801		SIXAOLA	9.52	-82.65	19430701.0	19440630.0	
1227	10809		SAN JOSE JUAN SANTAMARIA	10.0	-84.22	19800101.0	99991231.0	
1228	64103		CAMP HARMON	45.13	18.73	19960226.0	99991231.0	
1229	64104		ZUPANJA	45.13	18.73	19960124.0	99991231.0	
1230	74501		CROZET AIR SAMPLE ST	-46.45	51.85	19910303.0	99991231.0	
1231	12877		CABO SAN ANTONIO	21.87	-84.97	19510801.0	19551130.0	
1232	12711		CAMAGUAY	21.42	-77.87	19050701.0	19601031.0	
1233	12701		CAMAGUEY	21.4	-77.92	19420701.0	19450630.0	
1234	12705		CAYO FRANCIS	22.63	-79.23	19440801.0	19440831.0	
1235	11714		GUANTANAMO BAY	19.9	-75.15	19170201.0	19310630.0	
1236	11706	78367.0	GUANTANAMO BAY NAS	19.9	-75.15	19320101.0	19950101.0	
1237	11706	78367.0	GUANTANAMO BAY NAS	19.9	-75.15	19950101.0	99991231.0	
1238	12860		MONTSERRAT CIENFUEGO	22.15	-80.45	18990401.0	19540430.0	
1239	12801		SAN ANTONIO	22.88	-82.5	19430301.0	19460531.0	
1240	12821		SAN JULIAN	22.12	-84.15	19430601.0	19430731.0	
1241	12857		SAN JULIAN	22.07	-84.15	19431101.0	19451130.0	
1242	12856		SANTA FE	21.73	-82.77	19430801.0	19440531.0	
1243	33304		NICOSIA	35.15	33.28	19440301.0	19450831.0	
1244	31404	63125.0	DJIBOUTI AMBOULI	11.55	43.15	19520101.0	99991231.0	
1245	11628		ROSEAU	15.3	-61.4	10101.0	99991231.0	
1246	11615		CIUDAD TRUJILLO	18.48	-69.9	19440101.0	19460331.0	
1247	11627		CIUDAD TRUJILLO	18.47	-69.88	19390101.0	19520630.0	
1248	11711		PUERTO PLATO	19.68	-70.67	19170901.0	19570630.0	
1249	11646		SABANA DE LA MAR	19.05	-69.38	19560901.0	99991231.0	
1250	11650		SAN ISIDRO	18.5	-69.75	19650501.0	19660930.0	
1251	11629	78486.0	SANTO DOMINGO	18.47	-69.88	19731101.0	99991231.0	
1252	50904		GALAPAGOS IS NF	-0.43	-90.28	19421001.0	19460331.0	
1253	50903		GALAPAGOS ISLAND	-0.47	-90.3	19420801.0	19481130.0	
1254	50701		GUAYAQUIL	-2.2	-79.88	19570701.0	99991231.0	
1255	50801		SALINAS	-2.2	-81.0	19420401.0	19460131.0	
1256	50804		SAN CRISTOBAL	-0.9	-89.62	19540701.0	19570131.0	
1257	50803		SANTA ELENA	-2.2	-81.0	19421001.0	19421231.0	
1258	33203		ALEXANDRIA	31.2	29.88	19440901.0	19450331.0	
1259	32302	62414.0	ASWAN	26.97	32.78	19570701.0	99991231.0	
1260	33310		CAIRO WEST	30.08	30.92	19840327.0	99991231.0	
1261	33313		CAIRO WEST NODE 050	30.12	30.92	19900930.0	19910331.0	
1262	33302		DEVERSOIR	30.42	32.35	19431101.0	19450228.0	
1263	31201		EL FASHER SUDAN	13.63	25.35	19430401.0	19450630.0	
1264	31202		EL GENEINA SUDAN	13.45	22.45	19430401.0	19450531.0	
1265	32301		LUXOR	25.7	32.7	19431201.0	19450831.0	
1266	33205		MERSA MATRUH	31.45	27.2	19441201.0	19451231.0	
1267	33303		PAYNE	30.13	31.4	19431101.0	19461130.0	
1268	30301		ACESUM AXUM	14.23	38.73	19640601.0	19650228.0	
1269	30302		ADDIS ABABA	9.0	38.73	19650601.0	19670228.0	
1270	30304		ARBA MINCH	6.13	37.63	19651001.0	19670131.0	
1271	31307		ASOSA	10.07	34.52	19660401.0	19670228.0	
1272	31403		ASSAB	13.02	42.72	19640801.0	19640831.0	
1273	30402		AUAREH	8.25	44.17	19650601.0	19661231.0	
1274	31306		BAHAR DAR	11.6	37.42	19640701.0	19670228.0	
1275	30404		CAPE TI NAK TEAM 6	6.67	43.83	19650701.0	19650930.0	
1276	30403		CHINNIR TEAM 3	7.03	40.75	19650601.0	19670131.0	
1277	30401		DIREDAWA	9.6	41.87	19650201.0	19661231.0	
1278	31302		ERITREA	15.28	38.92	19431201.0	19450531.0	
1279	30405		GODA	5.92	43.5	19660701.0	19661231.0	
1280	31301		GURA	15.03	39.05	19430401.0	19431231.0	
1281	30306		JIMMA	7.67	36.83	19661201.0	19670228.0	
1282	30305		MAJI	5.75	35.67	19660101.0	19670228.0	
1283	31305		MASSAWA	15.62	39.48	19640501.0	19641231.0	
1284	30303		NEGILLI FLT D TM 5	5.28	39.68	19650301.0	19670131.0	
1285	31402		TENDAHO	11.8	41.02	19640801.0	19650331.0	
1286	31304		TESSENEI	15.13	36.7	19640501.0	19641231.0	
1287	81701		NAIVAKA AAF	-16.63	178.53	19430701.0	19440228.0	
1288	81702		NANDI AAF	-17.75	177.42	19420401.0	19460531.0	
1289	81704		SUVA POINT	-18.15	178.45	19430801.0	19450331.0	
1290	81703		YASAWA I RARA	-16.7	177.57	19430801.0	19440228.0	
1291	34021		AMBERIEU EN BUGRY	45.97	5.33	19440901.0	19440930.0	
1292	14008		BORDEAUX	44.83	-0.72	19520501.0	19571130.0	
1293	34067		BRIENNE	48.43	4.48	19580901.0	19650531.0	
1294	34063		CHAMBLEY	49.03	5.87	19541101.0	19661231.0	
1295	34048		CHATEAUROUX	46.85	1.72	19510801.0	19661231.0	
1296	34052		CHAUMONT	48.1	5.05	19520301.0	19661231.0	
1297	34065		DREUX	48.65	1.1	19550901.0	19661031.0	
1298	34064		ETAIN	49.23	5.68	19541201.0	19661031.0	
1299	34061		EVREUX	49.02	1.23	19541001.0	19670630.0	
1300	34059		GROS TENQUIN	49.02	6.7	19550101.0	19640331.0	
1301	34011		HAUT BIOL	45.6	5.5	19440901.0	19441130.0	
1302	34018		ISTRES	43.5	4.95	19450401.0	19470430.0	
1303	34053		LAON	49.63	3.55	19520501.0	19661231.0	
1304	34024		LYONS	45.72	4.92	19450401.0	19450630.0	
1305	34012		MARSEILLE	43.43	5.22	19431201.0	19440930.0	
1306	34060		MARVILLE	49.45	5.42	19550201.0	19670831.0	
1307	35014		MERVILLE PAS DE CALA	50.63	2.63	19450201.0	19451031.0	
1308	34010		MOUNT ROLAND DOLE MU	47.1	5.45	19440901.0	19441130.0	
1309	34016		NANCY MU 6	48.67	6.2	19441101.0	19450131.0	
1310	34043		NICE COTE D'AZUR	43.67	7.22	19451001.0	19460228.0	
1311	34066		ORLEANS	47.93	1.88	19570301.0	19670331.0	
1312	34022		PARIS ORLY	48.73	2.37	19441001.0	19610531.0	
1313	34062		PHALSBOURG	48.82	7.2	19541001.0	19661130.0	
1314	14002		QUERQUEVILLE	49.67	-1.7	19440901.0	19450131.0	
1315	34023		SALON DE PROVINCE	43.63	5.1	19440801.0	19440930.0	
1316	14009		ST NAZAIRE	47.32	-2.15	19541201.0	19550331.0	
1317	34007		ST TROPEZ	43.52	6.67	19440801.0	19440930.0	
1318	34072		SUIPPES GUN RANGE	49.15	4.63	19600201.0	19670228.0	
1319	34073		THIONVILLE	49.7	6.2	19600901.0	19600930.0	
1320	34051		TOUL ROSIERE	48.77	5.98	19520301.0	19670131.0	
1321	34071		VERDUN	49.12	5.47	19591101.0	19670228.0	
1322	34020		VESOUL MU 2	47.62	6.17	19440901.0	19440930.0	
1323	34045		VILLACUUBLAY	48.77	2.2	19450301.0	19460228.0	
1324	10510		GALLION	4.8	-52.42	19451001.0	19451231.0	
1325	10501		ROCHAMBEAU	4.83	-52.37	19430601.0	19460331.0	
1326	61502		BORA BORA AAF	-16.45	-151.77	19430701.0	19440831.0	
1327	61503		BORA BORA NF	-16.47	-151.75	19420401.0	19451130.0	
1328	34172		ANSBACH	49.32	10.63	19460601.0	19841130.0	
1329	34070		BAD KREUZNACH	49.85	7.88	19591101.0	19841130.0	
1330	35105		BAD NEUSTADT	50.33	10.2	19450801.0	19451031.0	
1331	34197		BAD TOLZ	47.77	11.6	19640901.0	99991231.0	
1332	34183		BAMBERG	49.9	10.83	19461101.0	19461231.0	
1333	34077		BAUMHOLDER	49.65	7.3	19650201.0	19840630.0	
1334	35103		BERLIN	52.48	13.43	19450801.0	19460731.0	
1335	34049		BITBURG	49.95	6.57	19520401.0	19841130.0	
1336	35001		BREMEN	53.05	8.8	19460401.0	19480228.0	
1337	35109		CELLE	52.58	10.03	19481201.0	19490831.0	
1338	34068		COLEMAN	49.57	8.47	19590801.0	19850131.0	
1339	34168		ERDING	48.32	11.93	19460401.0	19571130.0	
1340	34164		ERLANGEN	49.6	11.03	19470701.0	19470930.0	
1341	35033		ESCHBORN	50.13	8.55	19460901.0	19470228.0	
1342	35108		FASSBERG	52.85	10.18	19481101.0	19490831.0	
1343	34198		FEUCHT	49.38	11.17	19680101.0	99991231.0	
1344	35011		FRANKFURT	50.13	8.57	19460901.0	19460930.0	
1345	35008		FRITZLAR	51.12	9.28	19460501.0	19471031.0	
1346	35053		FULDA	50.55	9.65	19600901.0	99991231.0	
1347	34178		FURSTENFELDBRUCK	48.2	11.27	19460701.0	19571130.0	
1348	34176		FURTH	49.5	10.95	19460301.0	19710630.0	
1349	34184		FURTH	49.48	10.97	19470601.0	19470630.0	
1350	34196		GABLINGEN	48.45	10.87	19630901.0	19690831.0	
1351	34036		GIEBELSTADT	49.65	9.97	19460801.0	19600531.0	
1352	34189		GRAFENWOHR	49.7	11.93	19590101.0	99991231.0	
1353	35009		HANAU	50.17	8.97	19460201.0	19831031.0	
1354	34046		HEIDELBERG	49.4	8.65	19461101.0	19841130.0	
1355	34195		HOHENFELS	49.22	11.83	19610901.0	99991231.0	
1356	34055		HUNSRUCK	49.95	7.27	19530701.0	19841130.0	
1357	34190		ILLESHEIM	49.47	10.38	19590301.0	99991231.0	
1358	34069		KARLSRUHE	49.02	8.37	19591001.0	19660228.0	
1359	35012		KASSEL	51.43	9.5	19450801.0	19470930.0	
1360	34161		KAUFBEUREN	47.87	10.62	19450601.0	19571130.0	
1361	34163		KITZINGEN	49.75	10.2	19460201.0	19470930.0	
1362	34191		KITZINGEN	49.75	10.2	19590801.0	99991231.0	
1363	34078		LAHR	48.37	7.82	19670901.0	99991231.0	
1364	34169		LANDSBERG	48.08	10.92	19511201.0	19571130.0	
1365	34186		LECHFELD	48.18	10.87	19460401.0	19470331.0	
1366	34075		MAINZ	49.97	8.15	19620201.0	99991231.0	
1367	34032		MANNHEIM HQ CONST	49.47	8.52	19470801.0	19480228.0	
1368	34193		MULHAUSEN	48.33	10.9	19591101.0	19650228.0	
1369	34174		MUNCHEN	48.13	11.7	19460601.0	19540630.0	
1370	35004		MUNSTER	51.0	7.73	19450601.0	19450630.0	
1371	34171		NEUBIBERG	48.07	11.65	19460201.0	19580131.0	
1372	35002		NORDHOLZ	53.8	8.65	19440701.0	19470228.0	
1373	34177		NURNBURG	49.5	11.08	19550101.0	19701231.0	
1374	34175		OBERPFAFFENHOFEN	48.08	11.28	19460801.0	19490831.0	
1375	34079		PIRMASENS AHP	49.22	7.62	19720701.0	19840228.0	
1376	34050		RAMSTEIN	49.43	7.6	19520301.0	19841130.0	
1377	35032		RHEIN MAIN	50.03	8.58	19460901.0	99991231.0	
1378	35056		ROSE	50.18	8.67	19650501.0	19841130.0	
1379	35107		SCHEEINFURT	50.05	10.17	19460201.0	19471031.0	
1380	34074		SCHWAEBISCH HALL	49.12	9.78	19620101.0	99991231.0	
1381	34056		SEMBACH	49.5	7.87	19530701.0	19841130.0	
1382	34199		SIENGENBURG GUN RNG	48.75	11.8	19680401.0	99991231.0	
1383	34057		SOELLINGEN	48.8	8.1	19550101.0	99991231.0	
1384	34054		SPANGDAHLEM	49.98	6.7	19530501.0	19841130.0	
1385	34180		STRAUBING	48.88	12.58	19460701.0	19470930.0	
1386	34192		STRAUBING	48.82	12.58	19591001.0	19650228.0	
1387	34041		STUTTGART	48.68	9.22	19461001.0	19740731.0	
1388	35110		TEGEL	52.57	13.3	19490201.0	19490831.0	
1389	35104		TEMPELHOF	52.48	13.4	19460401.0	19790228.0	
1390	34076		WERTHEIM	49.75	9.5	19641101.0	19841231.0	
1391	35010		WIESBADEN	50.05	8.33	19460201.0	19840831.0	
1392	35057		WUESCHHEIM AS	50.03	7.42	19871001.0	99991231.0	
1393	34058		ZWEIBRUCKEN	49.22	7.4	19550101.0	19841130.0	
1394	10001		ACCRA	5.6	-0.17	19420701.0	19450930.0	
1395	33206		ATHENS	37.97	23.72	19441101.0	19460430.0	
1396	33206		ATHENS	37.9	23.73	19610101.0	19661231.0	
1397	33208		IRAKLION	35.33	25.17	19640801.0	19710531.0	
1398	33209		SOUDA BAY CRETE	35.53	24.15	19730801.0	99991231.0	
1399	16301		ANGMAGSSALIK	65.6	-37.55	19420201.0	19431031.0	
1400	16411		ATTERBURY DOME	65.33	-40.3	19421001.0	19440930.0	
1401	17615		CAMP CENTURY	77.17	-61.13	19600501.0	19650831.0	
1402	17617		CAMP TUTO EAST ASC S	76.38	-67.92	19601101.0	19630831.0	
1403	17612		CAMP TUTO ICECAP ST	76.42	-68.25	19570601.0	19580930.0	
1404	17611		CAMP TUTO ICECAP STA	76.42	-68.32	19570601.0	19650831.0	
1405	17614		CAMP TUTO ICECAP STA	76.4	-68.13	19570601.0	19600930.0	
1406	17503		CAMP TUTO SITE 2	76.98	-56.07	19580601.0	19600831.0	
1407	17616		CAMP TUTO WEST ASC S	76.47	-68.67	19600901.0	19630831.0	
1408	16403		CAPE ADELAER	61.87	-42.42	19431101.0	19460831.0	
1409	16303		CAPE DAN	65.53	-37.17	19431001.0	19450930.0	
1410	16408		COMANCHE BAY	65.07	-40.23	19431201.0	19450930.0	
1411	16501		CRUNCHER ISLAND	66.03	-53.57	19420901.0	19480831.0	
1412	17203		DANEBORG	74.5	-20.23	19450901.0	19460731.0	
1413	16502		EGEDESMINDE	68.7	-52.87	19430101.0	19490930.0	
1414	16409		FREDERICKSDAL	61.0	-49.0	19430201.0	19430430.0	
1415	16414		FREDERICKSDAL	59.93	-44.63	19440601.0	19451231.0	
1416	16415		FREDERIKSHAAB	61.98	-49.7	19430101.0	19470630.0	
1417	16505		GODHAVEN	69.25	-53.5	19420101.0	19421231.0	
1418	16506		GODTHAAB	64.17	-51.53	19420601.0	19421231.0	
1419	16507		HOLSTEINSBORG	66.92	-53.67	19430901.0	19500228.0	
1420	16305		ICE CAP	68.25	-36.5	19560401.0	19560831.0	
1421	16419		ICE CAP SITE 1 DYE 2	66.48	-46.28	19580701.0	19610331.0	
1422	16420		ICE CAP SITE 2 DYE 3	65.18	-43.83	19580701.0	19610331.0	
1423	17607		ICECAP	77.0	-56.08	19530701.0	19570630.0	
1424	16302		IKATEQ	65.93	-36.68	19421101.0	19471031.0	
1425	16404		IVIGTUT	61.22	-48.12	19430201.0	19510831.0	
1426	16304		KANGERDLUGSSUAK	68.15	-31.75	19450901.0	19460831.0	
1427	16307		KULUSUK ISLAND DYE 4	65.53	-37.18	19610101.0	99991231.0	
1428	17502		KUTDLIGSSAT	70.02	-52.82	19471201.0	19520831.0	
1429	16503		MARRAK POINT	63.43	-51.18	19430101.0	19480930.0	
1430	16416		MINT JULEP	66.28	-47.77	19530501.0	19530831.0	
1431	16402		NARSAK POINT	60.9	-46.0	19440601.0	19470831.0	
1432	16405		NARSARSSUAK	61.18	-45.42	19410701.0	19581031.0	
1433	16406		PRINCE CHRISTIAN SOU	60.05	-43.2	19421201.0	19481231.0	
1434	16508		QAQATOQAQA DYE-1	66.63	-52.87	19610101.0	99991231.0	
1435	17201		SCORESBYSUND	70.48	-21.97	19411001.0	19441231.0	
1436	16407		SIMIUTAK	60.68	-46.53	19420501.0	19570630.0	
1437	16401		SKJOLDUNGEN	63.18	-41.33	19421201.0	19460930.0	
1438	16504		SONDRESTROM	67.02	-50.8	19411101.0	19730331.0	
1439	16306		STARLIGHT 27	69.38	-35.92	19560401.0	19560831.0	
1440	17301		STARLIGHT 28	70.62	-36.17	19560401.0	19560831.0	
1441	16417		STARLIGHT 29	68.07	-42.33	19560401.0	19560831.0	
1442	16418		STARLIGHT 30	69.55	-43.17	19560401.0	19560831.0	
1443	17602		THULE	76.55	-68.82	19430901.0	19520731.0	
1444	17603		THULE B SITE	76.53	-68.33	19520501.0	19520831.0	
1445	17610		THULE MILE 60 SIERRA	77.23	-62.33	19530701.0	19540831.0	
1446	17605		THULE OP SITE	76.52	-68.83	19511001.0	19841130.0	
1447	17604		THULE ORIGINAL SITE	76.52	-68.83	19510901.0	19511031.0	
1448	17606		THULE SITE 1 ETAL	78.13	-71.62	19530701.0	19561130.0	
1449	17501		UPERNAVIK	72.75	-56.0	19430601.0	19481031.0	
1450	17202		WALRUS BAY	70.5	-21.97	19440801.0	19490731.0	
1451	16413		WEST BLUIE	61.17	-45.67	19420501.0	19420831.0	
1452	11642		POINT A PITRE	16.27	-61.52	19560301.0	99991231.0	
1453	41416		GUAM AIR SAMPLE STN	13.43	144.78	19830502.0	99991231.0	
1454	41405		GUAM HARMON AFB	13.52	144.82	19450401.0	19500731.0	
1455	41403		GUAM KAGMAN POINT	15.17	145.78	19440701.0	19451031.0	
1456	41409		GUAM KAGMAN POINT	15.17	145.78	19450701.0	19450831.0	
1457	41410		GUAM MARPI POINT	15.27	145.82	19450501.0	19450831.0	
1458	41407		GUAM MARSHALL ISLAND	13.47	144.25	19300101.0	19461231.0	
1459	41414		GUAM MARSHALL ISLAND	13.58	144.92	19480501.0	19950101.0	
1460	41414		GUAM MARSHALL ISLAND	13.58	144.92	19950101.0	99991231.0	
1461	41406	91212.0	GUAM NAS	13.48	144.8	19560401.0	19560430.0	
1462	41406	91212.0	GUAM NAS	13.48	144.8	19560430.0	19820101.0	
1463	41406	91212.0	GUAM NAS	13.48	144.8	19820101.0	19930125.0	
1464	41406	91212.0	GUAM NAS	13.48	144.8	19930125.0	19950401.0	
1465	41406	91212.0	GUAM NAS	13.48	144.8	19950401.0	19960620.0	
1466	41406	91212.0	GUAM NWSO TIYAN	13.48	144.8	19440901.0	19560401.0	
1467	41406	91212.0	GUAM NWSO TIYAN	13.48	144.8	19960620.0	19980101.0	
1468	41415	91212.0	GUAM NWSO TIYAN	13.48	144.8	19980101.0	20000111.0	
1469	41401		GUAM OROTE	13.43	144.63	19450601.0	19480531.0	
1470	41411		GUAM OROTE	13.43	144.63	19441201.0	19480531.0	
1471	41417		ANDERSEN AFB	13.45	144.81	19930916.0	99991231.0	
1472	41415	91217.0	GUAM TAGUAC WSMO	13.55	144.83	19560701.0	19560901.0	
1473	41415	91217.0	GUAM WB	13.55	144.83	19571001.0	19610101.0	
1474	41415	91217.0	GUAM WSMO	13.55	144.83	19610101.0	19820101.0	
1475	41415	91217.0	GUAM WSMO	13.55	144.83	19820101.0	19851004.0	
1476	41415	91217.0	GUAM WSMO	13.55	144.83	19851004.0	19960723.0	
1477	41415	91217.0	GUAM WSMO	13.56	144.84	19960723.0	19980401.0	
1478	41415	91217.0	TAGUAC WB	13.55	144.83	19560901.0	19570831.0	
1479	41415	91212.0	GUAM NWSO TIYAN	13.48	144.8	20000111.0	99991231.0	
1480	11901		GUATEMALA CITY	14.53	-90.57	19731101.0	99991231.0	
1481	11901		GUATEMALA CITY	14.58	-90.53	19420201.0	19460131.0	
1482	11802		PUERTO BARRIOS	15.72	-88.6	19430601.0	19440430.0	
1483	11902		SAN JOSE	13.92	-90.83	19420801.0	19460731.0	
1484	11102		BISSAU DJABEL	11.87	-15.63	19430201.0	19430331.0	
1485	10502		GEORGETOWN	6.5	-58.25	19410801.0	19490531.0	
1486	10508		GEORGETOWN	6.5	-58.25	19430501.0	19431130.0	
1487	11717		CAP HAITEIN	19.0	-72.0	19941001.0	19941130.0	
1488	11702		CAPE HAITIEN	19.75	-72.2	19430801.0	19450630.0	
1489	11710		PORT AU PRINCE	18.55	-72.33	19170301.0	19690731.0	
1490	11701		PORT AU PRINCE BOWEN	18.55	-72.35	19420601.0	19460331.0	
1491	11709		PORT AU PRINCE NAS	18.53	-72.37	19250101.0	19340731.0	
1492	11716		PORT AU PRINCE USAF	18.58	-72.3	19940901.0	99991231.0	
1493	11816		CHOLUTECA	13.3	-87.18	19730101.0	99991231.0	
1494	11815		LANDIVAR	17.52	-88.2	19161201.0	99991231.0	
1495	11806		PUERTO CASTILLA	16.02	-85.95	19421101.0	19451130.0	
1496	11821		SAN LORENZO	15.0	-86.0	19830901.0	99991231.0	
1497	11819		SAN LORENZO CAMP FON	13.45	-87.42	19830901.0	99991231.0	
1498	11820		SOTO CANO AB	14.22	-87.1	19830801.0	19961101.0	
1499	11820		SOTO CANO AB	14.22	-87.1	19961101.0	99991231.0	
1500	11807		SWAN ISLAND	17.4	-83.93	19290801.0	19800331.0	
1501	11817		TEGUCIGALPA D C	14.03	-87.23	19760601.0	99991231.0	
1502	11811		TELA	15.77	-87.45	19230101.0	19570630.0	
1503	11822		CUCUYAGUA	14.63	-88.88	19840525.0	99991231.0	
1504	11824		KQIW	14.0	-88.0	19850218.0	99991231.0	
1505	11823		LE MESA	15.45	-87.92	19850211.0	99991231.0	
1506	64101		HEGYHATSAL AIR SAMPL	46.97	16.38	19930301.0	99991231.0	
1507	16101		CAMP DELTA	65.67	-18.08	19440101.0	19440831.0	
1508	16205		HEIMAEY AIR SAMP STN	63.25	-20.15	19921002.0	99991231.0	
1509	91004		ICE SKATE B	80.0	-113.0	19600301.0	19601231.0	
1510	16104		KASSOS	65.53	-18.07	19430501.0	19440131.0	
1511	16201	4018.0	KEFLAVIK	63.97	-22.6	19421001.0	19950101.0	
1512	16201	4018.0	KEFLAVIK	63.97	-22.6	19950101.0	99991231.0	
1513	16204		KEFLAVIK	63.95	-22.62	19470501.0	19510831.0	
1514	16202		REYKJAVIK	64.13	-21.95	19410901.0	19441031.0	
1515	16203		REYKJAVIK	64.13	-21.93	19420201.0	19431031.0	
1516	16102		VIK	63.42	-19.07	19440301.0	19451231.0	
1517	32934		AGARTALA	23.88	91.25	19450101.0	19450131.0	
1518	32701		AGRA	27.17	78.03	19420801.0	19460331.0	
1519	32814		ALIPORE	22.52	88.32	19440301.0	19440630.0	
1520	32911		BALIJAN	27.55	95.03	19431201.0	19440331.0	
1521	32801		BAMRAULI	25.43	81.83	19420601.0	19450930.0	
1522	31701		BANGALORE	12.95	77.63	19420901.0	19460531.0	
1523	32815		BARRACKPORE	22.77	88.37	19440401.0	19460430.0	
1524	32822		BHAGALPUR	25.5	87.0	19450301.0	19450630.0	
1525	32907		BINDUKURI	26.72	92.8	19430501.0	19450930.0	
1526	31702		BOMBAY	19.08	72.88	19440601.0	19451231.0	
1527	32820		CAWNPORE	26.47	80.35	19450601.0	19451031.0	
1528	32901		CHABUA	27.5	95.12	19420801.0	19460430.0	
1529	32803		CHAKULIA	22.45	86.7	19421101.0	19451031.0	
1530	32816		CHHARRA	23.37	86.55	19440301.0	19440630.0	
1531	32818		COOCH BEHAR	26.33	89.45	19430201.0	19430731.0	
1532	32920		DERGAON	26.72	93.95	19440201.0	19450731.0	
1533	32947		DIBRUGARH	27.47	94.92	19460201.0	19460331.0	
1534	32807		DUDHKUNDI	22.33	87.12	19440101.0	19451231.0	
1535	32804		DUM DUM	22.63	88.47	19430901.0	19460131.0	
1536	32944		GAUHATI	26.18	91.75	19450301.0	19450930.0	
1537	32805		GAYA	24.75	84.95	19421101.0	19460131.0	
1538	32802		GUSHKARA	23.47	87.78	19431201.0	19441231.0	
1539	32915		HAILAKUNDI	24.72	92.53	19440201.0	19440531.0	
1540	32702		JODHPUR	26.27	73.05	19430801.0	19451231.0	
1541	32904		JORHAT	26.72	94.17	19430401.0	19451031.0	
1542	32812		KALAIKUNDA	22.33	87.22	19440101.0	19450630.0	
1543	32811		KHARAGPUR	22.3	87.33	19440101.0	19450930.0	
1544	32928		LEDO	27.37	95.78	19440901.0	19451031.0	
1545	32912		LILIBARI	27.22	94.1	19431101.0	19440430.0	
1546	32810		MADHAIGANJ	23.63	87.35	19440101.0	19441231.0	
1547	32909		MISAMARI	26.8	92.62	19431001.0	19450930.0	
1548	32906		MOHANBERI	27.48	95.02	19430201.0	19451031.0	
1549	32913		MOKALBARI	27.48	95.03	19431101.0	19440430.0	
1550	32917		MORAN	27.15	94.9	19440201.0	19450228.0	
1551	32914		NAGAGHULI	27.53	95.03	19431101.0	19440430.0	
1552	32809		NAWADIH	24.6	84.88	19431201.0	19440430.0	
1553	32808		ONDAL	23.62	87.2	19430601.0	19451231.0	
1554	32813		PANAGARH	23.47	87.45	19440101.0	19460228.0	
1555	32819		PANDAVESWAR	23.72	87.28	19450101.0	19450930.0	
1556	32908		PANITOLA	27.52	95.27	19431201.0	19450930.0	
1557	32817		PIARDOBA	22.97	87.3	19440301.0	19450930.0	
1558	32821		RUPSI	26.13	89.83	19450601.0	19450930.0	
1559	32918		SADIYA	27.85	95.67	19431101.0	19440630.0	
1560	32935		SHAMSHERNAGOR	24.38	91.92	19450101.0	19451031.0	
1561	32910		TEOK	26.85	94.43	19440101.0	19440228.0	
1562	30703		TRIVANDRUM	8.5	76.87	19660701.0	99991231.0	
1563	32932		TULIHAL	24.77	93.9	19441201.0	19450930.0	
1564	31801		VIZAGAPATAM	17.72	83.23	19441101.0	19460731.0	
1565	32703		WILLINGDON	28.58	77.2	19420701.0	19460228.0	
1566	80304		BIAK ISLAND	-1.17	136.23	19440501.0	19440630.0	
1567	80311		BIAK ISLAND FAW 17	-1.25	136.38	19441101.0	19441231.0	
1568	80309		BIAK ISLAND NF	-1.27	136.38	19450101.0	19450930.0	
1569	40302		FANI ISLAND AAF	1.08	131.27	19441101.0	19441231.0	
1570	80502		GUASOPA AAF	-9.2	152.95	19430701.0	19450228.0	
1571	80406		MERAUKE AAF	-8.53	140.42	19421001.0	19450930.0	
1572	80308		MIDDLEBURG IS AAF	-0.35	132.18	19450301.0	19450930.0	
1573	80310		MIOS WOENDI NF	-1.25	136.37	19440801.0	19440831.0	
1574	40201		MOROTAI AAF	2.03	128.3	19440901.0	19450930.0	
1575	80301		NOEMFOOR IS AAF	-0.95	134.82	19440701.0	19450131.0	
1576	80303		OWI ISLAND	-1.23	136.2	19440601.0	19441031.0	
1577	40303		PEGUN ISLAND	0.82	134.28	19441101.0	19450831.0	
1578	32902		SOOKERATING	27.57	95.57	19430201.0	19451031.0	
1579	80306		SORIDO DROME AAF	-1.18	136.05	19441101.0	19460331.0	
1580	80423		TANAHMERAH	-6.1	140.3	19440401.0	19450228.0	
1581	80302		WAKDE	-1.93	139.02	19440501.0	19450930.0	
1582	33401		ABADAN	30.37	48.23	19431101.0	19460228.0	
1583	33501		AMIRABAD POST	35.72	51.38	19431101.0	19451231.0	
1584	33402		ANDIMESHK	32.45	48.35	19431101.0	19450831.0	
1585	33406		CAMP PARKS	34.85	48.53	19441001.0	19450831.0	
1586	33404		CAMP SCOTT	34.08	49.65	19431001.0	19451231.0	
1587	33403		DOROUD	33.47	49.05	19431001.0	19451231.0	
1588	33407	40650.0	BAGHDAD	33.33	44.4	19540101.0	19581201.0	
1589	33405		HABBANIYA	33.37	43.57	19440601.0	19460228.0	
1590	33305		RUTBA	32.93	39.73	19440901.0	19451231.0	
1591	15031		CLUNTOE TYRONE	54.63	-6.52	19431001.0	19441031.0	
1592	15046		MACE HEAD AIR SAMPLE	53.33	-9.9	19910603.0	99991231.0	
1593	33301		LYDDA	32.0	34.9	19430901.0	19451031.0	
1594	34123		AMENDOLA	41.55	15.72	19440401.0	19450531.0	
1595	34101		AMENDOLA MU 9	41.72	15.37	19440101.0	19450430.0	
1596	34187		AVIANO	46.03	12.6	19551101.0	19841130.0	
1597	34109		BARI	41.13	16.78	19440201.0	19460430.0	
1598	34002		BASTIA CORSICA	42.7	9.45	19431201.0	19440930.0	
1599	34017		BASTIA CORSICA	42.55	9.48	19450501.0	19451130.0	
1600	34006		BIGUGLIA CORSICA	42.6	9.45	19440701.0	19441031.0	
1601	33125		BOCADIFAL	38.12	13.32	19430901.0	19431031.0	
1602	34003		C DELORO CORSICA	41.92	8.8	19431001.0	19441031.0	
1603	33019		CAGLIARI SARDINIA	39.25	9.08	19431101.0	19460630.0	
1604	33110		CASTEL VETRANO MU 10	37.67	12.77	19431001.0	19440228.0	
1605	34122		CASTELUCCIO	41.28	15.47	19440401.0	19450531.0	
1606	34153		CASTIGLIONCELLO MU 8	43.4	10.4	19450101.0	19450531.0	
1607	34142		CELONE	41.55	15.55	19441001.0	19450131.0	
1608	34110		CERIGNOLA MU 11+17	41.27	15.92	19431201.0	19450731.0	
1609	34150		CIAMPINO	41.8	12.6	19441201.0	19640331.0	
1610	33127		COMISO ASN	36.98	14.58	19840401.0	99991231.0	
1611	33103		COMUNELLI	37.15	14.17	19430801.0	19430831.0	
1612	33014		DECIMOMANNO	39.3	9.17	19431101.0	19440930.0	
1613	34130		DELLA MADONNA MU 12	41.42	15.65	19440701.0	19450531.0	
1614	34160		FALCONARA	43.62	13.37	19450501.0	19450531.0	
1615	34155		FANO MU 5+11	43.83	13.03	19450401.0	19450731.0	
1616	34139		FLORENCE MU 1+4+10	43.77	11.25	19441001.0	19450930.0	
1617	34104		FOGGIA	41.43	15.53	19431001.0	19460930.0	
1618	34105		FOGGIA MU 18	41.45	15.55	19431001.0	19450531.0	
1619	33111		FONTANA	37.45	15.05	19431001.0	19440331.0	
1620	34119		FRATTAMAGGIORE MU 6	40.88	14.28	19440201.0	19440531.0	
1621	34008		FUORIANI CORSICA	42.7	9.45	19440801.0	19440831.0	
1622	33107		GELA PONTE OLIVO MU1	37.13	14.28	19430901.0	19431031.0	
1623	33108		GERBINI MU 5	37.35	15.02	19430801.0	19430930.0	
1624	34001		GHISONACCIA GARE COR	42.03	9.37	19440201.0	19450228.0	
1625	34134		GIOIA DEL COLLE	40.78	16.93	19440301.0	19450731.0	
1626	34133		GIULIA	41.3	15.83	19440701.0	19450531.0	
1627	34149		GROSETTO MU 3	43.65	10.62	19441201.0	19450430.0	
1628	34121		GROTTAGLIE	40.53	17.43	19430901.0	19450430.0	
1629	34125		LAKE ALBANO	41.75	12.68	19440601.0	19440630.0	
1630	91220		LECCE 34111	40.23	18.13	19440101.0	19450331.0	
1631	34111		LECCE MU 2	40.23	18.13	19440101.0	19450331.0	
1632	34144		LEGHORN MU 7	43.53	10.25	19441001.0	19450430.0	
1633	33124		LICATA	37.1	13.6	19430801.0	19430831.0	
1634	34117		LUCERA	41.5	15.33	19440201.0	19450531.0	
1635	34102		MANDURIA MU 3	40.43	17.63	19431201.0	19450430.0	
1636	34132		MARCIANISE	41.03	14.33	19440701.0	19451130.0	
1637	34013		MIGLIACCIARO CORSICA	42.0	9.4	19441001.0	19450430.0	
1638	34019		MILAN	45.47	9.3	19450901.0	19460731.0	
1639	34126		MOUNT CIRCEO	41.25	13.08	19440601.0	19440630.0	
1640	91209		MU 9 34101	41.72	15.37	19440201.0	19450430.0	
1641	34113		NAPLES	40.9	14.3	19440101.0	19470228.0	
1642	34116		NETTUNO MU 7	41.47	12.63	19440201.0	19440630.0	
1643	34127		ORBETELLO MU 6	42.43	11.27	19440601.0	19440731.0	
1644	33117		PALERMO MU 10	38.12	13.33	19430801.0	19460228.0	
1645	34129		PANTANELLA	41.1	15.93	19440601.0	19450531.0	
1646	33118		PANTELLERIA ISLAND M	36.8	11.95	19430601.0	19430831.0	
1647	34147		PISA	43.68	10.4	19450101.0	19471031.0	
1648	34103		POMIGLIANO	40.92	14.43	19431001.0	19450831.0	
1649	34151		PONTEDERA MU 13	42.77	11.07	19441201.0	19450531.0	
1650	34005		PORTETTA CORSICA	42.57	9.45	19440701.0	19450630.0	
1651	34118		PRESENZANO	41.37	14.07	19440101.0	19440331.0	
1652	34004		PRUNELLI CORSICA	42.0	9.38	19440401.0	19440831.0	
1653	34158		RIMINI MU 16	44.05	12.57	19450401.0	19450531.0	
1654	34188		RIVOLTO	45.82	13.05	19580401.0	19580930.0	
1655	34128		ROME	41.87	12.67	19440601.0	19450430.0	
1656	34138		ROSIGNANO MU 1	43.35	10.48	19440901.0	19440930.0	
1657	34140		SAN GIOVANNI 454 BG	41.23	15.8	19440701.0	19450531.0	
1658	34137		SAN GIOVANNI 455 BG	41.23	15.8	19440701.0	19441130.0	
1659	34114		SAN MARCO MU 2	41.2	14.02	19440401.0	19440531.0	
1660	34112		SAN PANCRAZIO MU 12	40.43	17.85	19431101.0	19450430.0	
1661	34107		SAN SEVERO	41.7	15.43	19440101.0	19450531.0	
1662	34152		SANTA LUCIA	44.07	11.25	19441201.0	19450531.0	
1663	34009		SERRAGIA CORSICA	42.48	9.5	19440901.0	19441231.0	
1664	34141		SIENA MU 10	43.28	11.38	19441001.0	19441031.0	
1665	34143		SIENA MU 4	43.25	11.23	19441001.0	19450131.0	
1666	33126		SIGONELLA	37.4	14.92	19600301.0	19690630.0	
1667	34145		SPINAZZOLA	40.95	16.23	19441101.0	19450430.0	
1668	34115		SPINAZZOLA MU 10	40.95	16.1	19440301.0	19450531.0	
1669	34148		STERAPONE	41.6	15.3	19441101.0	19450531.0	
1670	34154		STORNORA	41.28	15.72	19450201.0	19450531.0	
1671	34156		TARQUINIA MU 13	42.22	11.73	19450301.0	19450430.0	
1672	34124		TORREMAGGIORE	41.68	15.33	19440601.0	19450531.0	
1673	34131		TORRETTO 461 BG	41.18	15.77	19440701.0	19450131.0	
1674	34136		TORRETTO 484 BG	41.18	15.75	19440901.0	19450531.0	
1675	34146		VENOSA	41.0	15.87	19441101.0	19450430.0	
1676	34194		VERONA	45.47	10.93	19600101.0	19700331.0	
1677	34120		VESUVIANO MU 5	40.87	14.47	19440101.0	19440331.0	
1678	34159		VILLA FRANCA MU 1	45.38	10.87	19450501.0	19450630.0	
1679	33004		VILLACIDRO	39.43	8.75	19431201.0	19440930.0	
1680	34108	16094.0	VINCENZA	45.57	11.52	19680901.0	19950101.0	
1681	34108	16094.0	VINCENZA	45.57	11.52	19950101.0	99991231.0	
