	station_id	WMO_id	station_name	latitude	longitude	start_date	end_date	elevation	isRadio
0	24044		ALLIANCE MUNI AP	0.0	0.0	19441231	19470301	1196.9496000000001	
1	54733		BEVERLY MUNICIPAL AP	0.0	0.0	19810731	19930101	46.6344	
2	54733		BEVERLY MUNICIPAL AP	0.0	0.0	19930101	19950101	32.9184	
3	54733		BEVERLY MUNICIPAL AP	0.0	0.0	19950101	19981209	32.9184	
4	13882		CHATTANOOGA WSO AIRPORT	0.0	0.0	19480801	19480831	210.0072	
5	13882		CHATTANOOGA WSO AIRPORT	0.0	0.0	19480831	19510101	210.0072	
6	4839		HOLLAND TULIP CITY	0.0	0.0	19811130	19930101	211.5312	
7	4839		HOLLAND TULIP CITY	0.0	0.0	19930101	19950101	210.0072	
8	4839		HOLLAND TULIP CITY	0.0	0.0	19950101	19960621	210.0072	
9	13809		LAWRENCEVILLE INT AP	0.0	0.0	19460131	19681001	131.9784	
10	24110		MOSES LAKE GRANT CO	0.0	0.0	19450430	19490301		
11	53884		NEWNAN COWETA COUNTY AIRPORT	0.0	0.0	10101	99991231	295.656	
12	13737		NORFOLK WSO AIRPORT	0.0	0.0	19480101	19480131	11.8872	
13	24023	72562.0	NORTH PLATTE WB ARPT	0.0	0.0	19471201	19471231	850.0872	
14	12972		ROCKPORT ARANSAS CO	0.0	0.0	19810501	19930101	8.8392	
15	12972		ROCKPORT ARANSAS CO	0.0	0.0	19930101	19960229	7.62	
16	25629		TOGIAK	0.0	0.0	19910417	99991231	6.7056000000000004	
17	33601	40948.0	KABUL INTL	34.72	69.22	19570701	99991231	1791.0048000000002	
18	33013		AIN EL	36.38	6.62	19430301	19441231	611.124	
19	33001		AIN MLILA	36.07	6.58	19430301	19430831	770.2296	
20	33005		ALGIERS	36.77	3.05	19430301	19430831	48.1584	
21	33045		ALGIERS	36.77	3.08	19430401	19440531	142.0368	
22	33034		ANNABA	36.83	7.8	19450601	19451031	1.2192	
23	33007		BERTEAUX	32.1	6.45	19430101	19430630	757.1232	
24	33008		BISKRA	34.85	5.77	19430101	19430331	64.00800000000001	
25	33006		BLIDA	36.5	2.82	19421201	19431130	170.07840000000002	
26	33011		CANROBERT	35.87	7.13	19430301	19430430	876.3000000000001	
27	33012		CHATEAUDUN DU RHUMEL	36.17	6.33	19430201	19430831	763.2192	
28	33018		EL GUERRAH	36.13	6.62	19430201	19430930	770.2296	
29	33031		LA SENIA	35.62	0.62	19421101	19451231	88.08720000000001	
30	33016		LE KHROUB	36.3	6.7	19440701	19450831	559.0032	
31	33023		MAISON BLANCHE	36.72	3.23	19430401	19460131	23.1648	
32	33025		MASCARA	35.38	0.12	19430501	19430630		
33	33028		MONTESQUIEU	36.13	7.82	19430401	19430630	932.0784000000001	
34	33029		NAVARIN	36.08	5.8	19430801	19431130	924.1536000000001	
35	33030		NOUVION	35.68	0.18	19430101	19430630	100.2792	
36	33033		ORLEANSVILLE	36.2	-1.32	19430101	19430430	143.256	
37	33002		REGHAIA	36.77	3.4	19430901	19451031	34.1376	
38	33035		RELIZANE	35.75	0.63	19430101	19430630	74.0664	
39	33042		ST DONAT	36.2	5.97	19430301	19430831	860.1456000000001	
40	33043		TAFARAOUI	35.45	-0.53	19421101	19430331	114.30000000000001	
41	33044		TELERGMA	36.12	6.35	19430101	19440630	754.0752	
42	12001		TINDOUF	27.68	-8.15	19430301	19450630	443.17920000000004	
43	61707		CAPE MATATULA OBSRVY	-14.25	-170.57	19751101	99991231	42.062400000000004	
44	61706		PAGO PAGO AMERICAN S	-14.25	-170.57	10101	99991231	706.2216000000001	
45	61704		LEONE BAY AMERICAN S	-14.37	-170.78	19620401	19620731	21.031200000000002	
46	61705		PAGO PAGO WB AP	-14.33	-170.72	19660401	19701001	3.048	
47	61705		PAGO PAGO WSO AIRPORT	-14.33	-170.72	19701001	19820101	3.048	
48	61705		PAGO PAGO WSO AIRPORT	-14.33	-170.72	19820101	19950101	3.048	
49	61705		PAGO PAGO WSO AIRPORT	-14.33	-170.72	19950101	20040401	3.048	
50	61702		TAFUNA AMERICAN SAMO	-14.33	-170.68	19400501	19500531	3.048	
51	61705		PAGO PAGO WSO AIRPORT	-14.33	-170.71	20040401	99991231	3.6576000000000004	
52	73701		AMSTERDAM IS AIR SAM	-37.95	77.53	19830102	19901207	150.2664	
53	87701		ADARE HALLETT	-72.3	170.22	19570201	19690228	5.1816	
54	90001		AMUNDSEN-SCOTT	-90.0	0.0	19570201	99991231		
55	68601		BEARDMORE CAMP	-85.03	-164.67	19570101	19570228	230.12400000000002	
56	88702		BEARDMORE CAMP	-83.4	174.75	19581101	19640228	59.1312	
57	68701		BROCKTON STATION	-80.02	-178.42	19661001	19720131	101.1936	
58	68201		BYRD STATION	-80.02	-119.53	19570101	19841231	1543.2024000000001	
59	57701		EIGHTS	-75.23	-77.17	19611101	19651130	421.2336	
60	57401		ELLSWORTH IGY	-77.73	-41.12	19570301	19621130	43.281600000000005	
61	57201		HALLEY BAY AIR SAMPL	-75.67	-25.5	19830117	99991231	10.0584	
62	87603		HUT POINT	-77.88	166.73	19621001	99991231	26.2128	
63	67601		LITTLE AMERICA	-78.2	-162.25	19560201	19590930	32.004000000000005	
64	88703		LITTLE JEANA STATION	-81.38	170.75	19641001	19660131	54.254400000000004	
65	67401		LITTLE ROCKFORD	-79.25	-147.5	19601001	19620228	651.0528	
66	67402		LITTLE ROCKFORD	-76.27	-147.5	19621001	19650228	591.0072	
67	67501		LITTLE ROCKFORD	-79.58	-152.93	19591001	19600930	52.1208	
68	88701		LIV	-83.28	175.75	19571101	19571130	183.1848	
69	87602		MARBLE POINT	-77.42	163.68	19571201	19590131	48.1584	
70	87601		MCMURDO SOUND NAF	-77.88	166.73	19560301	99991231	24.0792	
71	87604		MCMURDO STN AIR SAMP	-77.83	166.6	19851204	19871028	11.277600000000001	
72	89061	89061.0	PALMER STATION	-64.77	-64.08	19790101	19841231	7.9248	
73	56601		PALMER STN AIR SAMPL	-64.92	-64.0	19830101	99991231	10.0584	
74	77401		PLATEAU STATION	-79.47	40.58	19651201	19681231	3505.2000000000003	
75	57801	89083.0	SIPLE STATION	-75.92	-83.92	19780101	19840131	54.254400000000004	
76	90002		SOUTH POLE OBSERVTRY	-90.0	-24.8	19580101	99991231	2810.2560000000003	
77	76301		SYOWA AIR SAMPLE STN	-69.0	39.58	19860125	99991231	11.277600000000001	
78	86101		WILKES	-66.27	110.57	19570301	19590201	11.277600000000001	
79	86101		WILKES	-66.27	110.57	19590201	19631231	12.192	
80	86102		WILKES ICE CAP STATI	-66.47	112.28	19580301	19581031		
81	11647		ST JOHNS	17.13	-61.78	19570901	99991231	19.2024	
82	11604		ST JOHNS COOLIDGE FI	17.12	-61.78	19411101	19490831	10.0584	
83	52601		TARTAGAL	-22.77	-63.82	19661101	19661231	450.18960000000004	
84	50102		ASCENSION IS AIR SAM	-7.92	-14.42	19830511	99991231	54.254400000000004	
85	50101		ASCENSION ISLAND	-7.97	-14.4	19421001	19950101	83.2104	
86	50101		ASCENSION ISLAND	-7.97	-14.4	19950101	99991231	83.2104	
87	82301		ALICE SPRINGS	-23.63	133.58	19421201	19421231	579.12	
88	82502		AMBERLY	-27.6	152.72	19430201	19450731	27.127200000000002	
89	82501		ARCHER	-27.58	153.02	19430501	19440930	19.2024	
90	83502		BANKSTOWN	-33.8	151.0	19420901	19420930		
91	81304		BATCHELOR FIELD	-13.05	131.07	19430101	19430630	107.28960000000001	
92	82506		BRISBANE	-27.43	153.08	19441001	19460131	2.1336	
93	82507		BRISBANE	-27.45	153.08	19431001	19441031	3.048	
94	81401		CAIRNS	-16.88	145.75	19430101	19450131	2.1336	
95	84401		CAPE GRIM AIR SAMPLE	-40.68	144.68	19840419	99991231	94.1832	
96	82402		CHARLEVILLE	-26.42	146.27	19420701	19430331	300.228	
97	82401		CHARTERS TOWERS	-20.03	146.13	19420601	19441231	299.0088	
98	82403		CLONCURRY	-20.68	140.5	19420601	19441031	188.0616	
99	71901		COCOS ISLAND	-12.2	96.87	19450601	19450731	1.2192	
100	83504		COFFS HARBOUR	-30.32	153.13	19421001	19430228	4.2672	
101	81403		COOKTOWN	-15.45	145.18	19421101	19441130	6.096	
102	81302		DARWIN	-12.43	130.87	19440801	19450131	37.1856	
103	81301		FENTON FIELD	-13.3	131.13	19430301	19441130	131.064	
104	81410		HIGGIN	-10.93	142.48	19440901	19450131	14.020800000000001	
105	81406		HOEVETT	-17.05	145.4	19420601	19440630	443.17920000000004	
106	81404		HORN ISLAND	-10.6	142.3	19420601	19440930	12.192	
107	81405		IRON RANGE	-12.7	143.3	19420901	19441130	18.288	
108	82504		JONDARYAN	-27.25	151.42	19431201	19441231	413.004	
109	81306		KATHERINE	-14.45	132.27	19421201	19430331	108.20400000000001	
110	82404		LONGREACH	-23.45	144.13	19420801	19430731	187.1472	
111	82405		MACKAY	-21.17	149.17	19430401	19450831	8.2296	
112	81411		NORMANTON SITE 8	-17.72	141.13	19640201	19640430	9.144	
113	82101		NORTHWEST CAPE	-22.33	114.05	19430501	19760630	38.1	
114	83101		PERTH	-31.98	115.82	19440101	19440630	4.2672	
115	81412		PRINCESS CHARLOTTE B	-14.4	144.25	19640101	19640731	262.128	
116	81307		RANTYIRRITY POINT	-14.18	135.9	19640401	19640430	8.2296	
117	81407		REID RIVER	-19.77	146.85	19421001	19430331	122.2248	
118	82409		RICHMOND	-20.92	143.38	19640601	19640731	215.18880000000001	
119	82503		ROCKHAMPTON	-23.4	150.5	19430501	19450930	13.1064	
120	83503		SYDNEY	-33.95	151.2	19430901	19450831	4.2672	
121	83405		TOCUMWAL	-35.8	145.6	19420901	19421130	113.08080000000001	
122	82408		TORRENS CREEK	-21.42	145.23	19420901	19421031	396.24	
123	81408		TOWNSVILLE	-19.27	146.75	19430101	19450930	5.1816	
124	83508		WILLIAMTOWN	-32.8	151.8	19420901	19430131	16.154400000000003	
125	81409		WOODSTOCK	-19.6	146.83	19430201	19431031	64.00800000000001	
126	34182		HORSCHING	48.23	14.18	19460601	19490131	301.1424	
127	34166		SALZBURG	47.8	13.0	19450501	19461231	435.25440000000003	
128	34165		VIENNA	48.32	16.13	19460401	19550930	176.17440000000002	
129	13202		HORTA	38.53	-28.63	19431201	19440831	29.260800000000003	
130	13201		LAJES AB	38.73	-27.32	10101	99991231	1016.2032	
131	13204		TERCEIRA	38.82	-27.08	19441101	19450630	53.0352	
132	13205		TERCEIRA IS AIR SAMP	38.75	-27.08	19830517	99991231	30.1752	
133	13203		VILLA DO PORTO	36.97	-25.17	19440701	19460930	101.1936	
134	12703		ABRAHAM BAY	22.35	-72.98	19440601	19451031	3.048	
135	12709		ABRAHAM BAY	22.35	-72.83	19490801	99991231		
136	12713		ELEUTHERA ISLAND	25.27	-76.3	19520201	19710630	10.0584	
137	12712		GOLD ROCK CREEK	26.62	-78.37	19510101	19710630	6.096	
138	12708		GRAND TURK ISLAND	21.5	-71.03	19000701	19630831	3.048	
139	12714		GRAND TURK ISLAND	21.43	-71.13	19541101	19780228	3.048	
140	12704		GREAT EXUMA ISLAND	23.5	-75.75	19450601	19451031	19.2024	
141	12706		GREAT EXUMA ISLAND	23.52	-75.78	19420901	19450630	19.2024	
142	12715		MAYAGUAN	22.37	-73.03	19550101	19571031	21.031200000000002	
143	12710		NASSAU	25.05	-77.33	19390101	19431231		
144	12717		NASSAU AP	25.05	-77.47	19390101	19470228	7.010400000000001	
145	12717	78073.0	NASSAU AP	25.05	-77.47	19720901	19950101	3.048	
146	12717	78073.0	NASSAU AP	25.05	-77.47	19950101	99991231	3.048	
147	11708		NAVASSA ISLAND	18.48	-75.02	19440301	19440930	20.1168	
148	11713		NAVASSA ISLAND	18.4	-75.02	19170101	19291031		
149	12716		SAN SALVADOR	24.07	-74.52	19550201	19641231	9.144	
150	12702		SOUTH CAICOS ISLAND	21.48	-71.52	19440101	19470930	4.2672	
151	12707		WALKER CAY	27.27	-78.38	19431101	19440630	9.144	
152	32509		SHAIKH ISA NODE 023	25.92	50.58	19900823	19910531	1.8288000000000002	
153	11501		CHRISTS CHURCH	13.07	-59.5	19430901	19451231	55.168800000000005	
154	11504		RAGGED PT AIR SAMPLE	13.17	-59.43	19871114	99991231	3.048	
155	35007		ENSIVAL	50.58	5.87	19450201	19450831	140.208	
156	35006		KEERBERGEN	51.0	4.62	19450201	19450430	10.0584	
157	11818		BELIZE CITY	17.53	-88.3	10101	99991231	5.1816	
158	13601	78016.0	BERMUDA	32.37	-64.68	19700701	99991231	6.096	
159	13601	78016.0	BERMUDA	32.37	-64.68	19411201	19700701	6.096	
160	13602		BERMUDA	32.27	-64.85	19411201	19650531	13.1064	
161	13604		SOUTHHAMPTON AIR SAM	32.27	-65.88	19890511	99991231	30.1752	
162	13603		ST DAVIDS HEAD AIR S	32.37	-64.65	19890213	99991231	30.1752	
163	51601		LA PAZ	-16.52	-68.18	19630901	19950101	4069.0800000000004	
164	51601		LA PAZ	-16.52	-68.18	19950101	99991231	4069.0800000000004	
165	64117		CAMP DEMI	44.22	18.73	19990101	99991231	510.54	
166	10504		AMAPA	2.08	-50.87	19430401	19460930	10.0584	
167	10507		AMAPA	2.08	-50.87	19431201	19440831	10.0584	
168	51304		ARATU	-12.78	-38.5	19430601	19450531	45.110400000000006	
169	52402		CAMP DO MARTE	-23.52	-46.62	19550201	19590228	720.2424000000001	
170	51401		CAMP ECLIPSE	-17.2	-43.67	19470401	19470531		
171	51303		CARAVELLAS	-17.67	-39.27	19440101	19450531	10.0584	
172	10505		CLEVELANDIA	3.87	-51.82	19431001	19451031	29.260800000000003	
173	50301		FERNANDO DE NORONHA	-3.83	-32.42	19430501	19620430	38.1	
174	50305		FERNANDO DE NORONHA	-3.85	-32.42	19440801	19450531	40.2336	
175	50310		FERNANDO DE NORONHA	-3.85	-32.42	19440601	19440731	42.062400000000004	
176	50302		FORTALEZA	-3.77	-38.55	19430401	19460930	23.1648	
177	50306		FORTALEZA	-3.73	-38.57	19440101	19450531	26.2128	
178	52501		GRAVATAI	-29.95	-51.13	19500601	19541231	25.2984	
179	11503		HARP	13.1	-59.62	19660101	99991231	10.0584	
180	50404		IGARAPE	-1.07	-47.62	19450501	19450930	57.302400000000006	
181	50405		IGARAPE	-1.07	-47.62	19440101	19450331	57.302400000000006	
182	51301		IPITANGA	-12.9	-38.35	19430801	19460331	7.010400000000001	
183	51302		IPITANGA	-12.9	-38.35	19431001	19450430	6.096	
184	10506		MACAPA	0.03	-51.02	19430701	19450930	15.24	
185	50307		MACEIO	-9.52	-35.82	19431201	19450630	112.16640000000001	
186	50308		NATAL	-5.88	-35.23	19430901	19440630	48.1584	
187	50402		PANAIR	-2.9	-40.87	19430501	19450930	7.010400000000001	
188	50304		PARNAMIRIM	-5.9	-35.25	19430801	19460930	50.292	
189	50303		RECIFE	-8.12	-34.92	19430801	19660930	9.144	
190	50309		RECIFE FAW 16	-8.12	-34.92	19431201	19440731	10.0584	
191	52401		SANTA CRUZ	-22.92	-43.78	19431201	19450831	3.048	
192	50403		SAO LUIZ	-2.58	-44.23	19430501	19460831	47.244	
193	50406		SAO LUIZ	-2.6	-44.52	19431201	19440831	53.0352	
194	50401		VAL DE CANS	-1.38	-48.48	19421001	19461031	13.1064	
195	32945		AKYAB	20.13	92.88	19450301	19460430	7.010400000000001	
196	32952		ALON	22.22	95.1	19450201	19450228	74.0664	
197	32939		BAHE	23.38	96.57	19450201	19450831	126.1872	
198	32936		BHAMO	24.27	97.25	19450101	19451031	123.1392	
199	32950		DWEHLA	21.63	96.03	19450401	19450430	77.1144	
200	32903		FT HERTZ	27.4	97.4	19430301	19441031	455.06640000000004	
201	32940		INDAINGGALE	23.28	94.08	19450101	19450228	121.0056	
202	32943		KUTKAI	23.47	97.92	19450301	19450531	372.1608	
203	31902		KYAUKPYU RAMREE ISLA	19.43	93.57	19450401	19450630	6.096	
204	32942		LASHIO	22.98	97.75	19450301	19450831	750.1128	
205	32922		MAINGKWAN	26.33	96.62	19440501	19440531	204.216	
206	32953		MEIKTILA	20.88	95.88	19450301	19450430	229.20960000000002	
207	32949		MYINGYAN	21.48	95.43	19450401	19450531	79.248	
208	32927		MYITKYINA	25.38	97.35	19440501	19450930	146.304	
209	32930		MYITKYINA	25.42	97.4	19441101	19450531	137.16	
210	31901		RANGOON	16.92	96.15	19450601	19451231	34.1376	
211	32929		SAHMAW	25.23	96.78	19441001	19450531	179.22240000000002	
212	32925		SHINGBWIYANG	26.68	96.22	19440401	19450831	208.1784	
213	32938		SHWEBO	22.58	95.73	19450201	19450930	125.2728	
214	32941		SINTHE	21.4	94.63	19450201	19450331	125.2728	
215	32923		SUMPRABUM	26.55	97.55	19440401	19441031	1053.084	
216	32924		TINGKAWK SAKAN	26.07	96.72	19440501	19450228	246.2784	
217	32931		WAINGMAW	25.38	97.45	19441101	19450430	145.0848	
218	32926		WARAZUP	25.8	96.65	19440501	19450930	187.1472	
219	31903		ZAYATKWIN	17.13	96.33	19450501	19450531	9.144	
220	94646		BATHHURST AIRPORT	47.63	-65.75	20021125	99991231	59.1312	
221	25112		BANFF	51.18	-115.57	19340101	99991231	1397.2032000000002	
222	25133		BEAVERLODGE	55.2	-119.45	19350801	19541231	762.0	
223	25140		BEAVERLODGE	55.18	-119.37	19591001	19640131	762.0	
224	25146		BROOKS	50.55	-111.9	19660201	99991231	758.0376	
225	25110		CALGARY	51.1	-114.02	19340101	19950101	79.248	
226	25110		CALGARY	51.1	-114.02	19950101	99991231	79.248	
227	25130		CALGARY	51.1	-114.02	19430401	19450731	79.248	
228	25144		CANOE LAKE	54.95	-110.38	19630401	19710131	735.1776	
229	25136		CHESTERMERE LAKE	51.03	-113.73	19460301	19480930		
230	25126		CLARESHOLM	50.0	-113.63	19410801	19580930	14.020800000000001	
231	25129		COLD LAKE	54.42	-110.28	19521101	99991231	544.068	
232	25113		CORONATION	52.1	-111.45	19440501	99991231	798.2712	
233	94111		COWLEY	49.63	-114.08	19390201	19600831	1182.0144	
234	25102		EDMONTON	53.57	-113.52	19431201	19450131	666.2928	
235	25111		EDMONTON	53.57	-113.52	19281001	99991231	676.0464000000001	
236	25142		EDMONTON	53.32	-113.58	19590501	19950101	719.0232000000001	
237	25142		EDMONTON	53.32	-113.58	19950101	99991231	719.0232000000001	
238	25108		EDMONTON NAMAO	53.67	-113.48	19431201	19460331	697.0776000000001	
239	25108		EDMONTON NAMAO	53.67	-113.47	19550801	99991231	699.2112000000001	
240	25145		EDMONTON STONY	53.55	-114.1	19660101	99991231	767.1816	
241	25141		EDSON	53.58	-116.45	19600201	99991231	924.1536000000001	
242	25157		EDSON AUT	53.58	-116.45	19700501	99991231	925.0680000000001	
243	25103		EMBARRAS	58.2	-111.38	19430101	19620930	236.22	
244	25114		FAIRVIEW	56.07	-118.38	19310901	19700430	658.0632	
245	25104		FAWCETT	54.47	-114.1	19430501	19450831	624.2304	
246	25151		FOOTNER FR	58.62	-117.17	19701001	99991231	336.19440000000003	
247	25143		FT CHIPEWYAN	58.72	-111.15	19621001	19671031	219.15120000000002	
248	25148		FT CHIPEWYAN	58.77	-111.12	19671101	99991231	228.29520000000002	
249	25131		FT VERMILION	58.38	-116.05	19480501	19710131	283.1592	
250	25115		GRANDE PRAIRIE	55.18	-118.88	19420101	99991231	668.1216000000001	
251	25147		HIGH LEVEL	58.52	-117.1	19670601	19701031	327.0504	
252	25137		HIGH RIVER	50.47	-114.17	19210701	19290630	1183.2336	
253	25116		JASPER	52.88	-118.07	19340901	99991231	1061.0088	
254	25155		JASPER HINTON	53.32	-117.75	19710901	99991231	223.11360000000002	
255	25117		KEG RIVER	57.78	-117.83	19350701	19570430	427.0248	
256	25125		LAC LA BICHE	54.77	-112.02	19440501	99991231	559.0032	
257	25158		LAC LA BICHE AUT	54.77	-112.02	19581001	99991231	568.1472	
258	25109		LITTLE SMOKEY	55.32	-116.98	19431001	19431231	611.124	
259	94148		MACLEOD	49.7	-113.42	19410401	19441031	960.12	
260	25105		MCMURRAY	56.65	-111.22	19340101	19441231	371.2464	
261	25118		MEDICINE HAT	50.02	-110.72	19340101	99991231	721.1568000000001	
262	25138		MORLEY	51.17	-114.85	19200901	19201031		
263	25139		OGDEN	50.97	-113.98	19460301	19480930		
264	25101		PEACE RIVER	56.23	-117.43	19431201	19450930	569.0616	
265	94153		PINCHER CREEK	49.5	-113.95	19600801	99991231	1155.192	
266	94164		PINCHER CREEK AP	49.52	-114.0	19790601	99991231	190.1952	
267	94159		PINCHER CREEK AUT	49.5	-113.95	19600801	99991231	115.51920000000001	
268	94165		PINCHER CREEK AUT	49.52	-114.0	19790601	99991231	190.1952	
269	25154		PRIMROSE LAKE ROK SD	54.8	-110.08	19670401	99991231	703.1736000000001	
270	25119		RED DEER	52.18	-113.9	19380201	99991231	904.0368000000001	
271	25121		ROCKY MOUNTAIN HOUSE	52.38	-114.92	19450101	99991231	1015.2888	
272	25156		ROCKY MOUNTAIN HOUSE	52.43	-114.92	19780101	99991231	988.1616	
273	25159		ROCKY MOUNTAIN HOUSE	52.43	-114.9	19690601	99991231	988.1616	
274	25160		ROCKY MOUNTAIN HOUSE	52.43	-114.92	19780101	99991231	988.1616	
275	25153		SLAVE LAKE	55.3	-114.78	19711101	99991231	584.3016	
276	25132		STONEY MOUNTAIN	56.38	-111.27	19571001	19640131	780.288	
277	25122		SUFFIELD	50.27	-111.18	19450401	99991231	775.1064	
278	25106		VALLEY VIEW	55.08	-117.25	19440201	19450831	739.14	
279	25123		VERMILION	53.35	-110.83	19450801	99991231	621.1824	
280	25135		VULCAN	50.4	-113.43	19430901	19450531	1183.2336	
281	25107		WAGNER	55.35	-114.98	19430601	19711130	584.3016	
282	25124		WHITECOURT	54.13	-115.67	19420501	99991231	741.2736	
283	25161		WHITECOURT AUT	54.15	-115.78	19780801	99991231	406.2984	
284	25166		CALGARY SPRINGBANK I	51.1	-114.03	19841211	99991231	1200.3024	
285	25165		EDMONTON BILLENTUVE	53.67	-113.87	19841101	99991231	686.1048000000001	
286	94188		LETHBRIDGE	49.7	-112.78	19851015	99991231	899.4648000000001	
287	25168		SOUSA CREEK	58.58	-118.5	19901210	19950101	373.0752	
288	25168		SOUSA CREEK	58.58	-118.5	19950101	99991231	373.0752	
289	24288		ABBOTSFORD	49.02	-122.37	19440301	19950101	60.0456	
290	24288		ABBOTSFORD	49.02	-122.37	19950101	99991231	60.0456	
291	25212		ALERT BAY	50.58	-126.93	19390101	99991231	52.1208	
292	94233		ALLISON PASS	49.13	-120.83	19580901	99991231	1341.1200000000001	
293	25230		ALTA LAKE	50.15	-122.95	19501001	99991231	668.1216000000001	
294	94272		AMPHITRITE POINT	48.92	-125.55	10101	99991231	651.0528	
295	25213		ASHCROFT	50.7	-121.32	19441001	19710331	488.2896	
296	25351		ATLIN	59.58	-133.72	19340101	19460930	732.1296	
297	25163		BANFF	51.2	-115.55	19810201	99991231	397.1544	
298	25214		BEATTON RIVER	57.38	-121.38	19440201	19671031	840.0288	
299	25240		BELLA BELLA	52.15	-128.08	19400101	19451231	12.192	
300	14628		BLISSVILLE	45.62	-66.55	19400101	19510430	22.250400000000003	
301	25149		BLUE RIVER	52.02	-119.07	19691201	99991231	683.0568000000001	
302	25162		BLUE RIVER AUT	52.12	-119.3	19790601	99991231	307.2384	
303	25354		BONILLA ISLAND	53.5	-130.63	19650501	99991231	14.020800000000001	
304	94229		BOUNDARY BAY	49.0	-122.73	19421201	19450930	2.1336	
305	25215		BULL HARBOUR	50.92	-127.95	19381201	99991231	4.2672	
306	25252		BURNS LAKE	54.22	-125.77	19690201	19901201	704.0880000000001	
307	25201		CAMP BLUEBERRY	56.7	-121.75	19430701	19450831	905.2560000000001	
308	94241		CAMPBELL RIVER	49.95	-125.27	19670201	99991231	98.1456	
309	94252		CAMPBELL RIVER AUT	49.95	-125.27	19790601	99991231	656.2344	
310	24289		CAPE LAZO	49.7	-124.87	19351101	19620930	38.1	
311	25250		CAPE SCOTT	50.78	-128.42	19651201	99991231	72.2376	
312	25342		CAPE ST JAMES	51.93	-131.02	19441201	99991231	89.00160000000001	
313	94109		CARMI	49.5	-119.08	19381201	19621231	245.0592	
314	94110		CASTLEGAR	49.3	-117.63	19480101	99991231	492.252	
315	25244		CHATHAM POINT	50.33	-125.43	19580601	99991231	20.1168	
316	24291		CHILLIWACK	49.17	-121.95	19490301	19491031	6.096	
317	25254		CLINTON	51.15	-121.05	19710101	99991231	1056.132	
318	25245		COAL HARBOUR	50.43	-127.58	19420101	19450731	14.020800000000001	
319	25202		COAL RIVER	59.65	-127.07	19501001	19610731	507.1872	
320	24292		COMOX	49.72	-124.9	19440101	19950101	23.1648	
321	24292		COMOX	49.72	-124.9	19950101	99991231	23.1648	
322	94112		CRANBROOK	49.53	-115.77	19371201	19680228	918.0576000000001	
323	94157		CRANBROOK	49.6	-115.78	19680301	99991231	928.1160000000001	
324	94113		CRESCENT VALLEY	49.45	-117.57	19390301	19651130	610.2096	
325	25203		DAWSON CREEK	55.75	-120.25	19430501	19450831	671.1696000000001	
326	25238		DAWSON CREEK	55.78	-120.2	19571001	19640131	781.2024	
327	25248		DAWSON CREEK	55.73	-120.18	19640101	99991231	660.1968	
328	25352		DEADTREE POINT	53.37	-131.93	19390201	19481231	14.020800000000001	
329	25305		DEASE LAKE	58.42	-130.0	19440901	19451031	816.2544	
330	94237		DEPARTURE BAY RS	49.23	-123.95	19591001	99991231	18.288	
331	25216		DOG CREEK	51.63	-122.25	19440201	19601130	1027.1760000000002	
332	24293		ESTEVAN POINT	49.38	-126.53	19340101	99991231	5.1816	
333	94250		ESTEVAN POINT	49.38	-126.55	19790201	99991231	823.2648	
334	25239		ETHELDA BAY	53.05	-129.68	19571201	99991231	6.096	
335	94254		FATURNA ISLAND AUT	48.78	-123.05	10101	99991231	823.2648	
336	25217		FINLAY FORKS	56.0	-123.82	19450501	19510731	579.12	
337	25210		FORT NELSON	58.83	-122.58	19420201	19450630	375.2088	
338	25258		FORT SAINT JAMES AUT	54.42	-124.42	10101	99991231	328.2696	
339	25211		FORT ST JOHN	56.3	-120.83	19420701	19440228	674.2176000000001	
340	25231		FORT ST JOHN	56.23	-120.73	19420101	99991231	693.1152000000001	
341	25218		FT NELSON MUSKWA	58.83	-122.58	19370901	99991231	375.2088	
342	25232		GERMANSEN LANDING	55.78	-124.7	19510801	99991231	747.0648	
343	25237		HOLBERG	50.65	-128.0	19560701	99991231	569.0616	
344	24294		HOPE	49.38	-121.43	19361001	99991231	46.0248	
345	94283		HOPE	49.37	-121.48	19890209	99991231	39.0144	
346	94244		HOPE AUT	49.37	-121.48	19751101	99991231	39.0144	
347	25241		HUDSON HOPE	56.03	-121.92	19350801	19440930	490.1184	
348	25219		IVORY ISLAND	52.27	-128.4	19480801	19541231	15.24	
349	25220		KAMLOOPS	50.72	-120.42	19340101	99991231	345.03360000000004	
350	94151		KELOWNA	49.97	-119.38	19590201	99991231	428.244	
351	25234		KELSEY BAY	50.38	-125.95	19540201	19540930	5.1816	
352	94114		KIMBERLEY	49.73	-115.78	19420901	19690831	919.2768000000001	
353	25356		KINDA RUN POINT	53.32	-132.77	10101	99991231	638.2512	
354	25221		KLENA KLEENE	51.98	-124.65	19400401	19680531	899.1600000000001	
355	25343		LANGARA	54.25	-133.05	19360701	99991231	41.148	
356	25259		LAWN POINT AUT	50.33	-127.97	19800201	99991231	820.2168	
357	94108		LETHBRIDGE	49.63	-112.8	19360901	99991231	920.1912000000001	
358	25253		LIARD RIVER	59.45	-126.15	19691001	99991231	464.21040000000005	
359	25242		LILLODET	50.68	-121.93	19420501	19441231	255.1176	
360	25304		LOG CABIN	59.77	-134.98	19431201	19470131	884.2248000000001	
361	25222		LYTTON	50.23	-121.57	19440801	99991231	175.26000000000002	
362	25271		LYTTON	50.23	-121.58	19890209	99991231	258.16560000000004	
363	25255		MACKENZIE	55.3	-123.13	19710201	99991231	699.2112000000001	
364	25344		MASSET	54.0	-132.17	19441001	19490630	13.1064	
365	25236		MCINNES ISLAND	52.27	-128.72	19540201	99991231	23.1648	
366	25249		MCLEOD LAKE	55.03	-123.03	19650701	19710831	704.0880000000001	
367	24295		MERRY ISLAND	49.47	-123.9	19420601	99991231	58.216800000000006	
368	25306		MORLEY RIVER	59.5	-131.77	19450301	19460831	1021.08	
369	94160		MOUNT KOBAU OBSERVAT	49.12	-119.68	19660501	99991231	1862.0232	
370	25204		MUNCHO LAKE	58.92	-125.77	19430901	19450831	830.2752	
371	24290		NANAIMO	49.05	-123.87	19470101	99991231	32.004000000000005	
372	94149		NELSON	49.48	-117.28	19340101	19511231	539.1912	
373	25228		NELSON FORKS	59.5	-124.0	19450301	19450630		
374	25233		NEW HAZELTON	55.23	-127.6	19720201	99991231	351.12960000000004	
375	94115		OLD GLORY MOUNTAIN	49.15	-117.92	19440901	19680430	2347.2648	
376	15045		OSV P 17	50.0	-145.0	19501201	99991231		
377	24296		PACHENA POINT	48.72	-125.1	19390301	19590228	46.0248	
378	24297		PATRICIA BAY	48.65	-123.43	19400701	19950101	19.2024	
379	24297		PATRICIA BAY	48.65	-123.43	19950101	99991231	19.2024	
380	94116		PENTICTON	49.47	-119.6	19410401	99991231	342.29040000000003	
381	94235		PITT MEADOWS	49.3	-122.68	19590901	19600831	3.048	
382	24298		PORT ALBERNI	49.25	-124.8	19470501	19691031	21.031200000000002	
383	94243		PORT ALBERNI	49.25	-124.83	19691101	99991231	3.048	
384	94260		PORT ALBERNI AUT	49.25	-124.83	10101	99991231	818.0832	
385	25223		PORT HARDY	50.68	-127.37	19420701	99991231	23.1648	
386	25206		PRINCE GEORGE	53.88	-122.68	19340101	99991231	676.0464000000001	
387	25345		PRINCE RUPERT	54.28	-130.38	19630101	99991231	52.1208	
388	25353		PRINCE RUPERT	54.3	-130.43	19410101	19630131	34.1376	
389	24299		PRINCETON	49.47	-120.52	19361101	99991231	696.1632000000001	
390	25246		PUNTZI MOUNTAIN	52.17	-124.2	19591001	19660930	1372.2096000000001	
391	25251		PUNTZI MOUNTAIN	52.12	-124.08	19680501	99991231	911.0472000000001	
392	25256		PUNTZI MOUNTAIN AUT	52.12	-124.08	19680501	99991231	910.1328000000001	
393	25224		QUESNEL	53.03	-122.52	19451201	99991231	545.2872	
394	25120		REVELSTOKE	51.0	-118.2	19400101	19691130	456.28560000000004	
395	25150		REVELSTOKE	50.97	-118.18	19691201	99991231	447.14160000000004	
396	25167		REVELSTOKE	50.97	-118.18	19890209	99991231	443.17920000000004	
397	25355		ROSE SPIT AUT	54.2	-131.65	19710701	99991231	2.1336	
398	25346		SANDSPIT	53.25	-131.82	19450901	99991231	6.096	
399	25349		SEAL COVE	54.33	-130.28	19480801	19591130	85.03920000000001	
400	94245		SHERINGHAM POINT AUT	48.38	-123.92	19720601	99991231	3.048	
401	25226		SMITH RIVER	59.9	-126.43	19440401	19691031	673.3032000000001	
402	25225		SMITHERS	54.82	-127.18	19420601	99991231	524.256	
403	94166		SPARWOOD	49.75	-114.88	10101	99991231	169.16400000000002	
404	25227		SPRING ISLAND	50.0	-127.42	19491101	99991231	9.144	
405	25257		STEWART AUT	55.93	-129.98	19741201	99991231	7.010400000000001	
406	94152		SUMMERLAND RS	49.57	-119.65	19591001	99991231	454.15200000000004	
407	25205		SUMMIT LAKE	58.65	-124.63	19440201	19650630	1295.0952	
408	25209		TAKLA LANDING	55.47	-125.95	19441001	19450731	692.2008000000001	
409	25350		TELEGRAPH CREEK	57.9	-131.15	19420701	19551231	168.24960000000002	
410	25229		TERRACE	54.47	-128.58	19440201	99991231	219.15120000000002	
411	94231		TOFINO	49.08	-125.78	19430301	19461031	20.1168	
412	94234		TOFINO	49.08	-125.77	19581101	99991231	24.0792	
413	25347		TRIPLE ISLAND	54.3	-130.88	19460901	99991231	21.031200000000002	
414	25207		TROUT LIARD	59.38	-126.12	19430601	19450831	422.148	
415	25208		TRUTCH	57.75	-122.9	19430701	19450131	857.0976	
416	94232		UCLUELET	48.93	-125.52	19401001	19440930	5.1816	
417	24287		VANCOUVER	49.18	-123.17	19220301	19950101	3.048	
418	24287		VANCOUVER	49.18	-123.17	19950101	99991231	3.048	
419	94246		VANCOUVER HARBOUR	49.3	-123.12	19600601	99991231		
420	94230		VANCOUVER JERICHO BE	49.3	-123.2	19420101	19450930	7.010400000000001	
421	94238		VANCOUVER UNIV OF BC	49.27	-123.25	19591001	19591231	93.2688	
422	25243		VANDERHOOF	54.07	-124.02	19440701	19460630	678.1800000000001	
423	25134		VERNON	50.25	-119.33	19340101	19541231	422.148	
424	25152		VERNON BRIDGE	50.23	-119.28	19711001	99991231	555.0408	
425	94247		VICTORIA GON	48.42	-123.32	19710101	99991231	70.104	
426	94201		VICTORIA GONZALES HE	48.42	-123.32	19340101	99991231	69.1896	
427	94242		VICTORIA MARINE RADI	48.37	-123.75	19671101	99991231	38.1	
428	94226		WESTVIEW	49.82	-124.5	19540101	99991231	152.0952	
429	25235		WILLIAMS LAKE	52.15	-122.13	19390101	19601231	593.1408	
430	25247		WILLIAMS LAKE	52.18	-122.05	19601201	99991231	941.2224	
431	25269		PINK MOUNTAIN FIGURE 2	57.03	-122.52	19860915	99991231	1144.2192	
432	25275			50.13	-122.95	20020705	99991231	657.7584	
433	25366	71484.0	BONNILLA ISLAND	53.5	-130.63	19850507	99991231	16.764	
434	25272	71952.0	BURNS LAKE AP	54.38	-125.95	19901201	99991231	713.2320000000001	
435	25266	71482.0	CATHEDRAL POINT	52.18	-127.47	19850329	99991231	25.2984	
436	25365		GREY ISLET	54.58	-130.7	19841001	99991231	6.096	
437	25267	71481.0	HELMCKEN	50.4	-125.87	19860507	19950101	19.2024	
438	25267	71481.0	HELMCKEN	50.4	-125.87	19950101	99991231	19.2024	
439	25264	71485.0	HERBERT ISLAND	50.93	-127.63	19841026	99991231	16.764	
440	25169		NAKUSP CS	50.27	-117.82	19901224	99991231	512.0640000000001	
441	25268	46182.0	NANAKWA SHOALS	53.82	-128.83	19860528	99991231	1.2192	
442	25270		PEMBERTON ARPT	50.3	-122.73	19880501	99991231	204.216	
443	25364	71477.0	ROSE SPIT AUTOMATIC	54.18	-131.65	19841001	99991231	2.1336	
444	25263	71478.0	SARTINE ISLAND AUTO	50.82	-129.9	19841001	99991231	120.0912	
445	25265		SOLANDER ISLAND	50.12	-127.93	19841124	99991231	87.78240000000001	
446	15916		BEAUSEJOUR	50.15	-96.22	19591101	99991231	300.228	
447	15912		BIRD	56.5	-94.2	19571001	19640131	89.00160000000001	
448	15920		BISSETT	51.03	-95.67	19681101	19701031	258.16560000000004	
449	14997		BRANDON	49.92	-99.95	19410701	99991231	408.1272	
450	25007		BROCHET	57.88	-101.67	19450601	99991231	351.12960000000004	
451	94921		CAMP SHILO	49.82	-99.65	19540701	99991231	382.2192	
452	94924		CARBERRY	49.87	-99.35	19420401	19440930	382.2192	
453	15901		CHURCHILL	58.75	-94.07	19340101	19480331	35.052	
454	25024		CRANBERRY PORTAGE	54.62	-101.35	19571001	19640131	306.0192	
455	15902		DUCK LAKE	59.37	-97.38	19430401	19450731	271.272	
456	25001		FLIN FLON	54.68	-101.68	19481201	99991231	295.0464	
457	15903		GILLAM	56.35	-94.7	19430101	19450831	144.1704	
458	15905		GIMLI	50.63	-97.05	19431001	99991231	221.28480000000002	
459	15922		GIMLI	50.62	-96.98	19711201	99991231	223.11360000000002	
460	15913		GODS LAKE	54.67	-94.13	19361001	19440331	178.00320000000002	
461	15917		GRAND RAPIDS	53.18	-99.27	19651201	99991231	223.11360000000002	
462	15927		GRAND RAPIDS	53.18	-99.27	19801001	99991231	816.2544	
463	94920		GRETNA	49.03	-97.57	19550801	99991231	251.1552	
464	15918		GYPSUMVILLE	51.67	-98.73	19660101	99991231	267.0048	
465	15923		HECLE ISLAND AUT	51.17	-96.63	19750401	99991231	230.12400000000002	
466	15911		HODGSON	51.22	-97.57	19600901	19670331	231.03840000000002	
467	15921		ISLAND LAKE	53.87	-94.67	19701201	99991231	238.0488	
468	15926		ISLAND LAKE AUT	53.87	-94.67	19780101	99991231	862.2792000000001	
469	15910		MACDONALD	50.08	-98.45	19510701	19590531	255.1176	
470	15914		MINNEDOSA	50.25	-99.83	19340101	19511031	587.0448	
471	15906		NEEPAWA	50.23	-99.5	19451001	19621130	388.0104	
472	15915		NORWAY HOUSE	53.97	-97.78	19340101	19460228	219.15120000000002	
473	15924		NORWAY HOUSE AUT	53.97	-97.83	19730301	99991231	223.11360000000002	
474	25009		PAULSON	51.1	-100.05	19400101	99991231	304.1904	
475	94912		PORTAGE LA PRAIRIE	49.9	-98.27	19410701	99991231	264.2616	
476	25014		RIVERS	50.02	-100.32	19380701	19701031	473.0496	
477	94009		SOURIS	49.63	-100.2	19400101	19450831	451.10400000000004	
478	15925		ST ANDREWS AUT	50.05	-97.03	19760301	99991231	231.03840000000002	
479	25004		THE PAS	53.97	-101.1	19340101	19450930	272.1864	
480	15919		THOMPSON	55.8	-97.87	19670401	99991231	212.1408	
481	15904		WABOWDEN	54.92	-98.63	19430301	19710831	233.17200000000003	
482	14996		WINNIPEG	49.9	-97.23	19340101	19950101	240.1824	
483	14996		WINNIPEG	49.9	-97.23	19950101	99991231	240.1824	
484	94916		WINNIPEG	49.9	-97.23	19340101	19380731	240.1824	
485	15929	71859.0	BERENS RIVER	52.35	-97.03	19850401	99991231	221.28480000000002	
486	15930	71442.0	FISHER BRANCH	51.08	-97.55	19850927	99991231	253.2888	
487	15928	71445.0	GEORGE ISLAND AUTO	52.8	-97.62	19840824	99991231	222.50400000000002	
488	94923		PILOT MOUND	49.2	-98.88	19571201	19860930	475.1832	
489	94923	71148.0	PILOT MOUND	49.2	-98.9	19860930	19950101	470.3064	
490	94923	71148.0	PILOT MOUND	49.2	-98.9	19950101	99991231	470.3064	
491	25048	71443.0	SWAN RIVER	52.12	-101.23	19871001	99991231	334.97520000000003	
492	14629		CAMBELLTON	48.0	-66.68	19400101	19661130	5.1816	
493	14683		CHARLO	48.0	-66.33	19661201	99991231	38.1	
494	14631		CHATHAM	47.02	-65.45	19340101	19950101	34.1376	
495	14631		CHATHAM	47.02	-65.45	19950101	99991231	34.1376	
496	14648		FREDERICTON	45.87	-66.53	19510401	19950101	23.1648	
497	14648		FREDERICTON	45.87	-66.53	19950101	99991231	23.1648	
498	14670		FREDERICTON EXP FARM	45.92	-66.62	19591001	19610630	40.2336	
499	14666		FREDERICTON UNIVERSI	45.97	-66.62	19360801	19520930	50.292	
500	14685		GAGETOWN CAMP U	45.85	-66.45	19710101	99991231	41.148	
501	14661		KEDGWICK	47.63	-67.33	19360801	19430430	274.0152	
502	14655		LOCH LOMOND	45.32	-65.88	19470101	19500331	96.012	
503	14678		MISCOU ISLAND	48.02	-64.5	19640801	99991231	5.1816	
504	14625		MONCTON	46.12	-64.68	19391101	19950101	76.2	
505	14625		MONCTON	46.12	-64.68	19950101	99991231	76.2	
506	14641		PENNFIELD RIDGE	45.13	-66.68	19410901	19511231	73.152	
507	14662		SHEDIAC	46.22	-64.53	19380701	19451031	23.1648	
508	14643		ST JOHN	45.32	-65.88	19340101	99991231	107.28960000000001	
509	14664		ST STEPHEN	45.2	-67.27	19471101	19490430	11.277600000000001	
510	14690		ST STEPHEN AUT	45.2	-67.25	19761201	99991231	26.2128	
511	94617	71414.0	POINT ESCUMINAZ	47.07	-64.8	19850825	99991231	4.8768	
512	94609	71703.0	ST LEONARD AP	49.15	-67.83	19850319	99991231	74.0664	
513	14508		ARGENTIA	47.3	-54.0	19450301	19700531	14.020800000000001	
514	15608		ASHUANIPI	52.53	-66.23	19481001	19501231	546.2016	
515	14532		BADGER	49.0	-56.0	19710601	99991231	103.0224	
516	15507		BATTLE HARBOUR LORAN	52.25	-55.6	19571001	19831017	8.2296	
517	14524		BAY ESPOIR ST ALB	47.97	-55.85	19660101	19681031	230.12400000000002	
518	15502		BELLE ISLE	51.88	-55.38	19300101	19701031	130.1496	
519	14522		BONAVISTA	48.7	-53.08	19561101	99991231	25.2984	
520	14510		BOTWOOD	49.15	-55.35	19370801	19501130	9.144	
521	14511		BUCHANS	48.85	-56.83	19431101	19650731	276.1488	
522	14527		BURGEO	47.62	-57.62	19661101	99991231	12.192	
523	15501		CAPE HARRISON	54.77	-58.45	19431101	19620831	10.0584	
524	14512		CAPE RACE	46.65	-53.07	19690101	19700131	30.1752	
525	15503		CARTWRIGHT	53.7	-57.03	19341101	99991231	13.1064	
526	15635		CHURCHILL FALLS	53.55	-64.1	19681101	99991231	435.25440000000003	
527	14528		COMFORT COVE	49.27	-54.88	19670101	99991231	99.06	
528	15504		DANIELS HARBOUR	50.23	-57.58	19461101	99991231	20.1168	
529	14523		DEER LAKE	49.18	-57.47	19650701	99991231	17.0688	
530	14536	71403.0	DEVILS HEAD	49.12	-58.42	19850115	19860424	68.8848	
531	15515		FEROLLE POINT	51.02	-57.1	19850823	99991231	7.9248	
532	14513		FOGO	49.88	-54.28	19341101	19500630	8.2296	
533	14501		GANDER	48.95	-54.57	19410601	19460831	150.2664	
534	14509		GANDER	48.95	-54.57	19370101	19950101	147.2184	
535	14509		GANDER	48.95	-54.57	19950101	99991231	147.2184	
536	15601		GOOSE BAY	53.32	-60.42	19430101	19451031	44.196000000000005	
537	15607		GOOSE LABRADOS	53.32	-60.42	19411201	19501231	44.196000000000005	
538	15615		GRACE LAKE MILE 163	52.27	-65.68	19520701	19530531	610.2096	
539	14514		GRAND BANK	47.1	-55.75	19341001	19660228	8.2296	
540	14537	71402.0	GWILLINGATE	49.67	-54.78	19850115	99991231	92.6592	
541	14503		HARMON	48.53	-58.55	19411001	19660630	26.2128	
542	15602		HEBRON	58.2	-62.63	19431101	19460131	9.144	
543	15602		HEBRON	58.22	-62.58	19470801	19570731	8.2296	
544	15610		HOPEDALE	55.45	-60.23	19420101	19840828	10.0584	
545	14535		KELLIGREWS	47.5	-53.2	19841224	99991231	8.2296	
546	14534	71806.0	LA SCIE	49.92	-55.67	19840101	99991231	192.024	
547	15517		MAKKOVIK AP	55.08	-59.18	19851209	99991231	71.3232	
548	15514		MARYS HARBOR	52.3	-55.83	19831017	99991231	9.144	
549	15518		MARYS HARBOR AUTO	52.3	-55.83	19881031	99991231	9.144	
550	15616		MENIHEK RAPIDS	54.45	-66.6	19520401	19530131	489.204	
551	14519		MILLERTOWN	48.82	-56.53	19350101	19460731	211.2264	
552	14502		MIQUELON ISLAND	46.77	-56.17	19390501	19400831	2.1336	
553	15626		NAIN	56.55	-61.68	19470101	19471231	6.096	
554	15624		NORTHWEST RIVER	53.53	-60.15	19340901	19420630		
555	14505		PEPPERRELL	47.58	-52.7	19411001	19520731	17.0688	
556	14530		PLACENTIA	47.23	-54.02	19701101	99991231		
557	14526		PORT AUX BASQUES	47.57	-59.17	19660601	99991231	8.2296	
558	15508		QUIRPON ISLAND	51.65	-55.45	19430801	19441031	55.168800000000005	
559	15618		ROSS BAY	52.98	-66.23	19530601	19541231	554.1264	
560	15620		SAGLEK	58.48	-62.65	19550101	19601231	18.288	
561	15644	71804.0	SAGLEK 2	58.48	-62.58	19890101	99991231	511.1496	
562	15643		SAGLEK AIRPORT	58.47	-62.65	19890101	99991231	82.9056	
563	14538	71408.0	SAGONA	47.37	-55.8	19850620	99991231	3.6576000000000004	
564	15625		SANDGIRT LAKE	53.83	-65.33	19420401	19480831	453.23760000000004	
565	14529		ST ALBANS	47.85	-55.87	19681101	99991231	17.0688	
566	14515		ST ANDREWS	47.77	-59.33	19431101	19650531	11.277600000000001	
567	15506		ST ANTHONY	51.37	-55.58	19450901	19660131	17.0688	
568	15509		ST ANTHONY	51.48	-55.82	19660101	19700831	6.096	
569	15512		ST ANTHONY	51.37	-55.63	19700901	99991231	111.25200000000001	
570	14520		ST GEORGES	48.43	-58.5	19341101	19441231	3.048	
571	14517		ST JOHNS	47.58	-52.7	19341101	19541231	80.1624	
572	14521		ST JOHNS WEST	47.52	-52.78	19591001	99991231	114.30000000000001	
573	15510		ST LAWRENCE	46.88	-55.42	19660201	99991231	33.2232	
574	14518		ST PIERRE ISLAND	46.78	-56.18	10101	99991231	7.010400000000001	
575	14506		TORBAY	47.62	-52.75	19420101	19430201	141.1224	
576	14506		TORBAY	47.63	-52.7	19430201	19430228	141.1224	
577	14531		TORBAY	47.67	-52.75	19710401	99991231	140.208	
578	14525		TREPASSEY	46.73	-53.17	19660101	19660228	128.01600000000002	
579	14516		TWILLINGATE	49.68	-54.82	19540101	19670131	4.2672	
580	15634		TWIN FALLS	53.63	-64.48	19671001	19681031	457.20000000000005	
581	15628		WABUSH LAKE	52.93	-66.88	19601101	99991231	551.0784	
582	14507		WESLEYVILLE	49.15	-53.58	19431101	19451130	26.2128	
583	15520		ALEXIS RIVER	52.65	-56.87	19901116	99991231	43.281600000000005	
584	14533		ARGENTIA AUTO	47.3	-54.0	19760101	19870114	16.154400000000003	
585	14533	71807.0	ARGENTIA AUTO	47.3	-54.0	19870114	99991231	16.154400000000003	
586	15519		ENGLEE	50.72	-56.12	19890607	99991231	29.260800000000003	
587	15642	71900.0	HOPEDALE AUTO	55.45	-60.23	19861024	99991231	12.192	
588	15516	71405.0	MAKKOVIK	55.08	-59.17	19851125	19861020	76.2	
589	15626	71902.0	NAIN AP	56.55	-61.68	19840828	99991231	7.010400000000001	
590	14691		AMHERST AUT	45.85	-64.27	19760501	99991231	23.1648	
591	14638		BIG FALLS	44.05	-64.72	19400101	19590831	5.1816	
592	14677		CANSO	45.32	-60.97	19631201	19711231	26.2128	
593	14667		CAPE NORTH	47.02	-60.45	19580901	19590430	47.244	
594	14632		COPPER LAKE	45.38	-61.97	19450901	99991231	97.2312	
595	14634		DEBERT	45.42	-63.45	19420101	19600930	44.196000000000005	
596	14676		DEMING	45.22	-61.18	19610401	19631231	16.154400000000003	
597	14635		ECUM SECUM	44.97	-62.13	19400701	19610430	14.020800000000001	
598	14686		EDDY POINT	43.52	-61.25	19711201	99991231	66.1416	
599	14636		GREENWOOD	44.98	-64.92	19420101	19950101	25.2984	
600	14636		GREENWOOD	44.98	-64.92	19950101	99991231	25.2984	
601	14673		HALIFAX	44.88	-63.52	19600601	19950101	141.1224	
602	14673		HALIFAX	44.88	-63.52	19950101	99991231	141.1224	
603	14624		HALIFAX ATL WEA CEN	44.65	-63.57	19340101	19641231	25.2984	
604	14679		HALIFAX CITADEL	44.65	-63.58	19640201	99991231	70.104	
605	14671		HALIFAX DALHOUSIE UN	44.63	-63.57	19591001	19591031	70.104	
606	14651		HALIFAX MARITIME GR	44.63	-63.57	19390901	19631031	41.148	
607	14669		HARTLEN POINT	44.58	-63.47	19591001	19630228	31.0896	
608	14687		INVERNESS AMOS	46.23	-61.3	19711201	99991231	39.0144	
609	14692		INVERNESS AUT	46.23	-61.3	19711201	99991231	39.0144	
610	14650		KELLY LAKE	44.87	-63.55	19530101	19540228	126.1872	
611	14672		KENTVILLE RADAR STAT	45.07	-64.48	19591001	19601231	15.24	
612	14649		LUCASVILLE	44.75	-63.73	19511101	19540228	130.1496	
613	14652		LURCHER LIGHTSHIP	43.82	-66.53	10101	19691031		
614	14640		NEW GLASGOW	45.62	-62.62	19450701	19501231	97.2312	
615	14694		PORT HASTINGS CANAL	45.65	-61.42	19740701	99991231	3.048	
616	14642		SABLE ISLAND	43.93	-60.02	19340101	99991231	4.2672	
617	14653		SAMBRO LIGHTSHIP	44.37	-63.43	10101	99991231		
618	14633		SHEARWATER	44.63	-63.5	19380901	19950101	41.148	
619	14633		SHEARWATER	44.63	-63.5	19950101	99991231	41.148	
620	14693		SHELBURNE	43.72	-65.25	19721101	99991231	30.1752	
621	14644		ST PAUL ISLAND	47.2	-60.15	19340101	19560731	32.004000000000005	
622	14646		SYDNEY	46.17	-60.05	19340101	19950101	60.0456	
623	14646		SYDNEY	46.17	-60.05	19950101	99991231	60.0456	
624	14675		TRURO	45.37	-63.27	19601001	19870101	40.2336	
625	14675		TRURO	45.37	-63.27	19870101	99991231	40.2336	
626	14668		WESTERN HEAD	43.98	-64.67	19590801	99991231	7.010400000000001	
627	14663		WOLFVILLE	45.08	-64.37	19340101	19490930	41.148	
628	14647		YARMOUTH	43.83	-66.08	19340101	99991231	41.148	
629	94619		BEAVER ISLAND AUTO	44.82	-62.33	19860424	99991231	9.7536	
630	94611	71415.0	CARIBOU POINT	45.77	-62.68	19850515	99991231	2.1336	
631	94618	71416.0	FOURCHU HEAD	45.72	-60.23	19860714	99991231	10.0584	
632	94610	71419.0	HART ISLAND	45.35	-60.98	19850503	99991231	4.2672	
633	94608		MCNABS ISLAND	44.6	-63.53	19841218	99991231	17.0688	
634	94616		ST PAUL ISLAND	47.23	-60.13	19851120	99991231	15.24	
635	94621	71398.0	TRURO AUTO	45.37	-63.22	19770401	99991231	40.2336	
636	94620	71603.0	YARMOUTH	43.87	-66.1	19880901	99991231	9.144	
637	26317		AKLAVIK	68.23	-135.0	19340101	19601130	9.144	
638	18601		ALERT	82.5	-62.33	19500601	99991231	62.1792	
639	18605		ALERT AIR SAMPLE STN	82.45	-62.52	19850610	99991231	210.0072	
640	17801		ARCTIC BAY	73.0	-85.28	19430401	19440831	5.1816	
641	17802		ARCTIC BAY	73.0	-85.3	19370901	19471231	10.0584	
642	16903		BAKER LAKE	64.3	-96.0	19460201	19471231	11.277600000000001	
643	16910		BAKER LAKE	64.3	-96.0	19801001	99991231	673.3032000000001	
644	26004		BATHURST INLET	66.85	-108.02	19560901	19620930	13.1064	
645	16609		BREVOORT ISLAND	63.35	-64.17	19591101	99991231	371.2464	
646	16608		BROUGHTON ISLAND	67.55	-64.05	19560501	99991231	581.2536	
647	26001		CAMBRIDGE BAY	69.12	-105.02	19350101	19601031	14.020800000000001	
648	26005		CAMBRIDGE BAY	69.1	-105.13	19601001	99991231	23.1648	
649	16705		CAPE DORSET	64.22	-76.53	19700901	99991231	9.144	
650	16607		CAPE DYER	66.58	-61.62	19590801	99991231	368.1984	
651	16696		CAPE DYER	66.58	-61.62	19551201	19590831	370.0272	
652	17703		CAPE HERSCHEL	78.62	-74.7	19730601	19740930	60.0456	
653	16692		CAPE HOOPER	68.43	-66.78	19560301	99991231	401.1168	
654	27202		CAPE PARRY	70.17	-124.68	19590901	99991231	16.154400000000003	
655	27291		CAPE PARRY	70.17	-124.68	19550801	19590930	15.24	
656	16610		CAPE WARWICK RES I	61.58	-64.65	19620301	99991231	368.1984	
657	26114		CAPE YOUNG PIN 2	68.93	-116.92	19660401	19670831	17.0688	
658	16904		CHESTERFIELD	63.33	-90.72	19211101	19471231	6.096	
659	26294		CLINTON POINT	69.58	-120.75	19570601	99991231	101.1936	
660	17601		CLYDE	70.45	-68.55	19330901	19480831	2.1336	
661	26112		CONTWOYTO LAKE	65.48	-110.37	19560701	99991231	451.10400000000004	
662	26107		COPPERMINE	67.82	-115.08	19340101	19471231	7.010400000000001	
663	26115		COPPERMINE AP	67.82	-115.15	19780101	99991231	79.248	
664	16801		CORAL HARBOUR	64.2	-83.37	19430301	19471231	59.1312	
665	17704		CORURG ISLAND	75.9	-79.03	19720701	19740930	3.048	
666	17805		DEVON ISLAND	74.67	-84.67	19610901	19620831		
667	16795		DEWAR LAKE	68.65	-71.17	19560601	99991231	518.1600000000001	
668	27003		DRAKE EAST	76.42	-107.82	19741101	19750430		
669	17803		DUNDAS HARBOUR	74.5	-82.5	19451001	19500831	5.1816	
670	16612		DURBAN ISLAND FOX E	67.1	-62.17	19630301	19630331	754.0752	
671	26002		ENNADAI LAKE	61.13	-100.92	19490101	99991231	325.2216	
672	26007		ENNADAI LAKE AUT	61.13	-100.9	10101	99991231	981.1512	
673	16901		ESKIMO POINT	61.07	-94.05	19430301	19450731	8.2296	
674	18801		EUREKA	80.22	-86.18	19470601	19601231	10.0584	
675	16905		FERGUSON LAKE	62.87	-96.82	19450401	19450930	122.2248	
676	16793		FOLEY	68.95	-75.3	19560401	99991231	162.1536	
677	26210		FORT GOOD HOPE	61.75	-121.23	19631001	99991231	176.17440000000002	
678	26213		FORT LIARD	60.23	-123.47	19730701	99991231	213.0552	
679	26206		FORT NORMAN	64.9	-125.5	19340101	19510131	91.1352	
680	26003		FORT RELIANCE	62.72	-109.1	19481001	99991231	164.2872	
681	26101		FORT RESOLUTION	61.17	-113.68	19340101	19471231	167.03040000000001	
682	17902		FORT ROSS	71.92	-94.25	19380901	19480331	15.24	
683	26203		FORT SIMPSON	61.87	-121.35	19340101	19631031	129.23520000000002	
684	26102		FORT SMITH	60.02	-111.97	19340101	19471231	203.3016	
685	26118		FORT SMITH U-A	60.03	-111.93	19780101	99991231	827.2272	
686	26201		FORT WRIGLEY	63.2	-123.33	19430601	19441130	141.1224	
687	26207		FT GOOD HOPE	66.25	-128.63	19340101	19541231	77.1144	
688	26211		FT GOOD HOPE	66.27	-128.65	19650601	99991231	53.0352	
689	26104		FT PROVIDENCE	61.33	-117.67	19430301	19620831	159.1056	
690	16992		GLADMAN POINT	68.67	-97.8	19570601	99991231	25.2984	
691	16895		HALL BEACH	68.78	-81.25	19570701	99991231	6.096	
692	26103		HAY RIVER	60.85	-115.77	19340101	19451031	161.2392	
693	27102		HOLMAN ISLAND	70.5	-117.63	19391101	19471231	9.144	
694	15809		HUDSON BAY SITE 1	58.5	-87.17	19740901	19740930	21.031200000000002	
695	15810		HUDSON BAY SITE 2	58.5	-86.78	19740901	19741031	21.031200000000002	
696	15811		HUDSON BAY SITE 3	58.02	-84.3	19740801	19740930	21.031200000000002	
697	17904		ICE CAP	79.97	-99.15	19680601	19690630	393.192	
698	26108		INDIN LAKE	64.27	-115.22	19480301	19500731	300.228	
699	26323		INUVIK	68.3	-133.48	19550101	99991231	61.2648	
700	26332		INUVIK UA	68.32	-133.53	19730301	99991231	103.0224	
701	27001		ISACHSEN	78.78	-103.53	19480501	19481231	25.2984	
702	26095		JENNY LIND ISLAND	68.65	-101.73	19551001	99991231	18.288	
703	26006		JENNY LIND ISLAND CA	68.67	-101.72	19660401	19670831	18.288	
704	17101		JOHNSON POINT	72.77	-118.5	19720501	99991231		
705	27103		JOHNSON POINT AUT	72.77	-118.5	19720401	19760430	9.144	
706	26315		KITTIGAZUIT	69.25	-134.0	19480501	19480901	28.041600000000003	
707	26315		KITTIGAZUIT	69.28	-133.93	19480901	19500331	28.041600000000003	
708	16611		KIVITOO FOX D	67.95	-64.87	19630301	19630331	34.1376	
709	26113		LADY FRANKLIN POINT	68.47	-113.22	19660401	19670831	15.24	
710	26194		LADY FRANKLIN POINT	68.5	-113.22	19551001	99991231	15.24	
711	16601		LAKE HARBOUR	62.83	-69.9	19340101	19460630	15.24	
712	18701		LAKE HAZEN	81.82	-71.3	19570801	19580831	159.1056	
713	26541		LUPIN AUT	65.77	-111.23	10101	99991231	124.0536	
714	16893		MACKAR INLET	68.3	-85.68	19580801	99991231	399.288	
715	27104		MALLUCH DOME	78.22	-101.05	10101	99991231	636.1176	
716	17903		MEIGHEN ISLAND NORTH	72.97	-99.13	19680601	19680831	238.0488	
717	18901		MEIGHEN ISLAND NORTH	80.03	-99.03	19700601	19700831	151.1808	
718	17905		MEIGHEN ISLAND WEST	79.97	-99.5	19690601	19690831	101.1936	
719	26105		MILLS LAKE	61.25	-118.63	19440101	19440831	148.1328	
720	27101		MOULD BAY	76.23	-119.33	19480501	19531231	15.24	
721	27106		MOULD BAY AIR SAMPLE	76.25	-119.35	19830405	99991231	58.216800000000006	
722	17806		NANIEIVIK	72.97	-84.38	19761101	99991231	639.1656	
723	26212		NICHOLSON PENINSULA	69.92	-128.97	19660401	19670831	3.048	
724	26291		NICHOLSON PENINSULA	69.95	-128.92	19550801	99991231	3.048	
725	26202	71043.0	NORMAN WELLS	65.28	-126.8	19430401	19471231	64.00800000000001	
726	16701		NOTTINGHAM ISLAND	63.12	-77.93	19340101	19700831	16.154400000000003	
727	16907		NUELTIN LAKE	60.5	-99.0	19390901	19410831	335.28000000000003	
728	16602		PADLOPING ISLAND	67.1	-62.35	19411101	19561231	40.2336	
729	16615		PADLOPING ISLAND SIT	67.1	-62.15	19551201	19580228	664.1592	
730	16606		PANGNIRTUNG	66.13	-65.75	19340101	19500731	13.1064	
731	16891		PELLY BAY	68.43	-89.65	19550601	99991231	326.136	
732	17701		POND INLET	72.72	-77.5	19340101	19541231	3.048	
733	17702		POND INLET AUT	72.67	-78.0	19741201	99991231	59.1312	
734	16613		PORT BURWELL	60.42	-64.85	19750901	99991231	38.1	
735	26109		PORT RADIUM	66.08	-118.03	19371201	19610131	191.1096	
736	26116		PORT RADIUM AUT	66.08	-117.93	19751101	99991231	438.30240000000003	
737	16909		RANKIN INLETS ARPT	62.82	-92.12	10101	99991231	656.2344	
738	27002		REA POINT	75.37	-105.7	19690601	19710331	15.24	
739	17901		RESOLUTE	74.72	-94.98	19471001	19480831	64.00800000000001	
740	16702		ROWLEY ISLAND	69.08	-79.03	19570401	19710131	60.0456	
741	27201		SACHS HARBOUR	71.95	-124.73	19551101	99991231	84.12480000000001	
742	26106		SAWMILL BAY	65.73	-118.92	19480201	19490930	171.29760000000002	
743	16994		SHEPHERD BAY	68.82	-93.42	19550801	19591231	46.0248	
744	16908		SHEPHERD BAY CAM-3	68.8	-93.43	19660401	19670831	46.0248	
745	17804		SHERWOOD HEAD	78.2	-89.72	19610801	19650930	61.2648	
746	26111		SNARE RIVER	63.5	-116.0	19470601	99991231	212.1408	
747	26117		SNOWDRIFT	62.4	-110.73	19720901	19740831	177.08880000000002	
748	16906		SPENCE BAY	69.52	-93.45	19510801	99991231	13.1064	
749	16902		TAVANI	62.03	-93.07	19430501	19430831		
750	26008		THELON AUT	65.1	-102.43	10101	99991231	816.2544	
751	26204		TROUT LAKE	60.27	-121.8	19440401	19451031	503.2248	
752	26327		TUKTOYAKTUK	69.43	-133.03	19700901	19700930	521.208	
753	26394		TUKTOYAKTUK	69.45	-133.0	19570601	99991231	6.096	
754	26091		UNNAMED POINT	68.75	-109.07	19550801	99991231	112.16640000000001	
755	16603		UPPER FROBISHER BAY	63.75	-68.55	19420501	19500831	20.1168	
756	16605		WARWICK	61.3	-64.88	19291001	19621031	39.0144	
757	26208		WRIGLEY	63.2	-123.42	19430801	19470930	156.0576	
758	26110		YELLOWKNIFE	62.47	-114.45	19420701	19471231	208.1784	
759	26192		YOUNG POINT	68.93	-116.93	19550801	19570731	17.0688	
760	16618		BREVOORT ISLAND	63.33	-64.15	19890101	99991231	204.216	
761	16619	71097.0	BREVOORT ISLAND (2)	63.33	-64.15	19890101	99991231	371.2464	
762	17807		GRISE SIORD	76.42	-82.95	19841007	99991231	10.0584	
763	16803		IGLOOLIK AP	69.37	-81.82	19841001	99991231	51.2064	
764	16616	71098.0	KILLIMEK	60.42	-64.85	19850825	99991231	31.6992	
765	16914		CHESTERFIELD	63.33	-90.72	19840901	19850107	6.096	
766	16915		CHESTERFIELD INLET A	63.33	-90.72	19850107	99991231	11.277600000000001	
767	16912		ESKIMO POINT AP	61.1	-94.07	19840725	99991231	11.277600000000001	
768	16911		GJOA HAVEN AP	68.63	-95.85	19840824	99991231	46.0248	
769	16802		REPULSE BAY AP	66.53	-86.25	19840823	99991231	25.2984	
770	16913		WHALE COVE	62.15	-92.58	19840730	99991231	5.1816	
771	26121		CAMSELL RIVER AUT	65.62	-118.13	19840501	99991231	30.48	
772	27204	71503.0	CAPE BATHURST	70.55	-127.95	19860802	99991231	17.0688	
773	26215		FORD LIARD AUTO	60.23	-123.47	19900124	99991231	213.0552	
774	26009		FORT RELIANCE	62.72	-109.17	19910110	99991231	168.24960000000002	
775	27004	71074.0	ISACHSEN AUTO	78.78	-103.55	19890701	99991231	58.216800000000006	
776	26214		NORMAN WELLS	65.28	-126.75	19841016	99991231	96.6216	
777	26336	71502.0	PELLY ISLAND	69.63	-135.43	19861003	99991231	400.2024	
778	27205	71051.0	SACHS HARBOUR AUTO	72.0	-125.27	19860909	99991231	87.78240000000001	
779	26339			68.75	-133.65	20020705	99991231	85.03920000000001	
780	16617		IQALUIT ARPT	63.75	-68.55	19870101	99991231	20.1168	
781	15801		ARMSTRONG	50.28	-88.9	19380801	99991231	325.2216	
782	94932		ATIKOKAN	48.75	-91.6	19660601	99991231	393.192	
783	54732		BARRIE	44.38	-79.78	19801001	99991231	816.2544	
784	4792		BORDEN	44.27	-79.93	19660901	19700531	227.07600000000002	
785	94844		BRANTFORD	43.13	-80.27	19420101	19431231	206.0448	
786	94873		BRITT AUT	45.8	-80.53	19761001	99991231	190.1952	
787	94796		CAMP BORDEN	44.27	-79.93	19340101	19391231	233.17200000000003	
788	94825		CARIBOU ISLAND	47.33	-85.83	19350501	19650930	187.1472	
789	94877		CARIBOU ISLAND AUT	47.33	-85.83	10101	99991231	811.0728	
790	94837		CARTIER	46.7	-81.55	19451001	19480430	419.1	
791	94801		CENTRALIA	43.3	-81.52	19421001	19660831	253.2888	
792	4757		CHALK RIVER	46.02	-77.45	19490501	19541231	168.24960000000002	
793	4777		CHALK RIVER	46.05	-77.37	19600801	19601231	122.2248	
794	94862		CHAPLEAU	47.83	-83.43	19651101	99991231	428.244	
795	94802		CLEAR CREEK	42.58	-80.57	19420601	19610630	190.1952	
796	54705		COBOURG AUT	43.95	-78.17	19750701	99991231	77.1144	
797	4762		COCHRANE	47.48	-73.65	19340101	19390430	283.1592	
798	54714		DARLINGTON AUT	43.87	-78.78	19720401	19741130	93.2688	
799	4765		DESERONTO	44.2	-77.03	19450101	19450831	85.03920000000001	
800	94856		DOUGLAS POINT	44.33	-81.6	19610601	19620831	180.13680000000002	
801	4747		DOWNSVIEW	43.75	-79.48	19550101	99991231	198.12	
802	94934		DRYDEN	49.83	-92.75	19691201	99991231	411.1752	
803	94797		EARLTON	47.7	-79.85	19380901	99991231	245.0592	
804	94874		ELORA RESEARCH STATI	43.65	-80.42	19690301	99991231	376.1232	
805	94864		GERALDTON	49.7	-86.95	19671001	99991231	331.0128	
806	94888		GERALOTON AP	49.78	-86.93	10101	99991231	975.0552	
807	94867		GODERICH	43.77	-81.7	19691101	99991231	214.2744	
808	94883		GODRICH AUT	43.77	-81.72	10101	99991231	816.2544	
809	94803		GORE BAY	45.88	-82.57	19470101	99991231	190.1952	
810	14998		GRAHAM	49.27	-90.58	19481001	19670731	503.2248	
811	94838		GUELPH	43.58	-80.28	19340101	19520430	335.28000000000003	
812	94851		GUELPH AGR COLLEGE	43.55	-80.27	19591001	99991231	320.04	
813	94845		HAGERSVILLE	42.95	-80.05	19450101	19450930	223.11360000000002	
814	4755		HAILEYBURY	47.43	-79.63	19340101	19500331	180.13680000000002	
815	4797		HAMILTON	43.17	-79.93	19700101	99991231	246.2784	
816	94798		HAMILTON	43.28	-79.88	19500401	19691231	102.108	
817	94859		HARROW	42.03	-82.88	19630701	99991231	191.1096	
818	94839		HIGH FALLS	46.37	-81.52	19470101	19491031	209.0928	
819	14899		KAPUSKASING	49.42	-82.47	19371001	19501231	229.20960000000002	
820	14999		KENORA	49.8	-94.37	19380801	99991231	410.2608	
821	94799		KILLALOE	45.57	-77.42	19381001	99991231	174.04080000000002	
822	4756		KINGSTON	44.23	-76.4	19340101	19451231	104.2416	
823	4793		KINGSTON	44.22	-76.6	19670501	99991231	90.22080000000001	
824	54721		KINGSTON AUT	44.22	-76.6	19780101	99991231	93.2688	
825	15802		LANSDOWNE HOUSE	52.23	-87.88	19410301	99991231	256.03200000000004	
826	4764		LINDSAY	44.33	-78.75	19340101	19371231	267.0048	
827	94805		LONDON	43.03	-81.15	19340101	99991231	278.2824	
828	4733		MAIN DUCK	43.93	-76.63	19430401	99991231	79.248	
829	15808		MOOSE FACTORY	51.25	-80.6	19340101	19381231	9.144	
830	94857		MOUNT FOREST	43.98	-80.75	19620101	99991231	415.1376	
831	94876		MOUNT FOREST AUT	43.98	-80.75	19790701	99991231	39.0144	
832	4766		MOUNT HOPE	43.27	-79.9	19411101	19450930	235.0008	
833	4704		MUSKOKA	44.97	-79.3	19380701	99991231	282.2448	
834	94861		NAGAGAMI	49.77	-84.52	19640901	19691231	243.2304	
835	94872		NAGAGAMI AMOS	49.75	-84.17	19771101	99991231	244.1448	
836	15804		NAKINA	50.18	-86.7	19390601	19671130	325.2216	
837	4705		NORTH BAY	46.37	-79.42	19390101	99991231	369.1128	
838	4754		OAK RIDGES	44.0	-79.47	19340101	19490531	340.15680000000003	
839	4706		OTTAWA	45.32	-75.67	19381001	19950101	126.1872	
840	4706		OTTAWA	45.32	-75.67	19950101	99991231	126.1872	
841	4772		OTTAWA	45.45	-75.62	19591001	19601231	98.1456	
842	4709		OTTAWA ROCKCLIFFE	45.45	-75.63	19420401	19640430	54.254400000000004	
843	15805		PAGWA	49.77	-84.52	19380801	19641031	243.2304	
844	94840		PARRY SOUND	45.33	-80.03	19340101	19491231	177.08880000000002	
845	15812		PEN ISLAND EAST	56.77	-88.78	19740701	19741031	11.277600000000001	
846	4767		PENDLETON	45.48	-75.1	19450301	19450831	8.2296	
847	54706	71625.0	PETAWAWA AP	45.95	-77.32	19690601	99991231	130.1496	
848	4796		PETERBOROUGH	44.23	-78.35	19690201	99991231	191.1096	
849	15907		PICKLE LAKE	51.45	-90.2	19330601	19900125	369.1128	
850	4740		PICTON	43.98	-77.15	19550901	19610430	98.1456	
851	54707		POINT PETRE AUT	43.83	-77.15	19720501	99991231	78.0288	
852	94806		PORQUIS JUNCTION	48.73	-80.8	19381001	19550331	308.1528	
853	15908		RED LAKE	51.07	-93.82	19380801	20020819	379.1712	
854	94865		SAMIA	43.0	-82.3	19671101	99991231	181.05120000000002	
855	94826		SARNIA	42.92	-82.3	19480901	19510630	198.12	
856	94842		SAULT STE MARIE	46.5	-84.5	19450601	99991231	189.2808	
857	4773		SCARBOROUGH	43.72	-79.23	19591001	19601231	161.2392	
858	94858		SIMCOE	42.85	-80.27	19620101	99991231	240.1824	
859	15909		SIOUX LOOKOUT	50.12	-91.9	19340101	19501231	374.2944	
860	94827		SLATE ISLAND	48.62	-87.0	19660901	19660930	188.0616	
861	94841		SOUTHAMPTON	44.5	-81.35	19340101	19521130	200.2536	
862	14727		ST CATHARINES	43.18	-79.18	19710601	99991231	99.06	
863	4758		ST CATHERINES	43.17	-79.23	19340101	19541231	99.06	
864	54716		STELPORT AUT	45.47	-75.65	19740401	19760430	59.1312	
865	4713		STIRLING	44.32	-77.63	19400301	19690131	139.2936	
866	94807		SUDBURY	46.48	-80.98	19540101	19550228	255.1176	
867	94828		SUDBURY	46.62	-80.8	19470101	99991231	342.29040000000003	
868	94843		SUNFLOWER	43.13	-80.75	19470101	19521231	299.0088	
869	94804		THUNDER BAY	48.37	-89.32	19340101	99991231	196.2912	
870	94831		TIMMINS	48.57	-81.37	19550401	99991231	294.132	
871	4714		TORONTO	43.67	-79.4	19340101	19691231	116.12880000000001	
872	54717		TORONTO HEADLAND	43.63	-79.32	19720401	19760228	79.248	
873	54715		TORONTO HEPC	43.65	-79.4	19560401	19671231		
874	4737		TORONTO ISLAND	43.63	-79.4	19570101	99991231	81.0768	
875	54709		TORONTO ISLAND AUT	43.63	-79.4	19700101	99991231	81.0768	
876	4795		TORONTO MET RES STN	43.8	-79.55	19670801	19670831	194.1576	
877	54718		TORONTO NEW INT'L AP	43.95	-79.13	19730601	19760331	263.0424	
878	4715		TRENTON	44.12	-77.53	19341101	19950101	81.0768	
879	4715		TRENTON	44.12	-77.53	19950101	99991231	81.0768	
880	15806		TROUT LAKE	53.83	-89.87	19390201	99991231	219.15120000000002	
881	4736		UPLANDS	45.32	-75.67	19381001	19640831	126.1872	
882	94935		UPSALA	49.03	-90.47	19701001	99991231	487.0704	
883	4761		VINELAND	43.32	-79.77	19470101	19491231	79.248	
884	4784		VIRGINIATOWN	48.15	-79.52	19620501	19641231	366.0648	
885	94875		WAWA AUT	47.97	-84.78	19761001	99991231	287.1216	
886	94863		WELLINGTON	43.45	-80.38	19660601	99991231	313.0296	
887	94808		WHITE RIVER	48.6	-85.28	19340101	19450731	379.1712	
888	94809		WIARTON	44.75	-81.1	19470701	99991231	219.15120000000002	
889	94810		WINDSOR	42.27	-82.97	19400701	19950101	194.1576	
890	94810		WINDSOR	42.27	-82.97	19950101	99991231	194.1576	
891	15807		WINISK	55.23	-85.12	19561001	19650831	13.1064	
892	64757			44.23	-79.78	20040715	99991231	238.9632	
893	94972	71747.0	ATIKOKAN AUTO	48.77	-91.63	19881026	99991231	429.15840000000003	
894	4819		BELLE RIVER	42.3	-82.23	19861006	99991231	181.05120000000002	
895	54713		BURLINGTON PIERS AUT	43.3	-79.8	19720501	19760228	78.0288	
896	54748		BURLINGTON PIERS AUT	43.3	-79.8	19840425	99991231	78.0288	
897	4814	71439.0	COVE ISLAND	45.33	-81.73	19850704	99991231	180.74640000000002	
898	54755		EGBERT	44.23	-79.78	19910108	99991231	251.1552	
899	4817	71465.0	ERIEAU	42.25	-81.9	19860801	99991231	178.00320000000002	
900	4817	71465.0	ERIEAU	42.25	-81.9	10101	19860801	178.00320000000002	
901	4820		GRAND BEND	43.33	-81.73	19861006	19950101	190.1952	
902	4820		GRAND BEND	43.33	-81.73	19950101	99991231	190.1952	
903	4812	71462.0	GREAT DUCK ISLAND	45.63	-82.97	19850115	99991231	183.1848	
904	4811	71460.0	KILLARNEY AUTOMATIC	45.97	-81.48	19841001	99991231	195.9864	
905	4815	71464.0	LONG POINT	42.57	-80.05	19850823	99991231	175.26000000000002	
906	4821		MITCHELL'S BAY	42.47	-82.42	19860906	99991231	186.2328	
907	4822		OLIPHANT	44.73	-81.28	19861006	99991231	181.05120000000002	
908	15814		ONAKAWANA AUTO	50.6	-81.42	19900117	99991231	42.062400000000004	
909	54749		OTTAWA CDA	45.58	-75.72	19850301	99991231	79.248	
910	54751	71463.0	PORT COLBORNE	45.87	-79.25	19851022	99991231	183.7944	
911	15815		SEVERN RIVER	55.38	-88.33	19901024	99991231	56.692800000000005	
912	4818	71466.0	SOUTHEAST SHOAL	41.83	-82.47	19851115	99991231	195.3768	
913	54753		TORONTO BUTTONVILLE AP	43.87	-79.37	19860523	99991231	198.12	
914	94791		TORONTO PEARSON INTL	43.68	-79.63	19371101	19860601	176.17440000000002	
915	94791	71624.0	TORONTO PEARSON INTL	43.68	-79.63	19860601	19950101	173.12640000000002	
916	94791	71624.0	TORONTO PEARSON INTL	43.68	-79.63	19950101	99991231	173.12640000000002	
917	4816	71461.0	TROWBRIDGE	48.3	-88.87	19840824	99991231	218.23680000000002	
918	4823		WASAGA BEACH	44.5	-80.05	19861006	99991231	182.2704	
919	4810		WESTEIN ISLAND AUTO	45.03	-80.37	19840425	99991231	191.1096	
920	15813		WINISK	55.23	-85.12	19811001	99991231	634.2888	
921	15908		RED LAKE	51.07	-93.8	20020819	99991231	374.904	
922	14630		CHARLOTTETOWN	46.28	-63.13	19330101	99991231	57.302400000000006	
923	14688		CHARLOTTETOWN	46.25	-63.13	19100701	99991231	23.1648	
924	14695		EAST POINT AUT	46.45	-61.97	19770101	99991231	10.0584	
925	14645		SUMMERSIDE	46.43	-63.83	19410101	99991231	24.0792	
926	94622	71420.0	EAST BALTIC AUTO	46.43	-62.17	19881115	99991231	61.2648	
927	14626		ANTICOSTI	49.4	-63.55	19340101	19581130	7.010400000000001	
928	4753		ARVIDA	48.43	-71.18	19340101	19541231	102.108	
929	16703		ASBESTOS HILL	61.8	-73.95	19630801	19640228	484.0224	
930	94795		BAGOTVILLE	48.33	-71.0	19420901	19950101	163.068	
931	94795		BAGOTVILLE	48.33	-71.0	19950101	99991231	163.068	
932	14627		BAIE COMEAU	49.2	-68.27	19470601	99991231	54.254400000000004	
933	15511		BLANC SABLON	51.43	-57.22	19670801	99991231	19.2024	
934	15639		BORDER AUT	55.33	-63.22	10101	99991231	89.00160000000001	
935	15631		BORDER BEACON	55.33	-63.22	19650101	99991231	466.03920000000005	
936	15638		CACEON AUT	51.85	-63.28	10101	99991231	795.2232	
937	4732		CACHE LAKE	49.83	-74.42	19511101	19600228	382.2192	
938	16604		CAPE HOPES ADVANCE	61.08	-69.55	19330101	19711231	73.152	
939	15630		CAPE WHITTLE	50.17	-60.07	19630901	19691231	11.277600000000001	
940	4788		CHAPAIS	49.62	-74.87	19621201	19710930	457.20000000000005	
941	4786		CHARLEVOIX	47.6	-70.23	19620701	19670930	301.1424	
942	15513		CHEVERY	50.47	-59.63	19810201	99991231	825.0936	
943	15706		CHIBOUGAMAU	49.82	-74.58	19710901	99991231	402.0312	
944	15622		CLARKE CITY	50.18	-66.63	19360701	19471231	57.302400000000006	
945	16704		DECEPTION BAY	62.1	-74.58	19640201	99991231	29.260800000000003	
946	4748		DOLBEAU	48.88	-72.23	19340101	19580630	127.1016	
947	4763		DOUCET	48.28	-76.67	19340101	19391231	377.0376	
948	14659		FAME POINT	49.12	-64.62	19340101	19440930	54.254400000000004	
949	14656		FATHER POINT	48.52	-68.47	19340101	19510731	6.096	
950	14654		FORESTVILLE	48.73	-69.1	19481001	19671231	91.1352	
951	15705		FORT GEORGE	53.83	-79.02	19340101	19440228	9.144	
952	15609		FORT MCKENZIE	56.88	-69.05	19480901	19510930	76.2	
953	14665		FOX RIVER	49.02	-64.4	19580901	99991231	41.148	
954	15632		GAGNON	51.95	-68.13	19650801	99991231	572.1096	
955	14660		GASPE	48.83	-64.48	19400601	19450831	91.1352	
956	14680		GASPE	48.77	-64.48	19650201	99991231	30.1752	
957	54744		GATINEAU AP	45.52	-75.57	10101	99991231	64.00800000000001	
958	15701		GREATWHALE RIVER	55.28	-77.77	19340101	99991231	26.2128	
959	14637		GRINDSTONE ISLAND	47.38	-61.87	19340101	99991231	60.0456	
960	15505		HARRINGTON HARBOUR	50.53	-59.5	19340101	99991231	8.2296	
961	15633		HAVRE ST PIERRE	50.25	-63.6	19670601	99991231	10.0584	
962	4794		HIGH WATER	45.03	-72.47	19670701	19670731	396.24	
963	15627		HOPES ADVANCE BAY	59.33	-69.77	19580901	19590831	47.244	
964	14696		ILES DE LA MADELEINA	47.42	-61.78	19780701	99991231	649.224	
965	15606		INDIAN HOUSE LAKE	56.23	-64.73	19440901	19650131	311.2008	
966	15611		KNOB LAKE	54.83	-66.7	19480801	19531231	489.204	
967	15619		KNOB LAKE	54.8	-66.82	19540101	99991231	512.0640000000001	
968	16614		KOARTAK	61.07	-69.68	19711101	99991231	28.041600000000003	
969	15605	71906.0	KUUJJAUQ AP	58.1	-68.42	19410901	19810301	816.2544	
970	15605	71906.0	KUUJJAUQ AP	58.1	-68.42	19810301	99991231	816.2544	
971	15707		LA GRANDE RIVIERE AU	53.63	-77.7	19761001	99991231	191.1096	
972	4775		LA TUQUE	47.42	-72.8	19600301	19600430	169.16400000000002	
973	4701		LAKE DORE	49.9	-74.3	19361001	19510531	376.1232	
974	15621		LAKE EON	51.85	-63.28	19550101	99991231	561.1368	
975	4708		LORETTA	46.8	-71.38	19340101	99991231	75.2856	
976	15629		MANICOUAGAN	50.65	-68.83	19611001	19711231	406.2984	
977	4734		MANIWAKI	46.37	-75.98	19530701	99991231	170.07840000000002	
978	54719		MANIWAKI AUT	46.38	-75.97	19700701	19720630	170.07840000000002	
979	15702		MANUAN LAKE	50.63	-70.53	19420201	19611031	495.3	
980	54711		MATAGAMI AUT	49.77	-77.8	19730201	99991231	281.0256	
981	15603		MECATINA	51.83	-62.88	19431001	19520630	524.256	
982	4702		MEGANTIC	45.58	-70.87	19391101	19620531	415.1376	
983	15617		MILE 134	51.92	-65.82	19520401	19531031		
984	15604		MINGAN	50.28	-64.17	19430101	19500831	23.1648	
985	15637		MINGAN AP	50.28	-64.15	19780101	19840831	646.176	
986	14639		MONT JOLI	48.6	-68.2	19420201	99991231	46.0248	
987	4735		MONTREAL	45.47	-73.75	19570101	19600831	30.1752	
988	54720		MONTREAL ADAC A	45.48	-73.55	19740401	19760430	21.031200000000002	
989	4770		MONTREAL JEAN BREBEU	45.5	-73.62	19591001	99991231	133.1976	
990	4703		MONTREAL MCGILL UNIV	45.5	-73.58	19470101	19600831	57.302400000000006	
991	54712		MONTREAL MIRABEL	45.68	-74.03	19751001	99991231	82.296	
992	15803		MOOSONEE	51.27	-80.65	19340101	99991231	9.144	
993	15612		NATASHQUAN	50.2	-61.82	19420301	99991231	3.048	
994	15703		NITCHEQUON	53.2	-70.9	19420901	99991231	536.1432	
995	15623		NORMAN LAKE	52.08	-63.67	19420401	19451231	463.29600000000005	
996	4771		NORMANDIN	48.85	-72.53	19591001	99991231	137.16	
997	4707		PARENT	47.92	-74.62	19430701	99991231	439.21680000000003	
998	4778		PARENT	47.88	-74.68	19600901	19640731	628.1928	
999	14674		PORT MENIER	49.82	-64.35	19600701	99991231	5.1816	
1000	14689		PORT MENIER	49.85	-64.45	19741001	99991231	34.1376	
1001	14699		PORT MENIER AUT	49.83	-64.28	19810401	99991231	665.0736	
1002	14682		RIVIERE DU LOUP	47.8	-69.55	19650601	99991231	148.1328	
1003	14698		RIVIERE DU LOUP AUT	47.8	-69.55	10101	99991231	773.2776	
1004	4752		ROBERVAL	48.52	-72.27	19571001	99991231	180.13680000000002	
1005	4731		ROUYN	48.22	-78.83	19490501	99991231	294.132	
1006	4768		SANMAUR	47.88	-73.8	19340101	19391031	357.22560000000004	
1007	4710		SENNETERRE	48.4	-77.25	19400101	19510430	316.0776	
1008	4776		SENNETERRE	48.33	-77.18	19600401	19601231	339.24240000000003	
1009	15613		SEPT ILES	50.22	-66.27	19440801	19950101	58.216800000000006	
1010	15613		SEPT ILES	50.22	-66.27	19950101	99991231	58.216800000000006	
1011	15636		SEPT ILES UA	50.22	-66.25	19680101	99991231	53.0352	
1012	4760		SHERBROOKE	45.4	-71.9	19340101	19541231	181.05120000000002	
1013	4785		SHERBROOKE	45.43	-71.68	19620401	99991231	238.0488	
1014	4790		ST AGATHE DES MONTS	46.05	-74.28	19660101	99991231	395.0208	
1015	14681		ST ANNE DES MONTS	49.12	-66.53	19650201	19661130	16.154400000000003	
1016	54708		ST AUGUSTIN	46.73	-71.5	19641201	99991231	58.216800000000006	
1017	4711		ST FELICIEN	48.65	-72.45	19381001	19531031	112.16640000000001	
1018	4712		ST HUBERT	45.52	-73.42	19340101	99991231	31.0896	
1019	4759		ST JOHNS	45.33	-73.3	19400101	19450930	40.2336	
1020	54703		SUTTON	45.15	-72.58	19710901	99991231	235.0008	
1021	54710		SUTTON JUNCTION AUT	45.15	-72.58	19750101	99991231	237.1344	
1022	54784		TROIS RIVIERES	46.35	-72.68	19630901	99991231	62.1792	
1023	4730		VAL DOR	48.05	-77.78	19490601	99991231	338.02320000000003	
1024	54724	71716.0	VALCARTIER AP	46.9	-71.5	19780101	99991231	168.24960000000002	
1025	15614		WACOUNO LAKE	51.42	-65.63	19510301	19520630	590.0928	
1026	94607		HEATH POINT	49.08	-61.7	19841021	99991231	7.010400000000001	
1027	94613	71428.0	CAP CHAT	49.08	-66.73	19850731	19950101	32.6136	
1028	94613	71428.0	CAP CHAT	49.08	-66.73	19950101	99991231	32.6136	
1029	94612	71429.0	CAP D'ESPOIR	48.42	-64.32	19850712	99991231	15.5448	
1030	94614	71425.0	CAP MADELEINE	49.25	-65.33	19850914	99991231	28.956000000000003	
1031	15640		HAVRE ST PIERRE AP	50.28	-60.62	19831205	99991231	33.2232	
1032	54750	71424.0	ILE D'ORLEANS	47.0	-70.82	19850613	99991231	5.1816	
1033	15709		INUKJUAK AIRPORT	58.47	-78.08	19880613	99991231	25.6032	
1034	15704		INUKJUAK WPH	58.45	-78.13	19660801	19820301	20.1168	
1035	15704		INUKJUAK WPH	58.45	-78.13	19340101	19660801	20.1168	
1036	15704		INUKJUAK WPH	58.45	-78.13	19820301	99991231	20.1168	
1037	94606	71426.0	ISLE ROUGE AUTO	48.07	-69.55	19840824	99991231	6.096	
1038	16708		IVUJIVIK AIRPORT	62.42	-77.93	19880613	99991231	42.672000000000004	
1039	16707		KANGIRSUSK AIRPORT	60.02	-70.0	19880613	99991231	116.73840000000001	
1040	15641	71906.0	KUUJJAUQ AP #2	58.1	-68.42	19851016	99991231	37.1856	
1041	15708	71823.0	LA GRANDE IV(4) A	53.75	-73.67	19851009	99991231	312.7248	
1042	94792		MONTREAL DORVAL AP	45.47	-73.75	19340101	19950101	30.1752	
1043	94792		MONTREAL DORVAL AP	45.47	-73.75	19950101	99991231	30.1752	
1044	94615	71427.0	POINTE DES MONTS	49.32	-67.38	19851126	99991231	5.1816	
1045	25040		BAD LAKE IHD 102	51.32	-108.4	19670701	99991231	637.032	
1046	25006		BROADVIEW	50.28	-102.53	19380701	19650228	620.268	
1047	25030		BROADVIEW	50.38	-102.58	19650201	99991231	601.0656	
1048	25033		BUFFALO NARROWS	55.83	-108.47	19680601	99991231	422.148	
1049	25043		BUFFALO NARROWS AP	55.83	-108.43	10101	99991231	58.216800000000006	
1050	25044		BUFFALO NARROWS AUT	55.83	-108.43	10101	99991231	58.216800000000006	
1051	25038		COLLINE BAY	58.18	-103.68	19720901	99991231	492.252	
1052	25034		CREE LAKE	57.35	-107.13	19691201	99991231	499.2624	
1053	25008		DAFOE	51.93	-104.57	19440801	19640930	540.1056	
1054	94019		EASTEND CYPRESS AUT	49.43	-108.98	19761001	99991231	78.0288	
1055	25035		ELBOW	51.13	-106.58	19691201	99991231	594.0552	
1056	24092		ESTEVAN	49.07	-103.0	19431001	99991231	574.2432	
1057	25002		HUDSON BAY	52.87	-102.4	19430401	19450731	372.1608	
1058	25042		HUDSON BAY	59.82	-107.32	19780601	99991231	982.0656	
1059	25041		HUDSON BAY AUT	59.82	-102.32	19780601	99991231	982.0656	
1060	25003		ISLAND FALLS	55.53	-102.35	19400101	19450731	299.0088	
1061	25036		JIMMY LAKE	54.92	-109.97	19701001	99991231		
1062	25020		KINDERSLEY	51.47	-109.13	19430901	19840824	688.2384000000001	
1063	25010		LAC LA RONGE	55.1	-105.28	19411001	19440831	382.2192	
1064	25026		LAC LA RONGE	55.12	-105.3	19590701	99991231	369.1128	
1065	25127		LLOYDMINISTER	53.3	-109.98	19040601	99991231	647.0904	
1066	25023		LYNN LAKE	56.87	-101.07	19540701	99991231	371.2464	
1067	25031		MEADOW LAKE	54.12	-108.43	19650801	99991231	482.1936	
1068	25037		MEADOW LAKE AUT	54.13	-108.52	19770801	99991231	583.0824	
1069	25018		MOOSE JAW	50.33	-105.55	19340101	99991231	566.0136	
1070	25039		NIPAWIN AUT	53.33	-104.0	19730801	99991231	374.2944	
1071	25012		NORTH BATTLEFORD	52.77	-108.25	19340101	99991231	547.116	
1072	25013		PRINCE ALBERT	53.22	-105.68	19340101	99991231	431.29200000000003	
1073	25005		REGINA	50.43	-104.67	19371001	99991231	574.2432	
1074	94020		ROCK GLEN AUT	49.17	-105.97	10101	99991231	541.02	
1075	94016		ROCKGLEN	49.17	-105.97	19701201	99991231	917.1432000000001	
1076	25015		SASKATOON	52.17	-106.68	19340101	99991231	501.0912	
1077	25021		SASKATOON	52.17	-106.68	19420101	19650731	501.0912	
1078	25027		SASKATOON N R C	52.13	-106.63	19591001	99991231	515.1120000000001	
1079	25032		SQUAW RAPIDS	53.7	-103.35	19660701	19700731	291.084	
1080	25025		STANLEY	55.42	-104.53	19400201	19401231	351.12960000000004	
1081	25016		SWIFT CURRENT	50.28	-107.68	19340101	99991231	816.2544	
1082	25028		SWIFT CURRENT	50.27	-107.75	19591001	99991231	825.0936	
1083	25029		WYNWARD	51.77	-104.2	19640901	99991231	561.1368	
1084	25017		YORKTON	51.27	-102.47	19410501	99991231	504.1392	
1085	25049		OUTLOOK PFRA	51.48	-107.05	19880501	99991231	541.02	
1086	25047	71132.0	STONY RAPIDS AP	59.25	-105.83	19860701	99991231	250.2408	
1087	25019		URANIUM CITY AUTO	59.57	-108.48	19521201	19860602	312.1152	
1088	25019		URANIUM CITY AUTO	59.57	-108.48	19860602	99991231	319.1256	
1089	25046		KINDERSLEY AP	51.52	-109.17	19840824	99991231	694.0296000000001	
1090	25050		WASKESIU LAKE AUTO	53.92	-106.07	19891221	99991231	569.0616	
1091	26314		AISHIHIK	61.6	-137.53	19420901	19430331		
1092	26314		AISHIHIK	61.65	-137.48	19430601	19471231	966.216	
1093	26454		BEAVER CREEK	62.38	-140.88	19681101	99991231	663.2448	
1094	26305		BROOKS BROOK	60.48	-133.45	19430801	19450430	804.0624	
1095	26313		BROOKS BROOK STP 6	60.48	-133.45	19450501	19450831		
1096	26325		BURWASH	61.37	-139.05	19660901	99991231	801.0144	
1097	26301		CANYON CREEK	60.87	-137.13	19431101	19460331	649.224	
1098	26321		CARMACKS	62.1	-136.3	19500901	19530331	521.208	
1099	26321		CARMACKS	62.1	-136.3	19630801	99991231	521.208	
1100	26324		CHAPMAN LAKE	64.85	-138.37	19600501	19600831		
1101	26319		DAWSON	64.07	-139.43	19340101	19471231	324.0024	
1102	26328		DAWSON AUT	64.05	-139.13	19760101	99991231	369.1128	
1103	26310		DESTRUCTION ISLAND S	61.35	-139.03	19440101	19450930	804.0624	
1104	26306		DEVILS PASS	60.42	-133.75	19430801	19440731	872.0328000000001	
1105	26329		FARO	62.23	-133.35	19711001	99991231	694.0296000000001	
1106	26302		FISH LAKE	60.63	-132.05	19430401	19450831	867.1560000000001	
1107	26209		FRANCES LAKE	61.28	-129.4	19411001	19480531	739.14	
1108	26322		HAINES JUNCTION	60.75	-137.58	19441001	19710331	619.0488	
1109	26333		HERSCHEL ISLAND	69.57	-138.92	19740701	19751031	3.048	
1110	26456		KOMAKUK BEACH	69.58	-140.18	19660401	19670831	7.010400000000001	
1111	26463		KOMAKUK BEACH	69.58	-140.18	19610101	99991231	14.020800000000001	
1112	26320		MAYO LANDING	63.62	-135.87	19340101	99991231	504.1392	
1113	26330		OLD CROW AUT	67.57	-139.83	19510901	99991231	253.2888	
1114	26312		ORCHIE LAKE	62.18	-131.75	19440801	19450331	819.3024	
1115	26307		RANCHERIA	60.08	-130.17	19430801	19450831	846.1248	
1116	26309		ROSS RIVER	62.02	-132.42	19440101	19440831	706.2216000000001	
1117	26392		SHINGLE POINT	68.95	-137.2	19560501	99991231	37.1856	
1118	26326		SHINGLE POINT BAR-2	68.92	-137.25	19660401	19670831	37.1856	
1119	26450		SNAG	62.37	-140.4	19430801	19661031	587.0448	
1120	26304		SWIFT RIVER	60.0	-131.18	19431101	19460331	880.2624000000001	
1121	26318	71045.0	TESLIN	60.17	-132.75	19430901	19471231	701.0400000000001	
1122	26331		TESLIN AUT	60.17	-132.75	19760501	99991231	712.0128000000001	
1123	26303		UPPER TESLIN	60.5	-133.4	19420901	19430331	782.1168	
1124	26205		WATSON LAKE	60.12	-128.82	19381001	19471231	685.1904000000001	
1125	26311		WHITEHORSE	60.72	-135.08	19440601	19460331	699.2112000000001	
1126	26316		WHITEHORSE	60.72	-135.07	19401001	99991231	698.2968000000001	
1127	26337	71504.0	BABBAGE RIVER	68.82	-138.75	19870723	99991231	183.1848	
1128	26335	71501.0	HERSCHEL ISLAND	69.57	-138.92	19860727	99991231	1.2192	
1129	26334	71500.0	KINGS POINT	69.08	-137.05	19851028	99991231	61.2648	
1130	12102		CABO JUBY RIO DE ORO	27.93	-13.0	19450801	19451031	5.1816	
1131	12104		TENERIFE AIR SAMPLE	28.3	-16.48	19911116	99991231	2300.0208000000002	
1132	12103		VILLA CISNEROS	23.75	-15.93	19451001	19460430	3.048	
1133	11804		GEORGETOWN	19.3	-81.38	19420601	19441031	3.048	
1134	11812		GEORGETOWN	19.25	-81.42	19570701	19711231	17.0688	
1135	11809		GRAND CAYMEN	19.33	-81.33	19450701	19461130	12.192	
1136	11813		ROBERTS	19.3	-81.37	19560801	99991231	2.1336	
1137	70701	61967.0	DIEGO GARCIA NAF	-7.3	72.4	19710701	19950101	2.1336	
1138	70701	61967.0	DIEGO GARCIA NAF	-7.3	72.4	19950101	99991231	2.1336	
1139	52701		ANTOFAGASTA	-23.37	-70.47	19570701	99991231	137.16	
1140	62001		ISLA PASCUA	-27.17	-109.43	19660601	99991231	295.0464	
1141	54702		PUERTO MONTT	-41.43	-73.12	19700301	19950101	5.1816	
1142	54702		PUERTO MONTT	-41.43	-73.12	19950101	99991231	5.1816	
1143	54701		PUERTO MONTT B	-41.47	-72.82	19501101	19620131	11.277600000000001	
1144	55701		PUNTA ARENAS	-53.03	-70.85	19750401	99991231	38.1	
1145	53701		QUINTERO	-32.78	-71.53	10101	99991231	2.1336	
1146	43013		ANKANG	32.58	109.25	19450301	19451031	288.036	
1147	42109		CHANTING	26.77	116.35	19450801	19460131	375.2088	
1148	42008		CHANYI	25.63	103.78	19440101	19451130	1867.2048000000002	
1149	42018		CHAOTUNG	27.33	103.67	19450101	19450228	1956.2064	
1150	42013		CHENGKUNG	24.88	102.78	19440401	19451031	1907.1336000000001	
1151	43001		CHENGTU	30.25	104.03	19440101	19460430	481.2792	
1152	43202		CHIEN CHI	30.23	120.17	19451001	19460430	8.2296	
1153	42001		CHIH CHI	27.45	109.63	19431001	19461031	266.0904	
1154	33902		CHIUCHUAN NORTH	39.83	98.25	19460401	19470731	1470.0504	
1155	33901		CHIUCHUAN SOUTH	39.67	98.72	19451001	19451031	1514.2464	
1156	42106		CHUNG SHUEN ANHWEI	29.75	118.52	19440701	19450430		
1157	42028		CHUNGKING	28.6	106.58	19450701	19450831	317.2968	
1158	43008		ENSHIH	30.28	109.48	19450401	19450831	453.23760000000004	
1159	43012		FUNG WHANG SHAN	30.67	104.67	19470101	19471231	504.1392	
1160	42101		HENGYANG	26.93	112.57	19430901	19440630	74.0664	
1161	42108		HSUPU	27.87	110.57	19450701	19450930	152.0952	
1162	43204		HUNG CHIA	31.23	121.45	19451201	19490430	27.127200000000002	
1163	42012		IPING	28.82	104.53	19440301	19450831	267.0048	
1164	42107		KANCHOW	25.83	114.83	19441201	19450131	110.03280000000001	
1165	42111		KIUKIANG	29.75	116.13	19460701	19460930	30.1752	
1166	43004		KIUNGLAI	30.45	103.53	19450201	19450228	539.1912	
1167	42002		KUNMING	25.03	102.72	19420701	19461130	1894.0272	
1168	43003		KWANGHAN	31.12	104.0	19450201	19450831	500.1768	
1169	42029		KWEIYANG	26.53	106.67	19450801	19450831	1125.0168	
1170	42024		LAIFENG	29.52	109.4	19450401	19450731	494.0808	
1171	43009		LANCHOW	36.0	103.75	19450601	19461231	1543.2024000000001	
1172	43010		LANCHOW	36.6	103.5	19450801	19451231	1563.0144	
1173	43101		LAOHOKOW	32.42	111.5	19450201	19450228	110.03280000000001	
1174	42021		LAOWHANGPING	26.92	107.83	19450201	19450831	710.1840000000001	
1175	42102		LI CHIATS	25.33	110.17	19430501	19440930	170.07840000000002	
1176	43005		LIANGSHAN	30.58	107.83	19450301	19460430	501.0912	
1177	42009		LIKIANG	26.88	100.23	19440201	19450731	2480.1576	
1178	42103		LINLING	26.25	111.53	19430501	19440630	150.2664	
1179	42003		LIUCHOW	24.3	109.27	19430901	19460131	94.1832	
1180	42025		LOPING	24.95	104.35	19450501	19451031	1550.2128	
1181	42026		LUHSIEN	28.85	105.35	19450601	19451130	240.1824	
1182	42015		LULIANG	25.0	103.58	19440501	19451130	1849.2216	
1183	32933		MANGSHIH	24.45	98.58	19441201	19450831	922.0200000000001	
1184	42020		MENGTSZ	23.38	103.45	19450201	19450930	1303.02	
1185	44201		MUKDEN MANCHURIA	41.8	123.38	19460401	19480831	61.2648	
1186	42007		NANNING	22.8	108.3	19431201	19450930	76.2	
1187	43011		NINGHSIA	35.25	106.25	19451101	19451231	1115.2632	
1188	42019		PAI-SE	23.75	106.08	19450101	19450930	162.1536	
1189	42027		PAKHOI	21.4	109.08	19450801	19450930	16.154400000000003	
1190	32919		PAOSHAN	25.08	99.17	19440301	19460630	674.2176000000001	
1191	43104		PEIPING WEST	39.92	116.42	19451101	19461130	64.00800000000001	
1192	42016		PEISHIYI	29.5	106.37	19441101	19460531	31.0896	
1193	44101		PEKING	40.0	116.5	19460501	19460630	51.2064	
1194	43015		QINGHAI PROV AIR SAM	36.27	100.92	19900805	99991231	3810.0	
1195	43203		SHANGHAI	31.32	121.5	19451001	19461231	6.096	
1196	43007		SIAN	34.25	108.92	19450301	19461231	416.052	
1197	42011		SICHANG	27.92	102.3	19440301	19460630	1500.2256	
1198	42006		SICHOW	25.82	100.12	19431101	19441231	2480.1576	
1199	43014		SINTSING	30.42	103.92	19460501	19460831		
1200	42104		SUICHWAN	26.42	114.5	19431001	19460228	134.112	
1201	42014		SZEMAO	22.45	101.03	19440501	19450930	1286.256	
1202	42105		TA TO	28.2	112.98	19440201	19440531	26.2128	
1203	43102		TAI CHIAO	32.08	118.75	19450901	19470331	25.2984	
1204	43105		TAIHO	33.17	115.67	19450501	19450930	39.0144	
1205	42110		TIENHO	23.13	113.33	19451101	19461231	12.192	
1206	43108		TIENTSIN MAB 1	39.17	117.17	19460601	19460630	3.048	
1207	43269		TSANG	36.07	120.32	19460501	19461130		
1208	42017		TSINGCHEN	26.75	106.75	19441201	19450430	1260.0432	
1209	43205		TSINGTAO	36.18	120.38	19460101	19480930	14.020800000000001	
1210	42010		TSUYUNG	25.03	101.57	19440101	19450731	1803.1968000000002	
1211	42023		TUSHAN	25.83	107.75	19450401	19450831	1010.1072	
1212	43103		WANG CHIA T	30.58	114.25	19451001	19461231	37.1856	
1213	43006		WU CHU SU	32.97	107.2	19450201	19451031	518.1600000000001	
1214	42004		YANGKAI	25.5	103.08	19430201	19451031	1955.2920000000001	
1215	43002		YENAN	36.52	109.45	19441101	19460228	98.1456	
1216	42005		YUNNANYI	25.42	100.73	19430101	19451031	1967.1792	
1217	10717		BOGOTA EL DORADO	4.7	-74.15	19600801	99991231	2567.0256	
1218	11814		SAN ANDRES ISLAND	12.58	-81.7	19561101	19721003	2.1336	
1219	11814	80001.0	SAN ANDRES ISLAND	12.58	-81.7	19721003	19950101	1.2192	
1220	11814	80001.0	SAN ANDRES ISLAND	12.58	-81.7	19950101	99991231	1.2192	
1221	11705		SOLEDAD	10.87	-74.78	19431101	19491031	13.1064	
1222	61501		AMURI FIELD AAF	-18.83	-159.82	19430801	19460831	5.1816	
1223	60501		PENRHYN	-9.07	-158.03	19430801	19460630	3.048	
1224	10807		PARRITA	9.52	-84.33	19440901	19470930	6.096	
1225	10806		SAN JOSE	9.9	-84.13	19430201	19450930	1132.0272	
1226	10801		SIXAOLA	9.52	-82.65	19430701	19440630	10.0584	
1227	10809		SAN JOSE JUAN SANTAMARIA	10.0	-84.22	19800101	99991231	920.1912000000001	
1228	64103		CAMP HARMON	45.13	18.73	19960226	99991231	85.03920000000001	
1229	64104		ZUPANJA	45.13	18.73	19960124	99991231	74.9808	
1230	74501		CROZET AIR SAMPLE ST	-46.45	51.85	19910303	99991231	120.0912	
1231	12877		CABO SAN ANTONIO	21.87	-84.97	19510801	19551130	9.144	
1232	12711		CAMAGUAY	21.42	-77.87	19050701	19601031	123.1392	
1233	12701		CAMAGUEY	21.4	-77.92	19420701	19450630	123.1392	
1234	12705		CAYO FRANCIS	22.63	-79.23	19440801	19440831	3.048	
1235	11714		GUANTANAMO BAY	19.9	-75.15	19170201	19310630	23.1648	
1236	11706	78367.0	GUANTANAMO BAY NAS	19.9	-75.15	19320101	19950101	16.154400000000003	
1237	11706	78367.0	GUANTANAMO BAY NAS	19.9	-75.15	19950101	99991231	16.154400000000003	
1238	12860		MONTSERRAT CIENFUEGO	22.15	-80.45	18990401	19540430		
1239	12801		SAN ANTONIO	22.88	-82.5	19430301	19460531	48.1584	
1240	12821		SAN JULIAN	22.12	-84.15	19430601	19430731	28.041600000000003	
1241	12857		SAN JULIAN	22.07	-84.15	19431101	19451130	17.0688	
1242	12856		SANTA FE	21.73	-82.77	19430801	19440531	29.260800000000003	
1243	33304		NICOSIA	35.15	33.28	19440301	19450831	218.23680000000002	
1244	31404	63125.0	DJIBOUTI AMBOULI	11.55	43.15	19520101	99991231	19.2024	
1245	11628		ROSEAU	15.3	-61.4	10101	99991231	72.2376	
1246	11615		CIUDAD TRUJILLO	18.48	-69.9	19440101	19460331		
1247	11627		CIUDAD TRUJILLO	18.47	-69.88	19390101	19520630	25.2984	
1248	11711		PUERTO PLATO	19.68	-70.67	19170901	19570630	11.277600000000001	
1249	11646		SABANA DE LA MAR	19.05	-69.38	19560901	99991231	11.277600000000001	
1250	11650		SAN ISIDRO	18.5	-69.75	19650501	19660930	35.052	
1251	11629	78486.0	SANTO DOMINGO	18.47	-69.88	19731101	99991231	14.020800000000001	
1252	50904		GALAPAGOS IS NF	-0.43	-90.28	19421001	19460331	23.1648	
1253	50903		GALAPAGOS ISLAND	-0.47	-90.3	19420801	19481130	11.277600000000001	
1254	50701		GUAYAQUIL	-2.2	-79.88	19570701	99991231	4.2672	
1255	50801		SALINAS	-2.2	-81.0	19420401	19460131	8.2296	
1256	50804		SAN CRISTOBAL	-0.9	-89.62	19540701	19570131	2.1336	
1257	50803		SANTA ELENA	-2.2	-81.0	19421001	19421231	4.2672	
1258	33203		ALEXANDRIA	31.2	29.88	19440901	19450331	12.192	
1259	32302	62414.0	ASWAN	26.97	32.78	19570701	99991231	58.216800000000006	
1260	33310		CAIRO WEST	30.08	30.92	19840327	99991231	163.3728	
1261	33313		CAIRO WEST NODE 050	30.12	30.92	19900930	19910331	152.4	
1262	33302		DEVERSOIR	30.42	32.35	19431101	19450228	7.010400000000001	
1263	31201		EL FASHER SUDAN	13.63	25.35	19430401	19450630	731.2152	
1264	31202		EL GENEINA SUDAN	13.45	22.45	19430401	19450531	810.1584	
1265	32301		LUXOR	25.7	32.7	19431201	19450831	86.25840000000001	
1266	33205		MERSA MATRUH	31.45	27.2	19441201	19451231	26.2128	
1267	33303		PAYNE	30.13	31.4	19431101	19461130	71.0184	
1268	30301		ACESUM AXUM	14.23	38.73	19640601	19650228	2161.032	
1269	30302		ADDIS ABABA	9.0	38.73	19650601	19670228	3620.1096000000002	
1270	30304		ARBA MINCH	6.13	37.63	19651001	19670131	1350.2640000000001	
1271	31307		ASOSA	10.07	34.52	19660401	19670228	1603.248	
1272	31403		ASSAB	13.02	42.72	19640801	19640831	6.096	
1273	30402		AUAREH	8.25	44.17	19650601	19661231	1106.1192	
1274	31306		BAHAR DAR	11.6	37.42	19640701	19670228	1801.0632	
1275	30404		CAPE TI NAK TEAM 6	6.67	43.83	19650701	19650930	453.23760000000004	
1276	30403		CHINNIR TEAM 3	7.03	40.75	19650601	19670131	1981.2	
1277	30401		DIREDAWA	9.6	41.87	19650201	19661231	1162.2024000000001	
1278	31302		ERITREA	15.28	38.92	19431201	19450531	2326.2336	
1279	30405		GODA	5.92	43.5	19660701	19661231	320.04	
1280	31301		GURA	15.03	39.05	19430401	19431231	1971.1416000000002	
1281	30306		JIMMA	7.67	36.83	19661201	19670228	1676.0952	
1282	30305		MAJI	5.75	35.67	19660101	19670228	747.0648	
1283	31305		MASSAWA	15.62	39.48	19640501	19641231	16.154400000000003	
1284	30303		NEGILLI FLT D TM 5	5.28	39.68	19650301	19670131	1450.2384000000002	
1285	31402		TENDAHO	11.8	41.02	19640801	19650331	380.0856	
1286	31304		TESSENEI	15.13	36.7	19640501	19641231	615.0864	
1287	81701		NAIVAKA AAF	-16.63	178.53	19430701	19440228	79.248	
1288	81702		NANDI AAF	-17.75	177.42	19420401	19460531	10.0584	
1289	81704		SUVA POINT	-18.15	178.45	19430801	19450331	5.1816	
1290	81703		YASAWA I RARA	-16.7	177.57	19430801	19440228	3.048	
1291	34021		AMBERIEU EN BUGRY	45.97	5.33	19440901	19440930	305.1048	
1292	14008		BORDEAUX	44.83	-0.72	19520501	19571130	48.1584	
1293	34067		BRIENNE	48.43	4.48	19580901	19650531	120.0912	
1294	34063		CHAMBLEY	49.03	5.87	19541101	19661231	266.0904	
1295	34048		CHATEAUROUX	46.85	1.72	19510801	19661231	164.2872	
1296	34052		CHAUMONT	48.1	5.05	19520301	19661231	313.0296	
1297	34065		DREUX	48.65	1.1	19550901	19661031	183.1848	
1298	34064		ETAIN	49.23	5.68	19541201	19661031	237.1344	
1299	34061		EVREUX	49.02	1.23	19541001	19670630	141.1224	
1300	34059		GROS TENQUIN	49.02	6.7	19550101	19640331	252.0696	
1301	34011		HAUT BIOL	45.6	5.5	19440901	19441130	762.0	
1302	34018		ISTRES	43.5	4.95	19450401	19470430	24.0792	
1303	34053		LAON	49.63	3.55	19520501	19661231	83.2104	
1304	34024		LYONS	45.72	4.92	19450401	19450630	198.12	
1305	34012		MARSEILLE	43.43	5.22	19431201	19440930	12.192	
1306	34060		MARVILLE	49.45	5.42	19550201	19670831	265.176	
1307	35014		MERVILLE PAS DE CALA	50.63	2.63	19450201	19451031	18.288	
1308	34010		MOUNT ROLAND DOLE MU	47.1	5.45	19440901	19441130	306.0192	
1309	34016		NANCY MU 6	48.67	6.2	19441101	19450131	363.01680000000005	
1310	34043		NICE COTE D'AZUR	43.67	7.22	19451001	19460228	1.2192	
1311	34066		ORLEANS	47.93	1.88	19570301	19670331	128.01600000000002	
1312	34022		PARIS ORLY	48.73	2.37	19441001	19610531	100.2792	
1313	34062		PHALSBOURG	48.82	7.2	19541001	19661130	313.0296	
1314	14002		QUERQUEVILLE	49.67	-1.7	19440901	19450131	6.096	
1315	34023		SALON DE PROVINCE	43.63	5.1	19440801	19440930	91.1352	
1316	14009		ST NAZAIRE	47.32	-2.15	19541201	19550331	6.096	
1317	34007		ST TROPEZ	43.52	6.67	19440801	19440930	18.288	
1318	34072		SUIPPES GUN RANGE	49.15	4.63	19600201	19670228	193.2432	
1319	34073		THIONVILLE	49.7	6.2	19600901	19600930	157.2768	
1320	34051		TOUL ROSIERE	48.77	5.98	19520301	19670131	288.036	
1321	34071		VERDUN	49.12	5.47	19591101	19670228	372.1608	
1322	34020		VESOUL MU 2	47.62	6.17	19440901	19440930		
1323	34045		VILLACUUBLAY	48.77	2.2	19450301	19460228	177.08880000000002	
1324	10510		GALLION	4.8	-52.42	19451001	19451231	3.048	
1325	10501		ROCHAMBEAU	4.83	-52.37	19430601	19460331	8.2296	
1326	61502		BORA BORA AAF	-16.45	-151.77	19430701	19440831	3.048	
1327	61503		BORA BORA NF	-16.47	-151.75	19420401	19451130	6.096	
1328	34172		ANSBACH	49.32	10.63	19460601	19841130	467.25840000000005	
1329	34070		BAD KREUZNACH	49.85	7.88	19591101	19841130	105.156	
1330	35105		BAD NEUSTADT	50.33	10.2	19450801	19451031	276.1488	
1331	34197		BAD TOLZ	47.77	11.6	19640901	99991231	716.2800000000001	
1332	34183		BAMBERG	49.9	10.83	19461101	19461231	230.12400000000002	
1333	34077		BAUMHOLDER	49.65	7.3	19650201	19840630	426.1104	
1334	35103		BERLIN	52.48	13.43	19450801	19460731	43.281600000000005	
1335	34049		BITBURG	49.95	6.57	19520401	19841130	374.2944	
1336	35001		BREMEN	53.05	8.8	19460401	19480228	5.1816	
1337	35109		CELLE	52.58	10.03	19481201	19490831	40.2336	
1338	34068		COLEMAN	49.57	8.47	19590801	19850131	96.012	
1339	34168		ERDING	48.32	11.93	19460401	19571130	469.0872	
1340	34164		ERLANGEN	49.6	11.03	19470701	19470930	283.1592	
1341	35033		ESCHBORN	50.13	8.55	19460901	19470228	130.1496	
1342	35108		FASSBERG	52.85	10.18	19481101	19490831	80.1624	
1343	34198		FEUCHT	49.38	11.17	19680101	99991231	386.1816	
1344	35011		FRANKFURT	50.13	8.57	19460901	19460930	130.1496	
1345	35008		FRITZLAR	51.12	9.28	19460501	19471031	173.12640000000002	
1346	35053		FULDA	50.55	9.65	19600901	99991231	305.1048	
1347	34178		FURSTENFELDBRUCK	48.2	11.27	19460701	19571130	530.0472	
1348	34176		FURTH	49.5	10.95	19460301	19710630	305.1048	
1349	34184		FURTH	49.48	10.97	19470601	19470630	314.2488	
1350	34196		GABLINGEN	48.45	10.87	19630901	19690831	466.03920000000005	
1351	34036		GIEBELSTADT	49.65	9.97	19460801	19600531	311.2008	
1352	34189		GRAFENWOHR	49.7	11.93	19590101	99991231	414.2232	
1353	35009		HANAU	50.17	8.97	19460201	19831031	112.16640000000001	
1354	34046		HEIDELBERG	49.4	8.65	19461101	19841130	110.03280000000001	
1355	34195		HOHENFELS	49.22	11.83	19610901	99991231	442.26480000000004	
1356	34055		HUNSRUCK	49.95	7.27	19530701	19841130	502.0056	
1357	34190		ILLESHEIM	49.47	10.38	19590301	99991231	325.2216	
1358	34069		KARLSRUHE	49.02	8.37	19591001	19660228	114.30000000000001	
1359	35012		KASSEL	51.43	9.5	19450801	19470930	296.2656	
1360	34161		KAUFBEUREN	47.87	10.62	19450601	19571130	710.1840000000001	
1361	34163		KITZINGEN	49.75	10.2	19460201	19470930	199.0344	
1362	34191		KITZINGEN	49.75	10.2	19590801	99991231	210.0072	
1363	34078		LAHR	48.37	7.82	19670901	99991231	157.2768	
1364	34169		LANDSBERG	48.08	10.92	19511201	19571130	618.1344	
1365	34186		LECHFELD	48.18	10.87	19460401	19470331	545.2872	
1366	34075		MAINZ	49.97	8.15	19620201	99991231	232.25760000000002	
1367	34032		MANNHEIM HQ CONST	49.47	8.52	19470801	19480228	98.1456	
1368	34193		MULHAUSEN	48.33	10.9	19591101	19650228	493.1664	
1369	34174		MUNCHEN	48.13	11.7	19460601	19540630	526.0848	
1370	35004		MUNSTER	51.0	7.73	19450601	19450630	53.0352	
1371	34171		NEUBIBERG	48.07	11.65	19460201	19580131	550.164	
1372	35002		NORDHOLZ	53.8	8.65	19440701	19470228	27.127200000000002	
1373	34177		NURNBURG	49.5	11.08	19550101	19701231	1677.0096	
1374	34175		OBERPFAFFENHOFEN	48.08	11.28	19460801	19490831	580.0344	
1375	34079		PIRMASENS AHP	49.22	7.62	19720701	19840228	415.1376	
1376	34050		RAMSTEIN	49.43	7.6	19520301	19841130	238.0488	
1377	35032		RHEIN MAIN	50.03	8.58	19460901	99991231	112.16640000000001	
1378	35056		ROSE	50.18	8.67	19650501	19841130	104.2416	
1379	35107		SCHEEINFURT	50.05	10.17	19460201	19471031	247.1928	
1380	34074		SCHWAEBISCH HALL	49.12	9.78	19620101	99991231	399.288	
1381	34056		SEMBACH	49.5	7.87	19530701	19841130	321.2592	
1382	34199		SIENGENBURG GUN RNG	48.75	11.8	19680401	99991231	404.1648	
1383	34057		SOELLINGEN	48.8	8.1	19550101	99991231	137.16	
1384	34054		SPANGDAHLEM	49.98	6.7	19530501	19841130	365.1504	
1385	34180		STRAUBING	48.88	12.58	19460701	19470930	350.21520000000004	
1386	34192		STRAUBING	48.82	12.58	19591001	19650228	370.0272	
1387	34041		STUTTGART	48.68	9.22	19461001	19740731	401.1168	
1388	35110		TEGEL	52.57	13.3	19490201	19490831	37.1856	
1389	35104		TEMPELHOF	52.48	13.4	19460401	19790228	50.292	
1390	34076		WERTHEIM	49.75	9.5	19641101	19841231	357.22560000000004	
1391	35010		WIESBADEN	50.05	8.33	19460201	19840831	140.208	
1392	35057		WUESCHHEIM AS	50.03	7.42	19871001	99991231	453.23760000000004	
1393	34058		ZWEIBRUCKEN	49.22	7.4	19550101	19841130	345.03360000000004	
1394	10001		ACCRA	5.6	-0.17	19420701	19450930	62.1792	
1395	33206		ATHENS	37.97	23.72	19441101	19460430	110.03280000000001	
1396	33206		ATHENS	37.9	23.73	19610101	19661231	9.144	
1397	33208		IRAKLION	35.33	25.17	19640801	19710531	37.1856	
1398	33209		SOUDA BAY CRETE	35.53	24.15	19730801	99991231	146.304	
1399	16301		ANGMAGSSALIK	65.6	-37.55	19420201	19431031	29.260800000000003	
1400	16411		ATTERBURY DOME	65.33	-40.3	19421001	19440930	361.18800000000005	
1401	17615		CAMP CENTURY	77.17	-61.13	19600501	19650831	305.1048	
1402	17617		CAMP TUTO EAST ASC S	76.38	-67.92	19601101	19630831	701.0400000000001	
1403	17612		CAMP TUTO ICECAP ST	76.42	-68.25	19570601	19580930	579.12	
1404	17611		CAMP TUTO ICECAP STA	76.42	-68.32	19570601	19650831	488.2896	
1405	17614		CAMP TUTO ICECAP STA	76.4	-68.13	19570601	19600930	750.1128	
1406	17503		CAMP TUTO SITE 2	76.98	-56.07	19580601	19600831	124.0536	
1407	17616		CAMP TUTO WEST ASC S	76.47	-68.67	19600901	19630831	305.1048	
1408	16403		CAPE ADELAER	61.87	-42.42	19431101	19460831	13.1064	
1409	16303		CAPE DAN	65.53	-37.17	19431001	19450930	214.2744	
1410	16408		COMANCHE BAY	65.07	-40.23	19431201	19450930	361.18800000000005	
1411	16501		CRUNCHER ISLAND	66.03	-53.57	19420901	19480831	13.1064	
1412	17203		DANEBORG	74.5	-20.23	19450901	19460731	4.2672	
1413	16502		EGEDESMINDE	68.7	-52.87	19430101	19490930	32.004000000000005	
1414	16409		FREDERICKSDAL	61.0	-49.0	19430201	19430430	12.192	
1415	16414		FREDERICKSDAL	59.93	-44.63	19440601	19451231	12.192	
1416	16415		FREDERIKSHAAB	61.98	-49.7	19430101	19470630		
1417	16505		GODHAVEN	69.25	-53.5	19420101	19421231		
1418	16506		GODTHAAB	64.17	-51.53	19420601	19421231		
1419	16507		HOLSTEINSBORG	66.92	-53.67	19430901	19500228	23.1648	
1420	16305		ICE CAP	68.25	-36.5	19560401	19560831	2925.1656000000003	
1421	16419		ICE CAP SITE 1 DYE 2	66.48	-46.28	19580701	19610331	2124.1512000000002	
1422	16420		ICE CAP SITE 2 DYE 3	65.18	-43.83	19580701	19610331	2438.0952	
1423	17607		ICECAP	77.0	-56.08	19530701	19570630		
1424	16302		IKATEQ	65.93	-36.68	19421101	19471031	57.302400000000006	
1425	16404		IVIGTUT	61.22	-48.12	19430201	19510831	28.041600000000003	
1426	16304		KANGERDLUGSSUAK	68.15	-31.75	19450901	19460831	7.010400000000001	
1427	16307		KULUSUK ISLAND DYE 4	65.53	-37.18	19610101	99991231	36.2712	
1428	17502		KUTDLIGSSAT	70.02	-52.82	19471201	19520831	6.096	
1429	16503		MARRAK POINT	63.43	-51.18	19430101	19480930	41.148	
1430	16416		MINT JULEP	66.28	-47.77	19530501	19530831	1829.1048	
1431	16402		NARSAK POINT	60.9	-46.0	19440601	19470831	29.260800000000003	
1432	16405		NARSARSSUAK	61.18	-45.42	19410701	19581031	11.277600000000001	
1433	16406		PRINCE CHRISTIAN SOU	60.05	-43.2	19421201	19481231	76.2	
1434	16508		QAQATOQAQA DYE-1	66.63	-52.87	19610101	99991231	1439.2656000000002	
1435	17201		SCORESBYSUND	70.48	-21.97	19411001	19441231		
1436	16407		SIMIUTAK	60.68	-46.53	19420501	19570630	62.1792	
1437	16401		SKJOLDUNGEN	63.18	-41.33	19421201	19460930	91.1352	
1438	16504		SONDRESTROM	67.02	-50.8	19411101	19730331	50.292	
1439	16306		STARLIGHT 27	69.38	-35.92	19560401	19560831	2759.0496000000003	
1440	17301		STARLIGHT 28	70.62	-36.17	19560401	19560831	3140.0496000000003	
1441	16417		STARLIGHT 29	68.07	-42.33	19560401	19560831	2593.2384	
1442	16418		STARLIGHT 30	69.55	-43.17	19560401	19560831	2559.1008	
1443	17602		THULE	76.55	-68.82	19430901	19520731	38.1	
1444	17603		THULE B SITE	76.53	-68.33	19520501	19520831	340.15680000000003	
1445	17610		THULE MILE 60 SIERRA	77.23	-62.33	19530701	19540831	1704.1368	
1446	17605		THULE OP SITE	76.52	-68.83	19511001	19841130	77.1144	
1447	17604		THULE ORIGINAL SITE	76.52	-68.83	19510901	19511031	26.2128	
1448	17606		THULE SITE 1 ETAL	78.13	-71.62	19530701	19561130		
1449	17501		UPERNAVIK	72.75	-56.0	19430601	19481031	62.1792	
1450	17202		WALRUS BAY	70.5	-21.97	19440801	19490731	9.144	
1451	16413		WEST BLUIE	61.17	-45.67	19420501	19420831	21.031200000000002	
1452	11642		POINT A PITRE	16.27	-61.52	19560301	99991231	2.1336	
1453	41416		GUAM AIR SAMPLE STN	13.43	144.78	19830502	99991231	2.1336	
1454	41405		GUAM HARMON AFB	13.52	144.82	19450401	19500731	54.254400000000004	
1455	41403		GUAM KAGMAN POINT	15.17	145.78	19440701	19451031	72.2376	
1456	41409		GUAM KAGMAN POINT	15.17	145.78	19450701	19450831	72.2376	
1457	41410		GUAM MARPI POINT	15.27	145.82	19450501	19450831	47.244	
1458	41407		GUAM MARSHALL ISLAND	13.47	144.25	19300101	19461231	55.168800000000005	
1459	41414		GUAM MARSHALL ISLAND	13.58	144.92	19480501	19950101	191.1096	
1460	41414		GUAM MARSHALL ISLAND	13.58	144.92	19950101	99991231	191.1096	
1461	41406	91212.0	GUAM NAS	13.48	144.8	19560401	19560430	85.03920000000001	
1462	41406	91212.0	GUAM NAS	13.48	144.8	19560430	19820101	75.8952	
1463	41406	91212.0	GUAM NAS	13.48	144.8	19820101	19930125	77.4192	
1464	41406	91212.0	GUAM NAS	13.48	144.8	19930125	19950401	77.4192	
1465	41406	91212.0	GUAM NAS	13.48	144.8	19950401	19960620	77.4192	
1466	41406	91212.0	GUAM NWSO TIYAN	13.48	144.8	19440901	19560401	85.03920000000001	
1467	41406	91212.0	GUAM NWSO TIYAN	13.48	144.8	19960620	19980101	77.4192	
1468	41415	91212.0	GUAM NWSO TIYAN	13.48	144.8	19980101	20000111	77.4192	
1469	41401		GUAM OROTE	13.43	144.63	19450601	19480531	30.1752	
1470	41411		GUAM OROTE	13.43	144.63	19441201	19480531	24.0792	
1471	41417		ANDERSEN AFB	13.45	144.81	19930916	99991231	80.4672	
1472	41415	91217.0	GUAM TAGUAC WSMO	13.55	144.83	19560701	19560901	109.11840000000001	
1473	41415	91217.0	GUAM WB	13.55	144.83	19571001	19610101	109.11840000000001	
1474	41415	91217.0	GUAM WSMO	13.55	144.83	19610101	19820101	109.11840000000001	
1475	41415	91217.0	GUAM WSMO	13.55	144.83	19820101	19851004	110.03280000000001	
1476	41415	91217.0	GUAM WSMO	13.55	144.83	19851004	19960723	110.03280000000001	
1477	41415	91217.0	GUAM WSMO	13.56	144.84	19960723	19980401	110.03280000000001	
1478	41415	91217.0	TAGUAC WB	13.55	144.83	19560901	19570831	109.11840000000001	
1479	41415	91212.0	GUAM NWSO TIYAN	13.48	144.8	20000111	99991231	90.52560000000001	
1480	11901		GUATEMALA CITY	14.53	-90.57	19731101	99991231	1496.2632	
1481	11901		GUATEMALA CITY	14.58	-90.53	19420201	19460131	1486.2048	
1482	11802		PUERTO BARRIOS	15.72	-88.6	19430601	19440430	7.010400000000001	
1483	11902		SAN JOSE	13.92	-90.83	19420801	19460731	5.1816	
1484	11102		BISSAU DJABEL	11.87	-15.63	19430201	19430331		
1485	10502		GEORGETOWN	6.5	-58.25	19410801	19490531	29.260800000000003	
1486	10508		GEORGETOWN	6.5	-58.25	19430501	19431130	29.260800000000003	
1487	11717		CAP HAITEIN	19.0	-72.0	19941001	19941130	3.048	
1488	11702		CAPE HAITIEN	19.75	-72.2	19430801	19450630	6.096	
1489	11710		PORT AU PRINCE	18.55	-72.33	19170301	19690731	37.1856	
1490	11701		PORT AU PRINCE BOWEN	18.55	-72.35	19420601	19460331	16.154400000000003	
1491	11709		PORT AU PRINCE NAS	18.53	-72.37	19250101	19340731	3.048	
1492	11716		PORT AU PRINCE USAF	18.58	-72.3	19940901	99991231	37.4904	
1493	11816		CHOLUTECA	13.3	-87.18	19730101	99991231	49.0728	
1494	11815		LANDIVAR	17.52	-88.2	19161201	99991231	3.048	
1495	11806		PUERTO CASTILLA	16.02	-85.95	19421101	19451130	2.1336	
1496	11821		SAN LORENZO	15.0	-86.0	19830901	99991231	3.048	
1497	11819		SAN LORENZO CAMP FON	13.45	-87.42	19830901	99991231	3.048	
1498	11820		SOTO CANO AB	14.22	-87.1	19830801	19961101	620.8776	
1499	11820		SOTO CANO AB	14.22	-87.1	19961101	99991231	620.8776	
1500	11807		SWAN ISLAND	17.4	-83.93	19290801	19800331	11.277600000000001	
1501	11817		TEGUCIGALPA D C	14.03	-87.23	19760601	99991231	998.22	
1502	11811		TELA	15.77	-87.45	19230101	19570630	3.048	
1503	11822		CUCUYAGUA	14.63	-88.88	19840525	99991231	801.9288	
1504	11824		KQIW	14.0	-88.0	19850218	99991231	852.2208	
1505	11823		LE MESA	15.45	-87.92	19850211	99991231	26.5176	
1506	64101		HEGYHATSAL AIR SAMPL	46.97	16.38	19930301	99991231	240.1824	
1507	16101		CAMP DELTA	65.67	-18.08	19440101	19440831	3.048	
1508	16205		HEIMAEY AIR SAMP STN	63.25	-20.15	19921002	99991231	100.2792	
1509	91004		ICE SKATE B	80.0	-113.0	19600301	19601231		
