file_statid	station_id	station_name	latitude	longitude	elevation	original_lat	original_lon	distance_km	lat_file	lon_file	inventory	WIGOS	WMO_id	WIGOS_calc	file_min_date	file_max_date	start_date	end_date	isRadio	WIGOS_best	city	variables
2:34007	07684	CANNES	43.55638888888888	6.950555555555556	4.0	43 33 23N	006 57 02E	23.0	[43.52, 43.52]	[6.67, 6.67]	OSCAR	0-20000-0-07684		0-20000-0-07684	19440819	19440821	999	999	False	0-20000-0-07684	frejus	[106, 107]
2:34007	07675	LE LUC	43.38305555555556	6.386111111111112	82.0	43 22 59N	006 23 10E	27.6	[43.52, 43.52]	[6.67, 6.67]	OSCAR	0-20000-0-07675		0-20000-0-07675	19440819	19440821	999	999	False	0-20000-0-07684	frejus	[106, 107]
2:34007	07680	SAINT-RAPHAEL	43.417	6.75	6.0			13.1	[43.52, 43.52]	[6.67, 6.67]	IGRA2			0-20300-0-07680	19440819	19440821	1982	1982	True	0-20000-0-07684	frejus	[106, 107]
2:34007	34007	ST TROPEZ	43.52	6.67	18.288			0.0	[43.52, 43.52]	[6.67, 6.67]	WBAN			0-20500-0-34007	19440819	19440821	19440801	19440930		0-20000-0-07684	frejus	[106, 107]
2:34007	4516	Saint-Raphaël base	43.416	6.75	2			13.2	[43.52, 43.52]	[6.67, 6.67]	CHUAN		-999	0-20400-0-4516	19440819	19440821	192101	193712		0-20000-0-07684	frejus	[106, 107]
2:34007	5744	St. Raphaël	43.42	6.78	30			14.2	[43.52, 43.52]	[6.67, 6.67]	CHUAN		-999	0-20400-0-5744	19440819	19440821	-999-999	-999-999		0-20000-0-07684	frejus	[106, 107]
2:34007	7680	Saint-Raphael, France	43.42	6.75	-999			12.9	[43.52, 43.52]	[6.67, 6.67]	SCHROEDER		7680	0-20600-0-7680	19440819	19440821				0-20000-0-07684	frejus	[106, 107]
2:34007	07684	CANNES                   	43.55	6.95	-999.0			22.9	[43.52, 43.52]	[6.67, 6.67]	WMO		07684	0-20700-0-07684	19440819	19440821				0-20000-0-07684	frejus	[106, 107]
2:34007	07675	LE LUC                   	43.36666666666667	6.383333333333334	-999.0			28.8	[43.52, 43.52]	[6.67, 6.67]	WMO		07675	0-20700-0-07675	19440819	19440821				0-20000-0-07684	frejus	[106, 107]
