level_0	index	WIGOS	station_name	latitude	longitude	elevation	ObsRems	original_lat	original_lon	station_id	start_date	end_date	isRadio	distance_km	distance_km_minusLat	inventory	WIGOS_calc	city	city_dist_km	city_lat	city_lon	station_id_igra	WMO_id	Unnamed: 0	date_min	date_max	lat_file	lon_file	file	file_dataset	file_min_date	file_max_date	file_statid	WIGOS_best	variables
0	0	0-20000-0-12812	SZOMBATHELY	47.19833333333333	16.647777777777776	221.0	Surface land meteorological station (SYNOP), GOS, CLIMAT(C)	47 11 54N	016 38 52E	12812	999	999	False	9.3		OSCAR	0-20000-0-12812	szombathely	5.2	47.233333	16.616667						[47.28, 47.28]	[16.62, 16.62]	era5.1761.conv.1:12812	era5_1761	19440307	19581231	1:12812	0-20000-0-12812	[106, 107]
1	2	0-20000-0-11393	LUTZMANNSBURG	47.46527777777778	16.645555555555553	200.1	Surface land meteorological station (SYNOP), GOS	47 27 55N	016 38 44E	11393	999	999	False	20.7		OSCAR	0-20000-0-11393	szombathely	5.2	47.233333	16.616667						[47.28, 47.28]	[16.62, 16.62]	era5.1761.conv.1:12812	era5_1761	19440307	19581231	1:12812	0-20000-0-12812	[106, 107]
2	3	0-20000-0-11192	KLEINZICKEN	47.2075	16.335555555555555	267.1	Surface land meteorological station (SYNOP), GOS	47 12 27N	016 20 08E	11192	999	999	False	23.0		OSCAR	0-20000-0-11192	szombathely	5.2	47.233333	16.616667						[47.28, 47.28]	[16.62, 16.62]	era5.1761.conv.1:12812	era5_1761	19440307	19581231	1:12812	0-20000-0-12812	[106, 107]
0	0		SZOMBATHELY	47.267	16.633	221.0				12812	1982	1982	True	1.7		IGRA2	0-20300-0-12812	szombathely	5.2	47.233333	16.616667	HUM00012812					[47.28, 47.28]	[16.62, 16.62]	era5.1761.conv.1:12812	era5_1761	19440307	19581231	1:12812	0-20000-0-12812	[106, 107]
0	0															WBAN	0-20500-0-nan	szombathely	5.2	47.233333	16.616667						[47.28, 47.28]	[16.62, 16.62]	era5.1761.conv.1:12812	era5_1761	19440307	19581231	1:12812	0-20000-0-12812	[106, 107]
0	0		Szombately	47.25	16.6	210				5351	-999-999	-999-999		3.7		CHUAN	0-20400-0-5351	szombathely	5.2	47.233333	16.616667		-999				[47.28, 47.28]	[16.62, 16.62]	era5.1761.conv.1:12812	era5_1761	19440307	19581231	1:12812	0-20000-0-12812	[106, 107]
0	0		Szombathely, Hungary	47.27	16.63	-999				12812				1.3		SCHROEDER	0-20600-0-12812	szombathely	5.2	47.233333	16.616667		12812	510.0	1971-01-01 00:00:00	1973-02-01 00:00:00	[47.28, 47.28]	[16.62, 16.62]	era5.1761.conv.1:12812	era5_1761	19440307	19581231	1:12812	0-20000-0-12812	[106, 107]
0	0		SZOMBATHELY-REPULOTER    	47.266666666666666	16.633333333333333	-999.0				12812				1.8		WMO	0-20700-0-12812	szombathely	5.2	47.233333	16.616667		12812	2347.0			[47.28, 47.28]	[16.62, 16.62]	era5.1761.conv.1:12812	era5_1761	19440307	19581231	1:12812	0-20000-0-12812	[106, 107]
