file_statid	station_id	station_name	latitude	longitude	elevation	original_lat	original_lon	distance_km	lat_file	lon_file	inventory	WIGOS	WMO_id	WIGOS_calc	file_min_date	file_max_date	start_date	end_date	isRadio	WIGOS_best	city	variables
9:4182	02171	BODEN	65.80833333333334	21.634444444444444	26.8	65 48 30N	021 38 04E	3.2	[65.83, 65.83]	[21.68, 21.68]	OSCAR	0-20000-0-02171		0-20000-0-02171	19320815	19331213	999.0	999.0	False	0-20000-0-02171	boden	[85, 117]
9:4182	02170	SAVAST	65.75277777777778	21.765	12.0	65 45 10N	021 45 54E	9.4	[65.83, 65.83]	[21.68, 21.68]	OSCAR	0-20000-0-02170		0-20000-0-02170	19320815	19331213	999.0	999.0	False	0-20000-0-02171	boden	[85, 117]
9:4182									[65.83, 65.83]	[21.68, 21.68]	IGRA2			0-20300-0-nan	19320815	19331213				0-20000-0-02171	boden	[85, 117]
9:4182									[65.83, 65.83]	[21.68, 21.68]	WBAN			0-20500-0-nan	19320815	19331213				0-20000-0-02171	boden	[85, 117]
9:4182									[65.83, 65.83]	[21.68, 21.68]	CHUAN			0-20400-0-nan	19320815	19331213				0-20000-0-02171	boden	[85, 117]
9:4182	2224	Boden / Bodan AP, Sweden	65.81	21.69	-999.0			2.3	[65.83, 65.83]	[21.68, 21.68]	SCHROEDER		2224	0-20600-0-2224	19320815	19331213				0-20000-0-02171	boden	[85, 117]
9:4182	02171	BODEN MO                 	65.81666666666666	21.633333333333333	-999.0			2.6	[65.83, 65.83]	[21.68, 21.68]	WMO		02171	0-20700-0-02171	19320815	19331213				0-20000-0-02171	boden	[85, 117]
9:4182	02170	SAVAST V                 	65.75	21.766666666666666	-999.0			9.8	[65.83, 65.83]	[21.68, 21.68]	WMO		02170	0-20700-0-02170	19320815	19331213				0-20000-0-02171	boden	[85, 117]
