level_0	index	WIGOS	station_name	latitude	longitude	elevation	ObsRems	original_lat	original_lon	station_id	start_date	end_date	isRadio	distance_km	distance_km_minusLat	inventory	WIGOS_calc	city	city_dist_km	city_lat	city_lon	station_id_igra	WMO_id	Unnamed: 0	date_min	date_max	lat_file	lon_file	file	file_dataset	file_min_date	file_max_date	file_statid	WIGOS_best	variables
0	0	0-20000-0-52866	XINING (52866-0)	36.65	101.71666666666667		Climatological station, Surface land meteorological station (SYNOP), CLIMAT(C), RBCN, RBSN(S), GOS	36 39 00N	101 43 00E	52866	999.0	999.0	False	19.8		OSCAR	0-20000-0-52866	xining	14.3	36.616667	101.766667						[36.58, 36.58]	[101.92, 101.92]	era5.1761.conv.1:52866	era5_1761	19570302	19591231	1:52866	0-20001-0-52866	[106, 107]
1	1	0-20001-0-52866	XINING (52866-1)	36.65	101.71666666666667		Upper-air / Radiosonde station, GOS, RBSN(T)	36 39 00N	101 43 00E	52866	999.0	999.0	True	19.8		OSCAR	0-20001-0-52866	xining	14.3	36.616667	101.766667						[36.58, 36.58]	[101.92, 101.92]	era5.1761.conv.1:52866	era5_1761	19570302	19591231	1:52866	0-20001-0-52866	[106, 107]
0	0		XINING	36.7167	101.75	2296.0				52866	1958.0	2021.0	True	21.5		IGRA2	0-20300-0-52866	xining	14.3	36.616667	101.766667	CHM00052866					[36.58, 36.58]	[101.92, 101.92]	era5.1761.conv.1:52866	era5_1761	19570302	19591231	1:52866	0-20001-0-52866	[106, 107]
0	0															WBAN	0-20500-0-nan	xining	14.3	36.616667	101.766667						[36.58, 36.58]	[101.92, 101.92]	era5.1761.conv.1:52866	era5_1761	19570302	19591231	1:52866	0-20001-0-52866	[106, 107]
0	0															CHUAN	0-20400-0-nan	xining	14.3	36.616667	101.766667						[36.58, 36.58]	[101.92, 101.92]	era5.1761.conv.1:52866	era5_1761	19570302	19591231	1:52866	0-20001-0-52866	[106, 107]
0	0		Xining, China	36.58	101.92	-999.0				52866				0.0		SCHROEDER	0-20600-0-52866	xining	14.3	36.616667	101.766667		52866	1548.0	1958-10-01 00:00:00	2004-12-31 00:00:00	[36.58, 36.58]	[101.92, 101.92]	era5.1761.conv.1:52866	era5_1761	19570302	19591231	1:52866	0-20001-0-52866	[106, 107]
1	1		(made up station ID) Xining, China ozonesondes	36.72	101.75	-999.0				52867				21.7		SCHROEDER	0-20600-0-52867	xining	14.3	36.616667	101.766667		52867	1549.0	1995-10-01 00:00:00	1995-10-01 00:00:00	[36.58, 36.58]	[101.92, 101.92]	era5.1761.conv.1:52866	era5_1761	19570302	19591231	1:52866	0-20001-0-52866	[106, 107]
0	0		XINING                   	36.61666666666667	101.76666666666668	-999.0				52866				14.3		WMO	0-20700-0-52866	xining	14.3	36.616667	101.766667		52866	4408.0			[36.58, 36.58]	[101.92, 101.92]	era5.1761.conv.1:52866	era5_1761	19570302	19591231	1:52866	0-20001-0-52866	[106, 107]
