file_statid	station_id	station_name	latitude	longitude	elevation	original_lat	original_lon	distance_km	lat_file	lon_file	inventory	WIGOS	WMO_id	WIGOS_calc	file_min_date	file_max_date	start_date	end_date	isRadio	WIGOS_best	city	variables
2:10505	10505	AACHEN-ORSBACH	50.79833333333333	6.024444444444445	232.54	50 47 54N	006 01 28E	7465.0	[3.87, 3.87]	[-51.82, -51.82]	OSCAR	0-20000-0-10505		0-20000-0-10505	19431020	19451020	999.0	999.0	False	0-20000-0-81408	matoury	[106, 107]
2:10505	81408	SAINT GEORGES	3.8905555555555553	-51.80472222222222	7.0	03 53 26N	051 48 17W	2.8	[3.87, 3.87]	[-51.82, -51.82]	OSCAR	0-20000-0-81408		0-20000-0-81408	19431020	19451020	999.0	999.0	False	0-20000-0-81408	matoury	[106, 107]
2:10505	82017	OIAPOQUE (82017-0)	3.8333333333333335	-51.833333333333336		03 50 00N	051 50 00W	4.3	[3.87, 3.87]	[-51.82, -51.82]	OSCAR	0-20000-0-82017		0-20000-0-82017	19431020	19451020	999.0	999.0	False	0-20000-0-81408	matoury	[106, 107]
2:10505	81609	OIAPOQUE (81609-0)	3.813611111111111	-51.862500000000004	20.5	03 48 49N	051 51 45W	7.8	[3.87, 3.87]	[-51.82, -51.82]	OSCAR	0-20000-0-81609		0-20000-0-81609	19431020	19451020	999.0	999.0	False	0-20000-0-81408	matoury	[106, 107]
2:10505	81408	SAINT GEORGES	3.883	-51.8	6.0			2.6	[3.87, 3.87]	[-51.82, -51.82]	IGRA2			0-20300-0-81408	19431020	19451020	1974.0	2000.0	True	0-20000-0-81408	matoury	[106, 107]
2:10505	10505	CLEVELANDIA	3.87	-51.82	29.260800000000003			0.0	[3.87, 3.87]	[-51.82, -51.82]	WBAN			0-20500-0-10505	19431020	19451020	19431001.0	19451031.0		0-20000-0-81408	matoury	[106, 107]
2:10505									[3.87, 3.87]	[-51.82, -51.82]	CHUAN			0-20400-0-nan	19431020	19451020				0-20000-0-81408	matoury	[106, 107]
2:10505	81408	SOOG Saint Georges de l'Oyapock AP, French Guiana	3.88	-51.8	-999.0			2.5	[3.87, 3.87]	[-51.82, -51.82]	SCHROEDER		81408	0-20600-0-81408	19431020	19451020				0-20000-0-81408	matoury	[106, 107]
2:10505	81408	ST GEORGES DE L'OYAPOCK  	3.883333333333333	-51.8	6.0			2.7	[3.87, 3.87]	[-51.82, -51.82]	WMO		81408	0-20700-0-81408	19431020	19451020				0-20000-0-81408	matoury	[106, 107]
