primary_id	secondary_id	station_name	latitude	longitude	start	end	file
0-20000-0-11030	[11030]	TULLN/LANGENLEBARN	48.32	16.120001	1949-02-10 00:00:00	1951-11-30 00:00:00	/raid60/scratch/leo/scratch/era5/odbs/1761/era5.1761.conv.1:11030
0-20000-0-16641	[16641]	KERKYRA (AIRPORT)	39.619999	19.92	1952-07-02 00:00:00	1963-07-24 00:00:00	/raid60/scratch/leo/scratch/era5/odbs/1761/era5.1761.conv.1:16641
0-20000-0-91212	[41407]	WEATHER FORECAST OFFICE, GUAM, MARIANA IS.	13.47	144.78	1924-12-31 00:00:00	1925-12-31 00:00:00	/raid60/scratch/leo/scratch/era5/odbs/1761/era5.1761.conv.1925
0-20000-0-20551	[20551]	VISHAKHAPATNAM	17.700001	83.300003	1945-06-07 00:00:00	1979-12-31 00:00:00	/raid60/scratch/leo/scratch/era5/odbs/1761/era5.1761.conv.1:20551
0-20000-0-23552	[23552]	TARKO-SALE	64.919998	77.82	1955-07-01 00:00:00	1979-12-31 00:00:00	/raid60/scratch/leo/scratch/era5/odbs/1761/era5.1761.conv.1:23552
0-20000-0-28722	[28722]	UFA-DIOMA	54.75	56.0	1946-10-01 00:00:00	1972-12-31 00:00:00	/raid60/scratch/leo/scratch/era5/odbs/1761/era5.1761.conv.1:28722
0-20000-0-16642	[16642]	IOANNINA (AIRPORT)	39.669998	20.85	1949-12-08 00:00:00	1956-03-21 00:00:00	/raid60/scratch/leo/scratch/era5/odbs/1761/era5.1761.conv.1:16642
0-20000-0-11035	[11035]	WIEN/HOHE WARTE (11035-0)	48.25	16.370001	1951-12-01 00:00:00	1979-12-31 00:00:00	/raid60/scratch/leo/scratch/era5/odbs/1761/era5.1761.conv.1:11035
0-20000-0-25703	[25703]	SEJMCHAN	62.93	152.429993	1955-04-26 00:00:00	1979-12-31 00:00:00	/raid60/scratch/leo/scratch/era5/odbs/1761/era5.1761.conv.1:25703
0-20000-0-31873	[31873]	DAL'NERECHENSK	45.869999	133.729996	1957-01-03 00:00:00	1979-12-31 00:00:00	/raid60/scratch/leo/scratch/era5/odbs/1761/era5.1761.conv.1:31873
0-20000-0-34731	[34731]	ROSTOV-NA-DONU (34731-1)	47.25	39.82	1946-10-01 00:00:00	1979-12-31 00:00:00	/raid60/scratch/leo/scratch/era5/odbs/1761/era5.1761.conv.1:34731
0-20000-0-41768	[41768]	CHHOR	25.52	69.779999	1954-01-01 00:00:00	1963-12-31 00:00:00	/raid60/scratch/leo/scratch/era5/odbs/1761/era5.1761.conv.1:41768
0-20000-0-20667	[20667]	IM. M.V. POPOVA	73.330002	70.029999	1953-02-16 00:00:00	1979-12-31 00:00:00	/raid60/scratch/leo/scratch/era5/odbs/1761/era5.1761.conv.1:20667
0-20000-0-61641	[671]	DAKAR/YOFF	14.73	-17.5	1904-01-01 00:00:00	1904-01-01 00:00:00	/raid60/scratch/leo/scratch/era5/odbs/1761/era5.1761.conv.1904
0-20000-0-47612	[47612]	TAKADA	37.099998	138.25	1933-05-31 00:00:00	1941-09-02 00:00:00	/raid60/scratch/leo/scratch/era5/odbs/1761/era5.1761.conv.1:47612
0-20000-0-47945	[47945]	MINAMIDAITOJIMA	25.83	131.229996	1946-12-31 00:00:00	1951-06-29 00:00:00	/raid60/scratch/leo/scratch/era5/odbs/1761/era5.1761.conv.1:47945
0-20000-0-38687	[38687]	TURKMENABAT	39.080002	63.599998	1949-02-15 00:00:00	1979-12-31 00:00:00	/raid60/scratch/leo/scratch/era5/odbs/1761/era5.1761.conv.1:38687
0-20000-0-47759	[47759]	KYOTO	35.02	135.729996	1929-01-09 00:00:00	1941-08-30 00:00:00	/raid60/scratch/leo/scratch/era5/odbs/1761/era5.1761.conv.1:47759
0-20000-0-42798	[42798]	JAMSHEDPUR (42798-0)	22.82	86.18	1954-01-01 00:00:00	1967-07-28 00:00:00	/raid60/scratch/leo/scratch/era5/odbs/1761/era5.1761.conv.1:42798
0-20000-0-22517	[22517]	HONOLULU, OAHU, HAWAII	21.35	-157.95	1926-01-01 00:00:00	1926-12-31 00:00:00	/raid60/scratch/leo/scratch/era5/odbs/1761/era5.1761.conv.1926
0-20000-0-16687	[16687]	ANDRAVIDA (AIRPORT)	38.169998	21.42	1953-02-21 00:00:00	1967-11-09 00:00:00	/raid60/scratch/leo/scratch/era5/odbs/1761/era5.1761.conv.1:16687
0-20000-0-53276	[53276]	JURH	42.619999	112.830002	1957-03-01 00:00:00	1958-09-29 00:00:00	/raid60/scratch/leo/scratch/era5/odbs/1761/era5.1761.conv.1:53276
0-20000-0-72295	[72295]	LOS ANGELES /INT.,  CA.	33.93	-117.599998	1926-09-11 00:00:00	1931-09-30 00:00:00	/raid60/scratch/leo/scratch/era5/odbs/1761/era5.1761.conv.1:72295
0-20000-0-47616	[47616]	FUKUI	36.049999	136.229996	1938-06-01 00:00:00	1941-06-25 00:00:00	/raid60/scratch/leo/scratch/era5/odbs/1761/era5.1761.conv.1:47616
0-20000-0-10393	[10393]	LINDENBERG (10393-0)	52.22	14.12	1905-04-05 00:00:00	1905-12-09 00:00:00	/raid60/scratch/leo/scratch/era5/odbs/1761/era5.1761.conv.1905
0-20000-0-43369	[43369]	MINICOY	8.3	73.0	1954-01-01 00:00:00	1967-01-31 00:00:00	/raid60/scratch/leo/scratch/era5/odbs/1761/era5.1761.conv.1:43369
0-20000-0-48877	[48877]	NHA TRANG	12.25	109.199997	1954-07-01 00:00:00	1967-07-31 00:00:00	/raid60/scratch/leo/scratch/era5/odbs/1761/era5.1761.conv.1:48877
0-20000-0-11518	[11518]	PRAHA/RUZYNE	50.099998	14.28	1953-09-10 00:00:00	1979-12-31 00:00:00	/raid60/scratch/leo/scratch/era5/odbs/1761/era5.1761.conv.1:11518
0-20000-0-47761	[47761]	HIKONE	35.27	136.25	1926-03-12 00:00:00	1941-06-09 00:00:00	/raid60/scratch/leo/scratch/era5/odbs/1761/era5.1761.conv.1:47761
0-20000-0-72227	[72227]	MARIETTA/DOBBINS AFB, GA.	33.93	-84.529999	1948-04-01 00:00:00	1953-12-31 00:00:00	/raid60/scratch/leo/scratch/era5/odbs/1761/era5.1761.conv.1:72227
0-20000-0-25913	[25913]	MAGADAN	59.580002	150.779999	1950-03-14 00:00:00	1979-12-31 00:00:00	/raid60/scratch/leo/scratch/era5/odbs/1761/era5.1761.conv.1:25913
0-20000-0-48019	[48019]	BHAMO	24.27	97.199997	1954-09-06 00:00:00	1959-12-14 00:00:00	/raid60/scratch/leo/scratch/era5/odbs/1761/era5.1761.conv.1:48019
0-20000-0-28952	[28952]	KOSTANAY	53.220001	63.619999	1950-10-12 00:00:00	1979-12-31 00:00:00	/raid60/scratch/leo/scratch/era5/odbs/1761/era5.1761.conv.1:28952
0-20000-0-34858	[34858]	DIVNOE	45.919998	43.349998	1957-11-01 00:00:00	1979-12-31 00:00:00	/raid60/scratch/leo/scratch/era5/odbs/1761/era5.1761.conv.1:34858
0-20000-0-31909	[31909]	TERNEJ	45.029999	136.669998	1950-09-02 00:00:00	1979-12-31 00:00:00	/raid60/scratch/leo/scratch/era5/odbs/1761/era5.1761.conv.1:31909
0-20000-0-16689	[16689]	ANDRAVIDA (AIRPORT)	38.25	21.73	1949-10-01 00:00:00	1953-02-21 00:00:00	/raid60/scratch/leo/scratch/era5/odbs/1761/era5.1761.conv.1:16689
0-20000-0-54823	[54823]	JINAN	36.700001	117.07	1956-08-21 00:00:00	1959-12-31 00:00:00	/raid60/scratch/leo/scratch/era5/odbs/1761/era5.1761.conv.1:54823
0-20000-0-23804	[23804]	SYKTYVKAR (23804-0)	61.669998	50.849998	1947-01-01 00:00:00	1979-12-31 00:00:00	/raid60/scratch/leo/scratch/era5/odbs/1761/era5.1761.conv.1:23804
0-20000-0-10393	[10393]	LINDENBERG (10393-0)	52.22	14.12	1906-01-03 00:00:00	1906-12-27 00:00:00	/raid60/scratch/leo/scratch/era5/odbs/1761/era5.1761.conv.1906
0-20000-0-1152	[1152]	BODO VI	67.269997	14.37	1942-04-01 00:00:00	1959-03-31 00:00:00	/raid60/scratch/leo/scratch/era5/odbs/1761/era5.1761.conv.1:1152
0-20000-0-47624	[47624]	MAEBASHI	36.400002	139.070007	1932-06-30 00:00:00	1953-12-31 00:00:00	/raid60/scratch/leo/scratch/era5/odbs/1761/era5.1761.conv.1:47624
0-20000-0-47762	[47762]	SHIMONOSEKI	33.950001	130.929993	1938-01-03 00:00:00	1941-01-27 00:00:00	/raid60/scratch/leo/scratch/era5/odbs/1761/era5.1761.conv.1:47762
0-20000-0-38750	[38750]	ESENGULY	37.470001	53.970001	1950-11-04 00:00:00	1979-12-31 00:00:00	/raid60/scratch/leo/scratch/era5/odbs/1761/era5.1761.conv.1:38750
0-20000-0-48042	[48042]	MANDALAY	21.98	96.099998	1954-07-07 00:00:00	1964-04-29 00:00:00	/raid60/scratch/leo/scratch/era5/odbs/1761/era5.1761.conv.1:48042
0-20000-0-53463	[53463]	HOHHOT	40.82	111.68	1957-03-01 00:00:00	1959-12-30 00:00:00	/raid60/scratch/leo/scratch/era5/odbs/1761/era5.1761.conv.1:53463
0-20000-0-72228	[72228]	BIRMINGHAM/MUN., AL.	33.57	-86.75	1939-03-18 00:00:00	1947-12-31 00:00:00	/raid60/scratch/leo/scratch/era5/odbs/1761/era5.1761.conv.1:72228
0-20000-0-20674	[20674]	OSTROV DIKSON	73.5	80.400002	1934-11-08 00:00:00	1979-12-31 00:00:00	/raid60/scratch/leo/scratch/era5/odbs/1761/era5.1761.conv.1:20674
0-20000-0-34866	[34866]	YASHKUL'	46.18	45.349998	1951-01-08 00:00:00	1957-11-05 00:00:00	/raid60/scratch/leo/scratch/era5/odbs/1761/era5.1761.conv.1:34866
0-20000-0-10393	[10393]	LINDENBERG (10393-0)	52.22	14.12	1907-01-01 00:00:00	1907-12-28 00:00:00	/raid60/scratch/leo/scratch/era5/odbs/1761/era5.1761.conv.1907
0-20000-0-47626	[47626]	KUMAGAYA	36.150002	139.380005	1922-10-01 00:00:00	1941-07-27 00:00:00	/raid60/scratch/leo/scratch/era5/odbs/1761/era5.1761.conv.1:47626
0-20000-0-11567	[11567]	PRAHA-KBELY	50.119999	14.53	1949-06-08 00:00:00	1953-09-09 00:00:00	/raid60/scratch/leo/scratch/era5/odbs/1761/era5.1761.conv.1:11567
0-20000-0-47765	[47765]	HIROSHIMA	34.369999	132.429993	1924-04-02 00:00:00	1945-01-25 00:00:00	/raid60/scratch/leo/scratch/era5/odbs/1761/era5.1761.conv.1:47765
0-20000-0-41780	[41780]	KARACHI AIRPORT	24.9	67.129997	1954-01-01 00:00:00	1963-12-31 00:00:00	/raid60/scratch/leo/scratch/era5/odbs/1761/era5.1761.conv.1:41780
[]	[25954]	KORF	60.349998	166.0	1952-01-01 00:00:00	1979-12-31 00:00:00	/raid60/scratch/leo/scratch/era5/odbs/1761/era5.1761.conv.1:25954
0-20000-0-54857	[54857]	QINGDAO	36.07	120.32	1957-03-04 00:00:00	1959-12-19 00:00:00	/raid60/scratch/leo/scratch/era5/odbs/1761/era5.1761.conv.1:54857
0-20000-0-72546	[72550]	DES MOINES/MUN., IA.	41.299999	-94.120003	1926-12-31 00:00:00	1927-12-31 00:00:00	/raid60/scratch/leo/scratch/era5/odbs/1761/era5.1761.conv.1927
0-20000-0-31960	[31960]	VLADIVOSTOK	43.119999	131.899994	1946-10-01 00:00:00	1979-12-31 00:00:00	/raid60/scratch/leo/scratch/era5/odbs/1761/era5.1761.conv.1:31960
0-20000-0-29231	[29231]	KOLPASEVO	58.299999	82.900002	1951-08-08 00:00:00	1979-12-31 00:00:00	/raid60/scratch/leo/scratch/era5/odbs/1761/era5.1761.conv.1:29231
0-20000-0-48053	[48053]	MEIKTILA	20.83	95.830002	1956-10-14 00:00:00	1967-07-30 00:00:00	/raid60/scratch/leo/scratch/era5/odbs/1761/era5.1761.conv.1:48053
0-20000-0-53529	[53529]	OTOG QI	39.099998	107.980003	1957-03-06 00:00:00	1959-12-31 00:00:00	/raid60/scratch/leo/scratch/era5/odbs/1761/era5.1761.conv.1:53529
0-20000-0-23884	[23884]	BOR	61.630001	90.230003	1950-02-02 00:00:00	1979-12-25 00:00:00	/raid60/scratch/leo/scratch/era5/odbs/1761/era5.1761.conv.1:23884
0-20000-0-47631	[47631]	TSURUGA	35.650002	136.070007	1938-08-03 00:00:00	1941-06-10 00:00:00	/raid60/scratch/leo/scratch/era5/odbs/1761/era5.1761.conv.1:47631
0-20000-0-16716	[16716]	ATHINAI HELLINIKON	37.900002	23.73	1949-02-02 00:00:00	1967-12-31 00:00:00	/raid60/scratch/leo/scratch/era5/odbs/1761/era5.1761.conv.1:16716
0-20000-0-10393	[10393]	LINDENBERG (10393-0)	52.22	14.12	1908-01-02 00:00:00	1908-12-31 00:00:00	/raid60/scratch/leo/scratch/era5/odbs/1761/era5.1761.conv.1908
0-20000-0-47768	[47768]	OKAYAMA	34.68	133.919998	1936-08-11 00:00:00	1941-05-30 00:00:00	/raid60/scratch/leo/scratch/era5/odbs/1761/era5.1761.conv.1:47768
0-20000-0-41858	[41858]	SAIDPUR	24.85	89.379997	1954-01-01 00:00:00	1963-12-30 00:00:00	/raid60/scratch/leo/scratch/era5/odbs/1761/era5.1761.conv.1:41858
0-20000-0-38836	[38836]	DUSHANBE	38.580002	68.779999	1946-05-17 00:00:00	1979-12-31 00:00:00	/raid60/scratch/leo/scratch/era5/odbs/1761/era5.1761.conv.1:38836
0-20000-0-20744	[20744]	MALYE KARMAKULY (20744-0)	72.379997	52.73	1950-04-01 00:00:00	1979-12-31 00:00:00	/raid60/scratch/leo/scratch/era5/odbs/1761/era5.1761.conv.1:20744
0-20000-0-48062	[48062]	SITTWE	20.129999	92.879997	1954-07-22 00:00:00	1967-07-31 00:00:00	/raid60/scratch/leo/scratch/era5/odbs/1761/era5.1761.conv.1:48062
0-20000-0-72297	[72297]	LONG BEACH/LB AIRP. DAUGHERTY FIELD,  CA.	33.82	-117.849998	1943-03-01 00:00:00	1956-04-16 00:00:00	/raid60/scratch/leo/scratch/era5/odbs/1761/era5.1761.conv.1:72297
0-20000-0-11934	[11934]	POPRAD/TATRY	49.07	20.25	1952-03-09 00:00:00	1979-12-31 00:00:00	/raid60/scratch/leo/scratch/era5/odbs/1761/era5.1761.conv.1:11934
0-20000-0-43371	[43371]	THIRUVANANTHAPURAM (43371-0)	8.48	76.949997	1954-01-01 00:00:00	1967-07-28 00:00:00	/raid60/scratch/leo/scratch/era5/odbs/1761/era5.1761.conv.1:43371
0-20000-0-34880	[34880]	ASTRAHAN' (34880-0)	46.27	48.029999	1947-02-13 00:00:00	1979-12-31 00:00:00	/raid60/scratch/leo/scratch/era5/odbs/1761/era5.1761.conv.1:34880
0-20000-0-10393	[10393]	LINDENBERG (10393-0)	52.22	14.12	1909-01-02 00:00:00	1909-12-20 00:00:00	/raid60/scratch/leo/scratch/era5/odbs/1761/era5.1761.conv.1909
0-20000-0-47770	[47770]	KOBE	34.68	135.179993	1931-03-02 00:00:00	1941-06-29 00:00:00	/raid60/scratch/leo/scratch/era5/odbs/1761/era5.1761.conv.1:47770
0-20000-0-47632	[47632]	GIFU	35.400002	136.770004	1937-08-20 00:00:00	1941-07-29 00:00:00	/raid60/scratch/leo/scratch/era5/odbs/1761/era5.1761.conv.1:47632
0-20000-0-16734	[16734]	METHONI	36.830002	21.719999	1956-05-13 00:00:00	1967-09-08 00:00:00	/raid60/scratch/leo/scratch/era5/odbs/1761/era5.1761.conv.1:16734
0-20000-0-42071	[42071]	AMRITSAR	31.629999	74.870003	1957-07-01 00:00:00	1960-05-20 00:00:00	/raid60/scratch/leo/scratch/era5/odbs/1761/era5.1761.conv.1:42071
0-20000-0-53614	[53614]	YINCHUAN	38.419998	106.269997	1957-03-01 00:00:00	1959-12-31 00:00:00	/raid60/scratch/leo/scratch/era5/odbs/1761/era5.1761.conv.1:53614
0-20000-0-29282	[29282]	BOGUCANY	58.419998	97.400002	1950-12-05 00:00:00	1979-12-31 00:00:00	/raid60/scratch/leo/scratch/era5/odbs/1761/era5.1761.conv.1:29282
0-20000-0-48080	[48080]	Thandwe	18.469999	94.349998	1954-07-03 00:00:00	1967-07-28 00:00:00	/raid60/scratch/leo/scratch/era5/odbs/1761/era5.1761.conv.1:48080
0-20000-0-26038	[26038]	TALLINN-HARKU	59.419998	24.799999	1947-05-04 00:00:00	1979-12-31 00:00:00	/raid60/scratch/leo/scratch/era5/odbs/1761/era5.1761.conv.1:26038
0-20000-0-32061	[32061]	ALEKSANDROVSK-SAHALINSKIJ	50.900002	142.169998	1951-09-02 00:00:00	1972-12-31 00:00:00	/raid60/scratch/leo/scratch/era5/odbs/1761/era5.1761.conv.1:32061
0-20000-0-23921	[23921]	IVDEL'	60.68	60.43	1953-02-16 00:00:00	1979-12-31 00:00:00	/raid60/scratch/leo/scratch/era5/odbs/1761/era5.1761.conv.1:23921
0-20000-0-72394	[72394]	SANTA MARIA,  CA.	34.93	-119.580002	1947-01-01 00:00:00	1959-06-30 00:00:00	/raid60/scratch/leo/scratch/era5/odbs/1761/era5.1761.conv.1:72394
0-20000-0-43413	[43413]	MANNAR	8.98	79.919998	1954-07-12 00:00:00	1967-07-24 00:00:00	/raid60/scratch/leo/scratch/era5/odbs/1761/era5.1761.conv.1:43413
0-20000-0-72231	[72231]	NEW ORLEANS/MOISANT INT., LA.	29.98	-89.75	1926-10-21 00:00:00	1957-04-20 00:00:00	/raid60/scratch/leo/scratch/era5/odbs/1761/era5.1761.conv.1:72231
0-20000-0-47771	[47771]	OSAKA INTERNATIONAL AIRPORT	34.799999	135.399994	1940-06-01 00:00:00	1944-03-25 00:00:00	/raid60/scratch/leo/scratch/era5/odbs/1761/era5.1761.conv.1:47771
0-20000-0-10393	[10393]	LINDENBERG (10393-0)	52.22	14.12	1910-01-05 00:00:00	1910-12-31 00:00:00	/raid60/scratch/leo/scratch/era5/odbs/1761/era5.1761.conv.1910
0-20000-0-38880	[38880]	ASHGABAT (38880-0)	37.970001	58.330002	1946-05-17 00:00:00	1979-12-31 00:00:00	/raid60/scratch/leo/scratch/era5/odbs/1761/era5.1761.conv.1:38880
0-20000-0-72303	[72303]	POPE AFB, NC.	35.18	-79.019997	1919-05-26 00:00:00	1955-08-05 00:00:00	/raid60/scratch/leo/scratch/era5/odbs/1761/era5.1761.conv.1:72303
0-20000-0-20891	[20891]	HATANGA	71.980003	102.459999	1949-07-16 00:00:00	1979-12-31 00:00:00	/raid60/scratch/leo/scratch/era5/odbs/1761/era5.1761.conv.1:20891
[]	[53698]		38.029999	114.470001	1956-08-21 00:00:00	1959-12-31 00:00:00	/raid60/scratch/leo/scratch/era5/odbs/1761/era5.1761.conv.1:53698
0-20000-0-12374	[12374]	LEGIONOWO	52.419998	20.969999	1957-04-01 00:00:00	1979-12-31 00:00:00	/raid60/scratch/leo/scratch/era5/odbs/1761/era5.1761.conv.1:12374
0-20000-0-16749	[16749]	RHODES (AIRPORT)	36.380001	28.120001	1949-10-01 00:00:00	1967-12-30 00:00:00	/raid60/scratch/leo/scratch/era5/odbs/1761/era5.1761.conv.1:16749
0-20000-0-42103	[42103]	AMBALA	30.379999	76.769997	1944-03-09 00:00:00	1963-12-31 00:00:00	/raid60/scratch/leo/scratch/era5/odbs/1761/era5.1761.conv.1:42103
0-20000-0-48094	[48094]	PATHEIN	16.77	94.769997	1954-07-07 00:00:00	1967-07-29 00:00:00	/raid60/scratch/leo/scratch/era5/odbs/1761/era5.1761.conv.1:48094
[]	[35108]	URALSK	51.25	51.400002	1950-12-05 00:00:00	1979-12-31 00:00:00	/raid60/scratch/leo/scratch/era5/odbs/1761/era5.1761.conv.1:35108
0-20000-0-47636	[47636]	NAGOYA (47636-0)	35.169998	136.970001	1931-01-07 00:00:00	1949-07-31 00:00:00	/raid60/scratch/leo/scratch/era5/odbs/1761/era5.1761.conv.1:47636
0-20000-0-43418	[43418]	TRINCOMALEE	8.58	81.25	1954-07-06 00:00:00	1967-12-26 00:00:00	/raid60/scratch/leo/scratch/era5/odbs/1761/era5.1761.conv.1:43418
0-20000-0-32099	[32099]	MYS TERPENIYA	48.880001	144.630005	1955-03-05 00:00:00	1970-02-13 00:00:00	/raid60/scratch/leo/scratch/era5/odbs/1761/era5.1761.conv.1:32099
0-20000-0-24234	[24234]	SEATTLE/S.-TACOMA, WA.	47.52	-121.699997	1927-12-31 00:00:00	1928-12-31 00:00:00	/raid60/scratch/leo/scratch/era5/odbs/1761/era5.1761.conv.1928
0-20000-0-10393	[10393]	LINDENBERG (10393-0)	52.22	14.12	1911-01-02 00:00:00	1911-12-30 00:00:00	/raid60/scratch/leo/scratch/era5/odbs/1761/era5.1761.conv.1911
0-20000-0-2935	[2935]	JYVASKYLA AIRPORT	62.400002	25.67	1957-08-02 00:00:00	1979-12-31 00:00:00	/raid60/scratch/leo/scratch/era5/odbs/1761/era5.1761.conv.1:2935
0-20000-0-38954	[38954]	KHOROG	37.5	71.5	1956-02-26 00:00:00	1979-12-31 00:00:00	/raid60/scratch/leo/scratch/era5/odbs/1761/era5.1761.conv.1:38954
0-20000-0-47772	[47772]	OSAKA	34.650002	135.529999	1940-01-06 00:00:00	1953-12-31 00:00:00	/raid60/scratch/leo/scratch/era5/odbs/1761/era5.1761.conv.1:47772
0-20000-0-12375	[12375]	WARSZAWA-OKECIE	52.18	20.969999	1949-09-01 00:00:00	1956-12-30 00:00:00	/raid60/scratch/leo/scratch/era5/odbs/1761/era5.1761.conv.1:12375
0-20000-0-26063	[26063]	ST.PETERSBURG (VOEJKOVO) (26063-0)	59.970001	30.299999	1946-09-01 00:00:00	1979-12-31 00:00:00	/raid60/scratch/leo/scratch/era5/odbs/1761/era5.1761.conv.1:26063
0-20000-0-72401	[72401]	RICHMOND/BYRD, VA.	37.5	-76.68	1946-05-01 00:00:00	1959-03-30 00:00:00	/raid60/scratch/leo/scratch/era5/odbs/1761/era5.1761.conv.1:72401
0-20000-0-70308	[70308]	ST. PAUL ISLANDS, AK	57.150002	-170.220001	1948-11-01 00:00:00	1958-12-31 00:00:00	/raid60/scratch/leo/scratch/era5/odbs/1761/era5.1761.conv.1:70308
0-20000-0-47644	[47644]	KIYOSE	35.77	139.529999	1950-05-13 00:00:00	1950-05-30 00:00:00	/raid60/scratch/leo/scratch/era5/odbs/1761/era5.1761.conv.1:47644
[]	[72232]	BOOTHVILLE WSCMO CIT	29.33	-89.400002	1950-08-16 00:00:00	1979-12-31 00:00:00	/raid60/scratch/leo/scratch/era5/odbs/1761/era5.1761.conv.1:72232
0-20000-0-23933	[23933]	HANTY-MANSIJSK	60.970001	69.07	1946-10-15 00:00:00	1979-12-31 00:00:00	/raid60/scratch/leo/scratch/era5/odbs/1761/era5.1761.conv.1:23933
0-20000-0-72304	[72304]	CAPE HATTERAS, NC.	35.27	-75.550003	1957-03-01 00:00:00	1979-12-31 00:00:00	/raid60/scratch/leo/scratch/era5/odbs/1761/era5.1761.conv.1:72304
0-20000-0-53772	[53772]	TAIYUAN (53772-0)	37.919998	112.519997	1957-03-03 00:00:00	1959-12-03 00:00:00	/raid60/scratch/leo/scratch/era5/odbs/1761/era5.1761.conv.1:53772
0-20000-0-42809	[42809]	KOLKATA/DUM DUM	22.65	88.449997	1954-01-01 00:00:00	1967-07-30 00:00:00	/raid60/scratch/leo/scratch/era5/odbs/1761/era5.1761.conv.1:42809
0-20000-0-10393	[10393]	LINDENBERG (10393-0)	52.22	14.12	1912-01-02 00:00:00	1912-12-31 00:00:00	/raid60/scratch/leo/scratch/era5/odbs/1761/era5.1761.conv.1912
0-20000-0-21432	[21432]	OSTROV KOTEL'NYJ	76.0	137.860001	1942-06-01 00:00:00	1979-12-31 00:00:00	/raid60/scratch/leo/scratch/era5/odbs/1761/era5.1761.conv.1:21432
0-20000-0-47777	[47777]	WAKAYAMA	34.23	135.169998	1937-11-11 00:00:00	1941-02-27 00:00:00	/raid60/scratch/leo/scratch/era5/odbs/1761/era5.1761.conv.1:47777
0-20000-0-38989	[38989]	TAGTABAZAR	35.900002	62.970001	1951-10-30 00:00:00	1979-12-31 00:00:00	/raid60/scratch/leo/scratch/era5/odbs/1761/era5.1761.conv.1:38989
0-20000-0-35121	[35121]	ORENBURG	51.75	55.099998	1946-11-05 00:00:00	1979-12-31 00:00:00	/raid60/scratch/leo/scratch/era5/odbs/1761/era5.1761.conv.1:35121
0-20000-0-48096	[48096]	MINGALADON	16.9	96.18	1954-07-01 00:00:00	1967-07-31 00:00:00	/raid60/scratch/leo/scratch/era5/odbs/1761/era5.1761.conv.1:48096
0-20000-0-16754	[16754]	HERAKLEION (AIRPORT)	35.349998	25.129999	1949-12-08 00:00:00	1967-12-31 00:00:00	/raid60/scratch/leo/scratch/era5/odbs/1761/era5.1761.conv.1:16754
0-20000-0-35188	[35188]	ASTANA	51.130001	71.370003	1955-01-02 00:00:00	1956-12-30 00:00:00	/raid60/scratch/leo/scratch/era5/odbs/1761/era5.1761.conv.1:35188
0-20000-0-12425	[12425]	WROCLAW-STARACHOWICE	51.130001	16.98	1956-11-01 00:00:00	1979-12-31 00:00:00	/raid60/scratch/leo/scratch/era5/odbs/1761/era5.1761.conv.1:12425
0-20000-0-10393	[10393]	LINDENBERG (10393-0)	52.22	14.12	1913-01-02 00:00:00	1913-12-31 00:00:00	/raid60/scratch/leo/scratch/era5/odbs/1761/era5.1761.conv.1913
0-20000-0-32150	[32150]	JUZHNO-SAHALINSK	46.919998	142.729996	1948-01-04 00:00:00	1979-12-31 00:00:00	/raid60/scratch/leo/scratch/era5/odbs/1761/era5.1761.conv.1:32150
0-20000-0-2963	[2963]	JOKIOINEN OBSERVATORY	60.82	23.48	1957-01-01 00:00:00	1979-12-31 00:00:00	/raid60/scratch/leo/scratch/era5/odbs/1761/era5.1761.conv.1:2963
0-20000-0-43466	[43466]	COLOMBO	6.9	79.870003	1954-08-25 00:00:00	1967-12-31 00:00:00	/raid60/scratch/leo/scratch/era5/odbs/1761/era5.1761.conv.1:43466
0-20000-0-48108	[48108]	DAWEI	14.1	98.220001	1954-07-05 00:00:00	1967-07-30 00:00:00	/raid60/scratch/leo/scratch/era5/odbs/1761/era5.1761.conv.1:48108
0-20000-0-26258	[26258]	PSKOV	57.830002	28.35	1948-10-04 00:00:00	1979-12-31 00:00:00	/raid60/scratch/leo/scratch/era5/odbs/1761/era5.1761.conv.1:26258
0-20000-0-72305	[72305]	NEWPORT, NC.	34.779999	-76.879997	1957-03-01 00:00:00	1979-12-31 00:00:00	/raid60/scratch/leo/scratch/era5/odbs/1761/era5.1761.conv.1:72305
0-20000-0-53845	[53845]	YAN AN (53845-0)	36.599998	109.529999	1956-08-20 00:00:00	1959-12-31 00:00:00	/raid60/scratch/leo/scratch/era5/odbs/1761/era5.1761.conv.1:53845
0-20000-0-40007	[40007]	ALEPPO INT. AEROPORT	36.18	37.220001	1957-07-01 00:00:00	1979-12-31 00:00:00	/raid60/scratch/leo/scratch/era5/odbs/1761/era5.1761.conv.1:40007
0-20000-0-48900	[48900]	TAN SON HOA	10.82	106.669998	1951-01-01 00:00:00	1967-07-31 00:00:00	/raid60/scratch/leo/scratch/era5/odbs/1761/era5.1761.conv.1:48900
0-20000-0-21824	[21824]	TIKSI	71.58	128.91	1937-05-19 00:00:00	1979-12-31 00:00:00	/raid60/scratch/leo/scratch/era5/odbs/1761/era5.1761.conv.1:21824
0-20000-0-10393	[10393]	LINDENBERG (10393-0)	52.22	14.12	1914-01-01 00:00:00	1914-12-30 00:00:00	/raid60/scratch/leo/scratch/era5/odbs/1761/era5.1761.conv.1914
0-20000-0-72240	[72240]	LAKE CHARLES/MUN., LA.	30.219999	-93.150002	1946-01-01 00:00:00	1979-12-31 00:00:00	/raid60/scratch/leo/scratch/era5/odbs/1761/era5.1761.conv.1:72240
0-20000-0-17030	[17030]	SAMSUN	41.279999	36.330002	1953-04-19 00:00:00	1979-12-19 00:00:00	/raid60/scratch/leo/scratch/era5/odbs/1761/era5.1761.conv.1:17030
0-20000-0-23955	[23955]	ALEKSANDROVSKOE	60.43	77.870003	1949-01-01 00:00:00	1979-12-26 00:00:00	/raid60/scratch/leo/scratch/era5/odbs/1761/era5.1761.conv.1:23955
0-20000-0-12812	[12812]	SZOMBATHELY	47.279999	16.620001	1944-03-07 00:00:00	1958-12-31 00:00:00	/raid60/scratch/leo/scratch/era5/odbs/1761/era5.1761.conv.1:12812
0-20000-0-48110	[48110]	Myeik	12.43	98.599998	1954-07-19 00:00:00	1967-07-31 00:00:00	/raid60/scratch/leo/scratch/era5/odbs/1761/era5.1761.conv.1:48110
0-20000-0-53915	[53915]	PINGLIANG	35.419998	106.629997	1956-08-20 00:00:00	1959-12-31 00:00:00	/raid60/scratch/leo/scratch/era5/odbs/1761/era5.1761.conv.1:53915
0-20000-0-44292	[44292]	ULAANBAATAR	47.93	106.980003	1956-07-06 00:00:00	1979-12-31 00:00:00	/raid60/scratch/leo/scratch/era5/odbs/1761/era5.1761.conv.1:44292
0-20000-0-70316	[70316]	COLD BAY, AK	55.200001	-162.720001	1955-08-19 00:00:00	1958-12-31 00:00:00	/raid60/scratch/leo/scratch/era5/odbs/1761/era5.1761.conv.1:70316
0-20000-0-48918	[48918]	CON SON	8.7	106.580002	1954-07-05 00:00:00	1967-07-23 00:00:00	/raid60/scratch/leo/scratch/era5/odbs/1761/era5.1761.conv.1:48918
0-20000-0-40100	[40100]	BEYROUTH (AEROPORT)	33.82	35.48	1957-01-01 00:00:00	1979-12-31 00:00:00	/raid60/scratch/leo/scratch/era5/odbs/1761/era5.1761.conv.1:40100
0-20000-0-29634	[29634]	NOVOSIBIRSK (29634-0)	55.029999	82.900002	1957-06-30 00:00:00	1979-12-31 00:00:00	/raid60/scratch/leo/scratch/era5/odbs/1761/era5.1761.conv.1:29634
0-20000-0-35229	[35229]	AKTOBE	50.279999	57.150002	1946-10-01 00:00:00	1979-12-31 00:00:00	/raid60/scratch/leo/scratch/era5/odbs/1761/era5.1761.conv.1:35229
0-20000-0-32165	[32165]	JUZHNO-KURIL'SK	44.02	145.820007	1951-10-03 00:00:00	1979-12-31 00:00:00	/raid60/scratch/leo/scratch/era5/odbs/1761/era5.1761.conv.1:32165
0-20000-0-4115	[4115]	BOISE/MUN., ID.	43.619999	-116.199997	1928-12-31 00:00:00	1929-12-31 00:00:00	/raid60/scratch/leo/scratch/era5/odbs/1761/era5.1761.conv.1929
0-20000-0-72311	[72311]	ATHENS/MUN., GA.	33.950001	-83.32	1975-01-01 00:00:00	1975-12-31 00:00:00	/raid60/scratch/leo/scratch/era5/odbs/1761/era5.1761.conv.1975
0-20000-0-48112	[48112]	Kawthaung	9.97	98.580002	1954-07-01 00:00:00	1967-07-25 00:00:00	/raid60/scratch/leo/scratch/era5/odbs/1761/era5.1761.conv.1:48112
0-20000-0-10393	[10393]	LINDENBERG (10393-0)	52.22	14.12	1915-01-01 00:00:00	1915-12-31 00:00:00	/raid60/scratch/leo/scratch/era5/odbs/1761/era5.1761.conv.1915
0-20000-0-54012	[54012]	XI UJIMQIN QI	44.669998	118.0	1957-03-16 00:00:00	1959-12-31 00:00:00	/raid60/scratch/leo/scratch/era5/odbs/1761/era5.1761.conv.1:54012
0-20000-0-21946	[21946]	CHOKURDAH	70.620003	147.880005	1955-05-20 00:00:00	1979-12-31 00:00:00	/raid60/scratch/leo/scratch/era5/odbs/1761/era5.1761.conv.1:21946
[]	[72306]	GREENVILLE	35.869999	-77.220001	1941-01-13 00:00:00	1959-03-30 00:00:00	/raid60/scratch/leo/scratch/era5/odbs/1761/era5.1761.conv.1:72306
0-20000-0-26298	[26298]	BOLOGOE	57.900002	34.049999	1952-06-01 00:00:00	1979-12-31 00:00:00	/raid60/scratch/leo/scratch/era5/odbs/1761/era5.1761.conv.1:26298
0-20000-0-72405	[72405]	WASHINGTON/NAT., VA.	38.830002	-76.970001	1918-12-17 00:00:00	1955-06-30 00:00:00	/raid60/scratch/leo/scratch/era5/odbs/1761/era5.1761.conv.1:72405
0-20000-0-17062	[17062]	ISTANBUL/GOZTEPE	40.970001	29.08	1955-10-04 00:00:00	1979-12-16 00:00:00	/raid60/scratch/leo/scratch/era5/odbs/1761/era5.1761.conv.1:17062
0-20000-0-50353	[50353]	HUMA	51.669998	126.580002	1957-03-01 00:00:00	1959-12-31 00:00:00	/raid60/scratch/leo/scratch/era5/odbs/1761/era5.1761.conv.1:50353
0-20000-0-24125	[24125]	OLENEK (24125-0)	68.5	112.43	1955-05-10 00:00:00	1979-12-29 00:00:00	/raid60/scratch/leo/scratch/era5/odbs/1761/era5.1761.conv.1:24125
0-20000-0-72242	[72242]	GALVESTON, TX.	29.27	-94.849998	1955-06-08 00:00:00	1959-03-31 00:00:00	/raid60/scratch/leo/scratch/era5/odbs/1761/era5.1761.conv.1:72242
0-20000-0-44354	[44354]	SAINSHAND	44.880001	110.129997	1957-08-01 00:00:00	1979-12-31 00:00:00	/raid60/scratch/leo/scratch/era5/odbs/1761/era5.1761.conv.1:44354
0-20000-0-47778	[47778]	SHIONOMISAKI (47778-0)	33.450001	135.770004	1942-01-11 00:00:00	1953-12-31 00:00:00	/raid60/scratch/leo/scratch/era5/odbs/1761/era5.1761.conv.1:47778
0-20000-0-47646	[47646]	TATENO	36.049999	140.130005	1949-08-01 00:00:00	1953-12-31 00:00:00	/raid60/scratch/leo/scratch/era5/odbs/1761/era5.1761.conv.1:47646
0-20000-0-42867	[42867]	NAGPUR SONEGAON	21.1	79.050003	1954-01-01 00:00:00	1967-07-31 00:00:00	/raid60/scratch/leo/scratch/era5/odbs/1761/era5.1761.conv.1:42867
0-20000-0-54094	[54094]	MUDANJIANG	44.580002	129.600006	1957-03-01 00:00:00	1959-12-31 00:00:00	/raid60/scratch/leo/scratch/era5/odbs/1761/era5.1761.conv.1:54094
0-20000-0-10393	[10393]	LINDENBERG (10393-0)	52.22	14.12	1916-01-01 00:00:00	1916-12-31 00:00:00	/raid60/scratch/leo/scratch/era5/odbs/1761/era5.1761.conv.1916
[]	[35394]	KARAGANDA	49.799999	73.129997	1946-11-04 00:00:00	1979-12-31 00:00:00	/raid60/scratch/leo/scratch/era5/odbs/1761/era5.1761.conv.1:35394
0-20000-0-32389	[32389]	KLJUCHI	56.32	160.830002	1950-06-22 00:00:00	1979-12-31 00:00:00	/raid60/scratch/leo/scratch/era5/odbs/1761/era5.1761.conv.1:32389
0-20000-0-29698	[29698]	NIZHNEUDINSK	54.880001	99.029999	1950-02-11 00:00:00	1979-12-31 00:00:00	/raid60/scratch/leo/scratch/era5/odbs/1761/era5.1761.conv.1:29698
0-20000-0-26406	[26406]	LIEPAJA	56.52	21.02	1950-11-11 00:00:00	1979-12-31 00:00:00	/raid60/scratch/leo/scratch/era5/odbs/1761/era5.1761.conv.1:26406
0-20000-0-47648	[47648]	CHOSHI	35.720001	140.850006	1935-01-07 00:00:00	1944-10-13 00:00:00	/raid60/scratch/leo/scratch/era5/odbs/1761/era5.1761.conv.1:47648
0-20000-0-17130	[17130]	ANKARA BÖLGE	39.950001	32.880001	1952-01-02 00:00:00	1979-12-31 00:00:00	/raid60/scratch/leo/scratch/era5/odbs/1761/era5.1761.conv.1:17130
0-20000-0-47800	[47800]	IZUHARA (47800-0)	34.200001	129.300003	1931-01-07 00:00:00	1944-10-15 00:00:00	/raid60/scratch/leo/scratch/era5/odbs/1761/era5.1761.conv.1:47800
0-20000-0-42886	[42886]	JHARSIGUDA	21.92	84.080002	1956-03-04 00:00:00	1967-07-30 00:00:00	/raid60/scratch/leo/scratch/era5/odbs/1761/era5.1761.conv.1:42886
0-20000-0-21982	[21982]	OSTROV VRANGELJA	70.970001	-178.529999	1954-07-01 00:00:00	1979-12-31 00:00:00	/raid60/scratch/leo/scratch/era5/odbs/1761/era5.1761.conv.1:21982
0-20000-0-4018	[4018]	KEFLAVIKURFLUGVOLLUR	63.950001	-22.620001	1946-07-01 00:00:00	1979-12-31 00:00:00	/raid60/scratch/leo/scratch/era5/odbs/1761/era5.1761.conv.1:4018
0-20000-0-72408	[72408]	PHILADELPHIA/INT., PA.	39.869999	-75.230003	1940-06-20 00:00:00	1959-03-30 00:00:00	/raid60/scratch/leo/scratch/era5/odbs/1761/era5.1761.conv.1:72408
0-20000-0-24266	[24266]	VERHOJANSK	67.550003	133.380005	1953-02-16 00:00:00	1979-12-31 00:00:00	/raid60/scratch/leo/scratch/era5/odbs/1761/era5.1761.conv.1:24266
0-20000-0-42182	[42182]	NEW DELHI/SAFDARJUNG	28.879999	77.199997	1954-01-01 00:00:00	1967-07-30 00:00:00	/raid60/scratch/leo/scratch/era5/odbs/1761/era5.1761.conv.1:42182
0-20000-0-50527	[50527]	HAILAR (50527-0)	49.150002	119.669998	1957-03-02 00:00:00	1959-12-31 00:00:00	/raid60/scratch/leo/scratch/era5/odbs/1761/era5.1761.conv.1:50527
0-20000-0-10393	[10393]	LINDENBERG (10393-0)	52.22	14.12	1917-01-01 00:00:00	1917-12-31 00:00:00	/raid60/scratch/leo/scratch/era5/odbs/1761/era5.1761.conv.1917
0-20000-0-12843	[12843]	BUDAPEST/PESTSZENTLORINC	47.43	19.18	1954-01-01 00:00:00	1958-12-31 00:00:00	/raid60/scratch/leo/scratch/era5/odbs/1761/era5.1761.conv.1:12843
0-20000-0-2974	[2974]	VANTAA HELSINKI-VANTAA AIRPORT	60.32	24.969999	1935-02-20 00:00:00	1956-12-31 00:00:00	/raid60/scratch/leo/scratch/era5/odbs/1761/era5.1761.conv.1:2974
0-20000-0-47651	[47651]	TSU	34.720001	136.520004	1934-10-18 00:00:00	1941-06-15 00:00:00	/raid60/scratch/leo/scratch/era5/odbs/1761/era5.1761.conv.1:47651
0-20000-0-54102	[54102]	XILIN HOT	43.849998	116.080002	1957-03-01 00:00:00	1959-12-31 00:00:00	/raid60/scratch/leo/scratch/era5/odbs/1761/era5.1761.conv.1:54102
0-20000-0-35700	[35700]	ATYRAU	47.119999	51.900002	1953-02-16 00:00:00	1979-12-31 00:00:00	/raid60/scratch/leo/scratch/era5/odbs/1761/era5.1761.conv.1:35700
0-20000-0-17220	[17220]	IZMIR/GUZELYALI	38.400002	27.17	1952-07-13 00:00:00	1979-12-31 00:00:00	/raid60/scratch/leo/scratch/era5/odbs/1761/era5.1761.conv.1:17220
0-20000-0-72409	[72409]	LAKEHURST/NAS, NJ.	40.029999	-74.309998	1946-01-01 00:00:00	1955-07-15 00:00:00	/raid60/scratch/leo/scratch/era5/odbs/1761/era5.1761.conv.1:72409
0-20000-0-40608	[40608]	MOSUL	36.32	43.150002	1949-02-06 00:00:00	1960-05-26 00:00:00	/raid60/scratch/leo/scratch/era5/odbs/1761/era5.1761.conv.1:40608
0-20000-0-22097	[22097]	ALLAHABAD/GHOORPUR	25.42	81.82	1945-06-01 00:00:00	1977-04-28 00:00:00	/raid60/scratch/leo/scratch/era5/odbs/1761/era5.1761.conv.1:22097
0-20000-0-32540	[32540]	PETROPAVLOVSK-KAMCHATSKIJ (32540-0)	52.970001	158.75	1947-09-05 00:00:00	1979-12-31 00:00:00	/raid60/scratch/leo/scratch/era5/odbs/1761/era5.1761.conv.1:32540
0-20000-0-14903	[14903]	EPPLEY FIELD, OMAHA,  NE.	41.32	-95.95	1918-01-04 00:00:00	1918-12-31 00:00:00	/raid60/scratch/leo/scratch/era5/odbs/1761/era5.1761.conv.1918
0-20000-0-26422	[26422]	RIGA LU	56.970001	24.07	1946-10-01 00:00:00	1979-12-31 00:00:00	/raid60/scratch/leo/scratch/era5/odbs/1761/era5.1761.conv.1:26422
0-20000-0-72308	[72308]	NORFOLK/INT., VA.	36.93	-76.279999	1948-01-01 00:00:00	1964-12-31 00:00:00	/raid60/scratch/leo/scratch/era5/odbs/1761/era5.1761.conv.1:72308
0-20000-0-54135	[54135]	TONGLIAO	43.669998	122.25	1957-03-01 00:00:00	1959-12-31 00:00:00	/raid60/scratch/leo/scratch/era5/odbs/1761/era5.1761.conv.1:54135
0-20000-0-42189	[42189]	BAREILLY	28.370001	79.400002	1954-01-01 00:00:00	1967-07-31 00:00:00	/raid60/scratch/leo/scratch/era5/odbs/1761/era5.1761.conv.1:42189
0-20000-0-12882	[12882]	DEBRECEN	47.48	21.65	1954-01-04 00:00:00	1958-12-31 00:00:00	/raid60/scratch/leo/scratch/era5/odbs/1761/era5.1761.conv.1:12882
0-20000-0-47654	[47654]	HAMAMATSU	34.700001	137.720001	1930-04-02 00:00:00	1942-07-28 00:00:00	/raid60/scratch/leo/scratch/era5/odbs/1761/era5.1761.conv.1:47654
0-20000-0-40621	[40621]	KIRKUK	35.470001	44.400002	1949-03-03 00:00:00	1953-08-02 00:00:00	/raid60/scratch/leo/scratch/era5/odbs/1761/era5.1761.conv.1:40621
0-20000-0-24343	[24343]	ZHIGANSK	66.769997	123.400002	1950-12-07 00:00:00	1979-12-31 00:00:00	/raid60/scratch/leo/scratch/era5/odbs/1761/era5.1761.conv.1:24343
0-20000-0-47807	[47807]	FUKUOKA	33.580002	130.380005	1942-10-02 00:00:00	1948-08-31 00:00:00	/raid60/scratch/leo/scratch/era5/odbs/1761/era5.1761.conv.1:47807
0-20000-0-30054	[30054]	VITIM	59.450001	112.580002	1951-09-22 00:00:00	1972-12-31 00:00:00	/raid60/scratch/leo/scratch/era5/odbs/1761/era5.1761.conv.1:30054
0-20000-0-17280	[17280]	DIYARBAKIR HAVALİMANI	37.919998	40.200001	1953-01-30 00:00:00	1979-12-30 00:00:00	/raid60/scratch/leo/scratch/era5/odbs/1761/era5.1761.conv.1:17280
0-20000-0-48327	[48327]	CHIANG MAI	18.780001	98.980003	1954-07-02 00:00:00	1967-07-31 00:00:00	/raid60/scratch/leo/scratch/era5/odbs/1761/era5.1761.conv.1:48327
0-20000-0-50557	[50557]	NENJIANG	49.169998	125.220001	1957-03-01 00:00:00	1959-12-30 00:00:00	/raid60/scratch/leo/scratch/era5/odbs/1761/era5.1761.conv.1:50557
0-20000-0-72410	[72410]	LYNCHBURG/MUN. P. GLENN, VA.	37.330002	-78.800003	1944-08-01 00:00:00	1947-12-10 00:00:00	/raid60/scratch/leo/scratch/era5/odbs/1761/era5.1761.conv.1:72410
0-20000-0-40642	[40642]	RUTBAH	33.029999	40.279999	1949-04-07 00:00:00	1963-04-26 00:00:00	/raid60/scratch/leo/scratch/era5/odbs/1761/era5.1761.conv.1:40642
0-20000-0-12982	[12982]	SZEGED	46.25	20.1	1954-01-02 00:00:00	1958-12-31 00:00:00	/raid60/scratch/leo/scratch/era5/odbs/1761/era5.1761.conv.1:12982
[]	[13924]	GROESBECK	31.5	-96.470001	1919-01-01 00:00:00	1919-12-31 00:00:00	/raid60/scratch/leo/scratch/era5/odbs/1761/era5.1761.conv.1919
0-20000-0-47813	[47813]	SAGA	33.25	130.300003	1939-01-12 00:00:00	1941-02-18 00:00:00	/raid60/scratch/leo/scratch/era5/odbs/1761/era5.1761.conv.1:47813
0-20000-0-4115	[4115]	BOISE/MUN., ID.	43.619999	-116.199997	1929-12-31 00:00:00	1930-12-31 00:00:00	/raid60/scratch/leo/scratch/era5/odbs/1761/era5.1761.conv.1930
0-20000-0-35746	[35746]	ARAL TENIZI	46.779999	61.669998	1946-10-15 00:00:00	1979-12-31 00:00:00	/raid60/scratch/leo/scratch/era5/odbs/1761/era5.1761.conv.1:35746
0-20000-0-42909	[42909]	VERAVAL	20.9	70.370003	1954-01-01 00:00:00	1967-07-31 00:00:00	/raid60/scratch/leo/scratch/era5/odbs/1761/era5.1761.conv.1:42909
0-20000-0-42314	[42314]	DIBRUGARH /MOHANBARI	27.48	95.019997	1954-01-01 00:00:00	1967-07-31 00:00:00	/raid60/scratch/leo/scratch/era5/odbs/1761/era5.1761.conv.1:42314
0-20000-0-47655	[47655]	OMAEZAKI	34.599998	138.220001	1940-06-01 00:00:00	1953-12-31 00:00:00	/raid60/scratch/leo/scratch/era5/odbs/1761/era5.1761.conv.1:47655
0-20000-0-50745	[50745]	QIQIHAR	47.330002	123.93	1957-03-01 00:00:00	1959-12-31 00:00:00	/raid60/scratch/leo/scratch/era5/odbs/1761/era5.1761.conv.1:50745
0-20000-0-32618	[32618]	OSTROV BERINGA	55.200001	165.979996	1957-08-01 00:00:00	1979-12-31 00:00:00	/raid60/scratch/leo/scratch/era5/odbs/1761/era5.1761.conv.1:32618
0-20000-0-26629	[26629]	KAUNAS (26629-0)	54.919998	23.93	1947-03-09 00:00:00	1979-12-31 00:00:00	/raid60/scratch/leo/scratch/era5/odbs/1761/era5.1761.conv.1:26629
0-20000-0-24507	[24507]	TURA (24507-0)	64.169998	100.07	1955-03-06 00:00:00	1979-12-31 00:00:00	/raid60/scratch/leo/scratch/era5/odbs/1761/era5.1761.conv.1:24507
0-20000-0-54161	[54161]	CHANGCHUN	43.869999	125.330002	1956-08-20 00:00:00	1959-12-31 00:00:00	/raid60/scratch/leo/scratch/era5/odbs/1761/era5.1761.conv.1:54161
0-20000-0-40650	[40650]	BAGHDAD INT. AIRPORT	33.330002	44.400002	1949-02-13 00:00:00	1958-12-31 00:00:00	/raid60/scratch/leo/scratch/era5/odbs/1761/era5.1761.conv.1:40650
0-20000-0-20046	[20046]	POLARGMO IM. E.T. KRENKELJA	80.620003	58.049999	1957-07-01 00:00:00	1979-12-31 00:00:00	/raid60/scratch/leo/scratch/era5/odbs/1761/era5.1761.conv.1:20046
0-20000-0-30230	[30230]	KIRENSK	57.77	108.120003	1950-02-20 00:00:00	1972-12-31 00:00:00	/raid60/scratch/leo/scratch/era5/odbs/1761/era5.1761.conv.1:30230
0-20000-0-47815	[47815]	OITA	33.23	131.619995	1932-04-01 00:00:00	1944-10-11 00:00:00	/raid60/scratch/leo/scratch/era5/odbs/1761/era5.1761.conv.1:47815
0-20000-0-13067	[13067]	PALIC	46.099998	19.77	1955-01-01 00:00:00	1959-12-31 00:00:00	/raid60/scratch/leo/scratch/era5/odbs/1761/era5.1761.conv.1:13067
0-20000-0-48354	[48354]	UDON THANI	17.43	102.769997	1954-07-01 00:00:00	1967-07-31 00:00:00	/raid60/scratch/leo/scratch/era5/odbs/1761/era5.1761.conv.1:48354
0-20000-0-72411	[72411]	ROANOKE/MUN., VA.	37.32	-79.970001	1948-01-02 00:00:00	1959-03-31 00:00:00	/raid60/scratch/leo/scratch/era5/odbs/1761/era5.1761.conv.1:72411
0-20000-0-72248	[72248]	SHREVEPORT/REG., LA.	32.470001	-93.82	1956-01-11 00:00:00	1962-09-30 00:00:00	/raid60/scratch/leo/scratch/era5/odbs/1761/era5.1761.conv.1:72248
0-20000-0-42970	[42970]	CUTTACK	20.799999	85.93	1954-01-01 00:00:00	1960-06-23 00:00:00	/raid60/scratch/leo/scratch/era5/odbs/1761/era5.1761.conv.1:42970
0-20000-0-50953	[50953]	HARBIN (50953-0)	45.75	126.629997	1957-03-01 00:00:00	1959-12-30 00:00:00	/raid60/scratch/leo/scratch/era5/odbs/1761/era5.1761.conv.1:50953
0-20000-0-22113	[22113]	MURMANSK (22113-0)	68.970001	33.049999	1946-12-01 00:00:00	1979-12-31 00:00:00	/raid60/scratch/leo/scratch/era5/odbs/1761/era5.1761.conv.1:22113
0-20000-0-47656	[47656]	SHIZUOKA	34.970001	138.399994	1940-02-06 00:00:00	1949-07-14 00:00:00	/raid60/scratch/leo/scratch/era5/odbs/1761/era5.1761.conv.1:47656
0-20000-0-40672	[40672]	DIWANIYA	31.98	44.98	1949-02-13 00:00:00	1956-05-31 00:00:00	/raid60/scratch/leo/scratch/era5/odbs/1761/era5.1761.conv.1:40672
0-20000-0-35796	[35796]	BALHASH	46.900002	75.0	1953-02-16 00:00:00	1979-12-30 00:00:00	/raid60/scratch/leo/scratch/era5/odbs/1761/era5.1761.conv.1:35796
0-20000-0-70326	[70326]	KING SALMON, AK	58.68	-155.350006	1942-11-12 00:00:00	1964-12-31 00:00:00	/raid60/scratch/leo/scratch/era5/odbs/1761/era5.1761.conv.1:70326
0-20000-0-13388	[13388]	NIS	43.330002	21.9	1955-01-04 00:00:00	1959-04-30 00:00:00	/raid60/scratch/leo/scratch/era5/odbs/1761/era5.1761.conv.1:13388
0-20000-0-72405	[72405]	WASHINGTON/NAT., VA.	38.830002	-76.970001	1920-01-01 00:00:00	1920-12-31 00:00:00	/raid60/scratch/leo/scratch/era5/odbs/1761/era5.1761.conv.1920
[]	[20047]	BUKHTA TIKHAYA/GUKER IS.	80.300003	52.799999	1934-02-25 00:00:00	1956-12-31 00:00:00	/raid60/scratch/leo/scratch/era5/odbs/1761/era5.1761.conv.1:20047
0-20000-0-47817	[47817]	NAGASAKI	32.73	129.880005	1922-08-09 00:00:00	1941-06-24 00:00:00	/raid60/scratch/leo/scratch/era5/odbs/1761/era5.1761.conv.1:47817
0-20000-0-72414	[72414]	CHARLESTON/KANAWHA., WV.	38.369999	-81.599998	1954-08-16 00:00:00	1959-03-31 00:00:00	/raid60/scratch/leo/scratch/era5/odbs/1761/era5.1761.conv.1:72414
0-20000-0-33008	[33008]	BREST (33008-0)	52.119999	23.68	1951-05-21 00:00:00	1979-12-31 00:00:00	/raid60/scratch/leo/scratch/era5/odbs/1761/era5.1761.conv.1:33008
0-20000-0-51076	[51076]	ALTAY	47.869999	88.099998	1956-08-21 00:00:00	1959-12-31 00:00:00	/raid60/scratch/leo/scratch/era5/odbs/1761/era5.1761.conv.1:51076
0-20000-0-54218	[54218]	CHIFENG (54218-0)	42.27	118.900002	1957-03-04 00:00:00	1959-12-31 00:00:00	/raid60/scratch/leo/scratch/era5/odbs/1761/era5.1761.conv.1:54218
0-20000-0-48378	[48378]	PHITSANULOK	16.83	100.269997	1954-07-02 00:00:00	1967-07-31 00:00:00	/raid60/scratch/leo/scratch/era5/odbs/1761/era5.1761.conv.1:48378
0-20000-0-47657	[47657]	MISHIMA	35.119999	138.929993	1930-07-15 00:00:00	1945-03-30 00:00:00	/raid60/scratch/leo/scratch/era5/odbs/1761/era5.1761.conv.1:47657
0-20000-0-24641	[24641]	VILJUJSK	63.77	121.620003	1950-11-07 00:00:00	1979-12-31 00:00:00	/raid60/scratch/leo/scratch/era5/odbs/1761/era5.1761.conv.1:24641
0-20000-0-42971	[42971]	BHUBANESHWAR	20.25	85.830002	1956-01-01 00:00:00	1967-07-30 00:00:00	/raid60/scratch/leo/scratch/era5/odbs/1761/era5.1761.conv.1:42971
0-20000-0-22165	[22165]	KANIN NOS	68.650002	43.299999	1953-03-02 00:00:00	1962-10-31 00:00:00	/raid60/scratch/leo/scratch/era5/odbs/1761/era5.1761.conv.1:22165
0-20000-0-30521	[30521]	ZHIGALOVO	54.799999	105.169998	1950-12-24 00:00:00	1979-12-31 00:00:00	/raid60/scratch/leo/scratch/era5/odbs/1761/era5.1761.conv.1:30521
0-20000-0-40676	[40676]	NASIRIYA	31.02	46.23	1949-02-08 00:00:00	1958-12-31 00:00:00	/raid60/scratch/leo/scratch/era5/odbs/1761/era5.1761.conv.1:40676
0-20000-0-47819	[47819]	KUMAMOTO	32.82	130.720001	1931-11-10 00:00:00	1941-06-17 00:00:00	/raid60/scratch/leo/scratch/era5/odbs/1761/era5.1761.conv.1:47819
0-20000-0-26702	[26702]	KALININGRAD	54.720001	20.549999	1929-10-03 00:00:00	1979-12-31 00:00:00	/raid60/scratch/leo/scratch/era5/odbs/1761/era5.1761.conv.1:26702
0-20000-0-72249	[72249]	FORT WORTH, TX.	32.799999	-97.300003	1949-09-01 00:00:00	1979-12-31 00:00:00	/raid60/scratch/leo/scratch/era5/odbs/1761/era5.1761.conv.1:72249
0-20000-0-13462	[13462]	PODGORICA-GOLUBOVCI	42.43	19.280001	1955-01-01 00:00:00	1959-12-30 00:00:00	/raid60/scratch/leo/scratch/era5/odbs/1761/era5.1761.conv.1:13462
0-20000-0-42339	[42339]	JODHPUR	26.299999	73.019997	1954-01-01 00:00:00	1967-07-29 00:00:00	/raid60/scratch/leo/scratch/era5/odbs/1761/era5.1761.conv.1:42339
0-20000-0-72417	[72417]	ELKINS/ELKINS-RANDOLPH CO., WV.	38.880001	-79.849998	1948-01-01 00:00:00	1954-08-14 00:00:00	/raid60/scratch/leo/scratch/era5/odbs/1761/era5.1761.conv.1:72417
0-20000-0-72311	[72311]	ATHENS/MUN., GA.	33.950001	-83.32	1955-09-02 00:00:00	1962-12-31 00:00:00	/raid60/scratch/leo/scratch/era5/odbs/1761/era5.1761.conv.1:72311
0-20000-0-33036	[33036]	MOZYR	52.029999	29.18	1957-04-02 00:00:00	1963-12-31 00:00:00	/raid60/scratch/leo/scratch/era5/odbs/1761/era5.1761.conv.1:33036
0-20000-0-36096	[36096]	KYZYL	51.669998	94.379997	1955-01-11 00:00:00	1979-12-29 00:00:00	/raid60/scratch/leo/scratch/era5/odbs/1761/era5.1761.conv.1:36096
0-20000-0-20069	[20069]	OSTROV VIZE	79.5	76.980003	1955-11-01 00:00:00	1979-12-31 00:00:00	/raid60/scratch/leo/scratch/era5/odbs/1761/era5.1761.conv.1:20069
0-20000-0-93829	[93829]	PENSACOLA, FL	30.35	-87.269997	1920-12-31 00:00:00	1921-12-31 00:00:00	/raid60/scratch/leo/scratch/era5/odbs/1761/era5.1761.conv.1921
0-20000-0-47662	[47662]	TOKYO	35.68	139.770004	1936-07-02 00:00:00	1949-10-31 00:00:00	/raid60/scratch/leo/scratch/era5/odbs/1761/era5.1761.conv.1:47662
0-20000-0-54292	[54292]	YANJI	42.900002	129.520004	1957-03-01 00:00:00	1959-12-31 00:00:00	/raid60/scratch/leo/scratch/era5/odbs/1761/era5.1761.conv.1:54292
0-20000-0-70350	[70350]	KODIAK, AK	57.75	-152.520004	1946-01-01 00:00:00	1979-12-31 00:00:00	/raid60/scratch/leo/scratch/era5/odbs/1761/era5.1761.conv.1:70350
0-20000-0-51431	[51431]	YINING	43.919998	81.279999	1957-03-03 00:00:00	1959-12-31 00:00:00	/raid60/scratch/leo/scratch/era5/odbs/1761/era5.1761.conv.1:51431
0-20000-0-45004	[45004]	KOWLOON (45004-0)	22.32	114.169998	1954-07-01 00:00:00	1967-07-31 00:00:00	/raid60/scratch/leo/scratch/era5/odbs/1761/era5.1761.conv.1:45004
0-20000-0-40689	[40689]	BASRAH-HUSSEN	30.57	47.779999	1949-08-05 00:00:00	1959-02-15 00:00:00	/raid60/scratch/leo/scratch/era5/odbs/1761/era5.1761.conv.1:40689
0-20000-0-22217	[22217]	KANDALAKSHA	67.129997	32.43	1957-09-03 00:00:00	1979-12-31 00:00:00	/raid60/scratch/leo/scratch/era5/odbs/1761/era5.1761.conv.1:22217
0-20000-0-48407	[48407]	UBON RATCHATHANI	15.25	104.879997	1956-09-04 00:00:00	1967-07-31 00:00:00	/raid60/scratch/leo/scratch/era5/odbs/1761/era5.1761.conv.1:48407
0-20000-0-42348	[42348]	JAIPUR / SANGANER	26.82	75.800003	1956-02-28 00:00:00	1967-07-28 00:00:00	/raid60/scratch/leo/scratch/era5/odbs/1761/era5.1761.conv.1:42348
0-20000-0-24688	[24688]	OJMJAKON	63.27	143.149994	1950-10-12 00:00:00	1979-12-31 00:00:00	/raid60/scratch/leo/scratch/era5/odbs/1761/era5.1761.conv.1:24688
0-20000-0-1384	[1384]	OSLO/GARDERMOEN	60.200001	11.08	1932-01-07 00:00:00	1959-03-31 00:00:00	/raid60/scratch/leo/scratch/era5/odbs/1761/era5.1761.conv.1:1384
0-20000-0-30554	[30554]	BAGDARIN (30554-0)	54.619999	113.129997	1950-12-02 00:00:00	1979-12-31 00:00:00	/raid60/scratch/leo/scratch/era5/odbs/1761/era5.1761.conv.1:30554
0-20000-0-47670	[47670]	YOKOHAMA	35.43	139.649994	1934-06-05 00:00:00	1945-07-10 00:00:00	/raid60/scratch/leo/scratch/era5/odbs/1761/era5.1761.conv.1:47670
0-20000-0-72421	[72421]	CINCINNATI/GREATER CINCINNATI, OH.	39.049999	-84.669998	1948-01-01 00:00:00	1959-06-30 00:00:00	/raid60/scratch/leo/scratch/era5/odbs/1761/era5.1761.conv.1:72421
0-20000-0-54337	[54337]	JINZHOU	41.130001	121.120003	1957-03-01 00:00:00	1959-12-31 00:00:00	/raid60/scratch/leo/scratch/era5/odbs/1761/era5.1761.conv.1:54337
0-20000-0-26781	[26781]	SMOLENSK	54.75	32.07	1946-12-05 00:00:00	1979-12-31 00:00:00	/raid60/scratch/leo/scratch/era5/odbs/1761/era5.1761.conv.1:26781
0-20000-0-33317	[33317]	Shepetivka	50.169998	27.049999	1957-12-21 00:00:00	1979-12-31 00:00:00	/raid60/scratch/leo/scratch/era5/odbs/1761/era5.1761.conv.1:33317
0-20000-0-20107	[20107]	BARENTSBURG	78.059998	14.25	1935-06-13 00:00:00	1979-12-31 00:00:00	/raid60/scratch/leo/scratch/era5/odbs/1761/era5.1761.conv.1:20107
0-20000-0-91212	[41407]	WEATHER FORECAST OFFICE, GUAM, MARIANA IS.	13.47	144.779999	1921-12-31 00:00:00	1922-12-31 00:00:00	/raid60/scratch/leo/scratch/era5/odbs/1761/era5.1761.conv.1922
0-20000-0-45005	[45005]	HONG KONG OBSERVATORY	22.299999	114.169998	1950-01-16 00:00:00	1955-12-31 00:00:00	/raid60/scratch/leo/scratch/era5/odbs/1761/era5.1761.conv.1:45005
0-20000-0-41515	[41515]	DROSH	35.57	71.779999	1954-01-01 00:00:00	1963-12-31 00:00:00	/raid60/scratch/leo/scratch/era5/odbs/1761/era5.1761.conv.1:41515
0-20000-0-36177	[36177]	SEMIPALATINSK	50.349998	80.25	1946-11-01 00:00:00	1979-12-31 00:00:00	/raid60/scratch/leo/scratch/era5/odbs/1761/era5.1761.conv.1:36177
0-20000-0-51463	[51463]	WU LU MU QI (51463-0)	43.77	87.620003	1956-08-20 00:00:00	1979-12-31 00:00:00	/raid60/scratch/leo/scratch/era5/odbs/1761/era5.1761.conv.1:51463
0-20000-0-24244	[24244]	SEATTLE/S.-TACOMA, WA.	47.68	-122.260002	1930-12-31 00:00:00	1931-12-31 00:00:00	/raid60/scratch/leo/scratch/era5/odbs/1761/era5.1761.conv.1931
0-20000-0-48431	[48431]	NAKHON RATCHASIMA	14.97	102.120003	1954-07-03 00:00:00	1967-07-31 00:00:00	/raid60/scratch/leo/scratch/era5/odbs/1761/era5.1761.conv.1:48431
0-20000-0-47671	[47671]	TOKYO INTERNATIONAL AIRPORT	35.549999	139.770004	1941-01-06 00:00:00	1950-05-18 00:00:00	/raid60/scratch/leo/scratch/era5/odbs/1761/era5.1761.conv.1:47671
0-20000-0-24759	[24759]	JAKUTSK	62.02	129.720001	1940-02-19 00:00:00	1960-12-31 00:00:00	/raid60/scratch/leo/scratch/era5/odbs/1761/era5.1761.conv.1:24759
0-20000-0-30636	[30636]	BARGUZIN	53.619999	109.629997	1953-07-01 00:00:00	1959-12-31 00:00:00	/raid60/scratch/leo/scratch/era5/odbs/1761/era5.1761.conv.1:30636
0-20000-0-22522	[22522]	KEM' - PORT	64.980003	34.779999	1950-10-11 00:00:00	1979-12-31 00:00:00	/raid60/scratch/leo/scratch/era5/odbs/1761/era5.1761.conv.1:22522
0-20000-0-42361	[42361]	GWALIOR	26.23	78.25	1954-01-01 00:00:00	1967-07-30 00:00:00	/raid60/scratch/leo/scratch/era5/odbs/1761/era5.1761.conv.1:42361
0-20000-0-72423	[72423]	LOUISVILLE/STANDIFORD, KY.	38.18	-85.730003	1948-01-01 00:00:00	1959-06-30 00:00:00	/raid60/scratch/leo/scratch/era5/odbs/1761/era5.1761.conv.1:72423
0-20000-0-1415	[1415]	STAVANGER/SOLA (1415-0)	58.880001	5.63	1949-01-04 00:00:00	1979-12-31 00:00:00	/raid60/scratch/leo/scratch/era5/odbs/1761/era5.1761.conv.1:1415
0-20000-0-45011	[45011]	TAIPA GRANDE	22.200001	113.550003	1952-02-09 00:00:00	1961-12-11 00:00:00	/raid60/scratch/leo/scratch/era5/odbs/1761/era5.1761.conv.1:45011
0-20000-0-26850	[26850]	MINSK	53.869999	27.530001	1946-12-07 00:00:00	1979-12-31 00:00:00	/raid60/scratch/leo/scratch/era5/odbs/1761/era5.1761.conv.1:26850
0-20000-0-54342	[54342]	SHENYANG	41.779999	123.400002	1956-08-20 00:00:00	1959-12-31 00:00:00	/raid60/scratch/leo/scratch/era5/odbs/1761/era5.1761.conv.1:54342
0-20000-0-70361	[70361]	YAKUTAT, AK	59.52	-139.669998	1948-08-02 00:00:00	1958-12-31 00:00:00	/raid60/scratch/leo/scratch/era5/odbs/1761/era5.1761.conv.1:70361
0-20000-0-47827	[47827]	KAGOSHIMA	31.57	130.550003	1940-05-31 00:00:00	1953-12-31 00:00:00	/raid60/scratch/leo/scratch/era5/odbs/1761/era5.1761.conv.1:47827
0-20000-0-43003	[43003]	BOMBAY / SANTACRUZ	19.120001	72.849998	1954-01-01 00:00:00	1967-07-30 00:00:00	/raid60/scratch/leo/scratch/era5/odbs/1761/era5.1761.conv.1:43003
0-20000-0-47675	[47675]	OSHIMA	34.77	139.380005	1942-08-01 00:00:00	1944-10-16 00:00:00	/raid60/scratch/leo/scratch/era5/odbs/1761/era5.1761.conv.1:47675
0-20000-0-36859	[36859]	ZHARKENT	44.169998	80.07	1957-07-05 00:00:00	1979-12-31 00:00:00	/raid60/scratch/leo/scratch/era5/odbs/1761/era5.1761.conv.1:36859
0-20000-0-51644	[51644]	KUQA	41.75	83.07	1957-05-11 00:00:00	1979-12-31 00:00:00	/raid60/scratch/leo/scratch/era5/odbs/1761/era5.1761.conv.1:51644
0-20000-0-20292	[20292]	GMO IM.E.K. FEDOROVA	77.709999	104.300003	1940-01-15 00:00:00	1979-12-31 00:00:00	/raid60/scratch/leo/scratch/era5/odbs/1761/era5.1761.conv.1:20292
0-20000-0-42369	[42369]	LUCKNOW/AMAUSI	26.75	80.879997	1956-05-14 00:00:00	1967-07-30 00:00:00	/raid60/scratch/leo/scratch/era5/odbs/1761/era5.1761.conv.1:42369
0-20000-0-72424	[72424]	FT.KNOX, KY. (ARMY)	37.900002	-85.970001	1954-05-16 00:00:00	1954-10-02 00:00:00	/raid60/scratch/leo/scratch/era5/odbs/1761/era5.1761.conv.1:72424
0-20000-0-33345	[33345]	Kyiv	50.400002	30.450001	1946-10-01 00:00:00	1979-12-31 00:00:00	/raid60/scratch/leo/scratch/era5/odbs/1761/era5.1761.conv.1:33345
0-20000-0-54374	[54374]	LINJIANG	41.720001	126.849998	1957-03-02 00:00:00	1959-12-31 00:00:00	/raid60/scratch/leo/scratch/era5/odbs/1761/era5.1761.conv.1:54374
0-20000-0-93829	[93829]	PENSACOLA, FL	30.35	-87.269997	1923-01-01 00:00:00	1923-12-31 00:00:00	/raid60/scratch/leo/scratch/era5/odbs/1761/era5.1761.conv.1923
0-20000-0-24817	[24817]	ERBOGACEN	61.27	108.019997	1955-03-05 00:00:00	1979-12-26 00:00:00	/raid60/scratch/leo/scratch/era5/odbs/1761/era5.1761.conv.1:24817
0-20000-0-30673	[30673]	MOGOCHA	53.73	119.779999	1957-01-01 00:00:00	1979-12-31 00:00:00	/raid60/scratch/leo/scratch/era5/odbs/1761/era5.1761.conv.1:30673
0-20000-0-70381	[70381]	JUNEAU	58.369999	-134.580002	1948-01-01 00:00:00	1953-05-14 00:00:00	/raid60/scratch/leo/scratch/era5/odbs/1761/era5.1761.conv.1:70381
0-20000-0-47830	[47830]	MIYAZAKI	31.92	131.419998	1927-01-06 00:00:00	1941-06-13 00:00:00	/raid60/scratch/leo/scratch/era5/odbs/1761/era5.1761.conv.1:47830
0-20000-0-43041	[43041]	JAGDALPUR	19.08	82.029999	1954-08-27 00:00:00	1967-07-29 00:00:00	/raid60/scratch/leo/scratch/era5/odbs/1761/era5.1761.conv.1:43041
0-20000-0-47678	[47678]	HACHIJOJIMA	33.099998	139.779999	1935-01-08 00:00:00	1944-08-28 00:00:00	/raid60/scratch/leo/scratch/era5/odbs/1761/era5.1761.conv.1:47678
0-20000-0-15420	[15420]	BUCURESTI BANEASA	44.5	26.129999	1955-07-01 00:00:00	1979-12-31 00:00:00	/raid60/scratch/leo/scratch/era5/odbs/1761/era5.1761.conv.1:15420
0-20000-0-72425	[72425]	HUNTINGTON, WV.	38.369999	-82.550003	1946-01-02 00:00:00	1948-08-31 00:00:00	/raid60/scratch/leo/scratch/era5/odbs/1761/era5.1761.conv.1:72425
0-20000-0-41530	[41530]	PESHAWAR	34.02	71.580002	1954-01-02 00:00:00	1963-12-31 00:00:00	/raid60/scratch/leo/scratch/era5/odbs/1761/era5.1761.conv.1:41530
0-20000-0-51709	[51709]	KASHI	39.470001	75.980003	1957-10-01 00:00:00	1979-12-31 00:00:00	/raid60/scratch/leo/scratch/era5/odbs/1761/era5.1761.conv.1:51709
0-20000-0-54401	[54401]	ZHANGJIAKOU	40.830002	115.18	1957-03-01 00:00:00	1959-12-31 00:00:00	/raid60/scratch/leo/scratch/era5/odbs/1761/era5.1761.conv.1:54401
0-20000-0-42379	[42379]	GORAKHPUR	26.75	83.370003	1954-01-01 00:00:00	1967-07-31 00:00:00	/raid60/scratch/leo/scratch/era5/odbs/1761/era5.1761.conv.1:42379
0-20000-0-36870	[36870]	ALMATY OGMS	43.23	76.93	1957-01-01 00:00:00	1979-12-31 00:00:00	/raid60/scratch/leo/scratch/era5/odbs/1761/era5.1761.conv.1:36870
0-20000-0-22550	[22550]	ARHANGEL'SK (22550-0)	64.580002	40.5	1946-08-07 00:00:00	1979-12-31 00:00:00	/raid60/scratch/leo/scratch/era5/odbs/1761/era5.1761.conv.1:22550
0-20000-0-47887	[47887]	MATSUYAMA	33.830002	132.779999	1937-10-26 00:00:00	1941-06-16 00:00:00	/raid60/scratch/leo/scratch/era5/odbs/1761/era5.1761.conv.1:47887
0-20000-0-27037	[27037]	VOLOGDA (27037-0)	59.279999	39.869999	1947-04-01 00:00:00	1979-12-31 00:00:00	/raid60/scratch/leo/scratch/era5/odbs/1761/era5.1761.conv.1:27037
0-20000-0-47690	[47690]	NIKKO	36.73	139.5	1931-05-02 00:00:00	1939-10-17 00:00:00	/raid60/scratch/leo/scratch/era5/odbs/1761/era5.1761.conv.1:47690
0-20000-0-43049	[43049]	GOPALPUR	19.27	84.879997	1955-02-12 00:00:00	1967-07-24 00:00:00	/raid60/scratch/leo/scratch/era5/odbs/1761/era5.1761.conv.1:43049
0-20000-0-20353	[20353]	MYS ZELANIYA	76.949997	68.550003	1934-11-07 00:00:00	1979-12-31 00:00:00	/raid60/scratch/leo/scratch/era5/odbs/1761/era5.1761.conv.1:20353
0-20000-0-15614	[15614]	SOFIA (OBSERV.)	42.82	23.379999	1955-07-01 00:00:00	1979-12-31 00:00:00	/raid60/scratch/leo/scratch/era5/odbs/1761/era5.1761.conv.1:15614
0-20000-0-24908	[24908]	VANAVARA	60.330002	102.269997	1955-02-20 00:00:00	1979-12-31 00:00:00	/raid60/scratch/leo/scratch/era5/odbs/1761/era5.1761.conv.1:24908
0-20000-0-54423	[54423]	CHENGDE	40.970001	117.830002	1957-03-04 00:00:00	1959-12-31 00:00:00	/raid60/scratch/leo/scratch/era5/odbs/1761/era5.1761.conv.1:54423
0-20000-0-22768	[22768]	SHENKURSK	62.099998	42.900002	1953-02-16 00:00:00	1954-12-31 00:00:00	/raid60/scratch/leo/scratch/era5/odbs/1761/era5.1761.conv.1:22768
0-20000-0-33393	[33393]	Lviv	49.82	23.950001	1947-02-06 00:00:00	1979-12-31 00:00:00	/raid60/scratch/leo/scratch/era5/odbs/1761/era5.1761.conv.1:33393
0-20000-0-72311	[72311]	ATHENS/MUN., GA.	33.950001	-83.32	1976-01-01 00:00:00	1976-12-31 00:00:00	/raid60/scratch/leo/scratch/era5/odbs/1761/era5.1761.conv.1976
0-20000-0-30692	[30692]	SKOVORODINO	54.0	123.970001	1949-01-01 00:00:00	1972-12-31 00:00:00	/raid60/scratch/leo/scratch/era5/odbs/1761/era5.1761.conv.1:30692
0-20000-0-27331	[27331]	ROSTOV	57.580002	39.580002	1950-06-11 00:00:00	1953-02-15 00:00:00	/raid60/scratch/leo/scratch/era5/odbs/1761/era5.1761.conv.1:27331
0-20000-0-47891	[47891]	TAKAMATSU	34.32	134.050003	1942-01-23 00:00:00	1946-02-27 00:00:00	/raid60/scratch/leo/scratch/era5/odbs/1761/era5.1761.conv.1:47891
0-20000-0-42398	[42398]	SILIGURI (42398-0)	26.629999	88.32	1954-01-01 00:00:00	1967-07-30 00:00:00	/raid60/scratch/leo/scratch/era5/odbs/1761/era5.1761.conv.1:42398
0-20000-0-47742	[47742]	SAKAI	35.549999	133.229996	1934-07-01 00:00:00	1937-08-13 00:00:00	/raid60/scratch/leo/scratch/era5/odbs/1761/era5.1761.conv.1:47742
0-20000-0-41620	[41620]	ZHOB	31.35	69.470001	1954-01-01 00:00:00	1963-12-31 00:00:00	/raid60/scratch/leo/scratch/era5/odbs/1761/era5.1761.conv.1:41620
0-20000-0-72533	[94881]	FORT WAYNE/MUN.,  BAER FLD., IN.	40.85	-85.5	1924-01-01 00:00:00	1924-12-31 00:00:00	/raid60/scratch/leo/scratch/era5/odbs/1761/era5.1761.conv.1924
0-20000-0-43063	[43063]	PUNE	18.530001	73.849998	1954-01-01 00:00:00	1967-07-31 00:00:00	/raid60/scratch/leo/scratch/era5/odbs/1761/era5.1761.conv.1:43063
0-20000-0-37018	[37018]	TUAPSE (37018-0)	44.099998	39.07	1950-01-05 00:00:00	1979-12-31 00:00:00	/raid60/scratch/leo/scratch/era5/odbs/1761/era5.1761.conv.1:37018
0-20000-0-54497	[54497]	DANDONG	40.029999	124.279999	1957-03-02 00:00:00	1959-12-31 00:00:00	/raid60/scratch/leo/scratch/era5/odbs/1761/era5.1761.conv.1:54497
0-20000-0-70398	[70398]	ANNETTE ISLAND, AK	55.040001	-131.570007	1948-01-01 00:00:00	1958-12-31 00:00:00	/raid60/scratch/leo/scratch/era5/odbs/1761/era5.1761.conv.1:70398
0-20000-0-51777	[51777]	RUOQIANG	39.080002	88.050003	1956-08-20 00:00:00	1959-12-31 00:00:00	/raid60/scratch/leo/scratch/era5/odbs/1761/era5.1761.conv.1:51777
0-20000-0-72317	[72317]	GREENSBORO/G.-HIGH PT., NC.	36.080002	-79.949997	1928-05-02 00:00:00	1962-12-31 00:00:00	/raid60/scratch/leo/scratch/era5/odbs/1761/era5.1761.conv.1:72317
0-20000-0-33506	[33506]	Poltava	49.599998	34.549999	1946-11-05 00:00:00	1949-09-03 00:00:00	/raid60/scratch/leo/scratch/era5/odbs/1761/era5.1761.conv.1:33506
0-20000-0-20387	[20387]	JODHPUR	26.299999	73.019997	1946-04-29 00:00:00	1979-12-31 00:00:00	/raid60/scratch/leo/scratch/era5/odbs/1761/era5.1761.conv.1:20387
[]	[72426]	LANCASTER FAIRFIELD	39.419998	-82.18	1943-12-23 00:00:00	1949-10-07 00:00:00	/raid60/scratch/leo/scratch/era5/odbs/1761/era5.1761.conv.1:72426
0-20000-0-47893	[47893]	KOCHI (47893-0)	33.57	133.550003	1933-01-19 00:00:00	1949-07-13 00:00:00	/raid60/scratch/leo/scratch/era5/odbs/1761/era5.1761.conv.1:47893
0-20000-0-47401	[47401]	WAKKANAI	45.419998	141.679993	1941-11-11 00:00:00	1954-12-31 00:00:00	/raid60/scratch/leo/scratch/era5/odbs/1761/era5.1761.conv.1:47401
0-20000-0-16044	[16044]	UDINE/RIVOLTO RDS	46.029999	13.18	1957-09-08 00:00:00	1979-12-31 00:00:00	/raid60/scratch/leo/scratch/era5/odbs/1761/era5.1761.conv.1:16044
0-20000-0-24944	[24944]	OLEKMINSK (24944-0)	60.400002	120.419998	1950-10-11 00:00:00	1979-12-31 00:00:00	/raid60/scratch/leo/scratch/era5/odbs/1761/era5.1761.conv.1:24944
0-20000-0-41640	[41640]	LAHORE CITY	31.549999	74.330002	1954-01-01 00:00:00	1963-12-31 00:00:00	/raid60/scratch/leo/scratch/era5/odbs/1761/era5.1761.conv.1:41640
0-20000-0-37050	[37050]	MINERAL'NYE VODY (37055-1)	44.049999	43.029999	1947-05-03 00:00:00	1951-11-20 00:00:00	/raid60/scratch/leo/scratch/era5/odbs/1761/era5.1761.conv.1:37050
0-20000-0-30758	[30758]	CHITA	52.02	113.330002	1946-10-02 00:00:00	1972-12-31 00:00:00	/raid60/scratch/leo/scratch/era5/odbs/1761/era5.1761.conv.1:30758
0-20000-0-22802	[22802]	SORTAVALA	61.720001	30.719999	1949-01-01 00:00:00	1979-12-31 00:00:00	/raid60/scratch/leo/scratch/era5/odbs/1761/era5.1761.conv.1:22802
0-20000-0-27467	[27467]	NIZHNIJ NOVGOROD	56.27	44.0	1946-08-09 00:00:00	1979-12-31 00:00:00	/raid60/scratch/leo/scratch/era5/odbs/1761/era5.1761.conv.1:27467
0-20000-0-72219	[72219]	ATLANTA/MUN., GA.	33.650002	-84.419998	1931-12-31 00:00:00	1932-12-31 00:00:00	/raid60/scratch/leo/scratch/era5/odbs/1761/era5.1761.conv.1932
0-20000-0-47898	[47898]	SHIMIZU	32.720001	133.020004	1949-07-15 00:00:00	1953-12-31 00:00:00	/raid60/scratch/leo/scratch/era5/odbs/1761/era5.1761.conv.1:47898
0-20000-0-47407	[47407]	ASAHIKAWA	43.77	142.369995	1922-07-12 00:00:00	1941-07-21 00:00:00	/raid60/scratch/leo/scratch/era5/odbs/1761/era5.1761.conv.1:47407
0-20000-0-48455	[48455]	BANGKOK METROPOLIS	13.73	100.5	1954-07-01 00:00:00	1967-04-18 00:00:00	/raid60/scratch/leo/scratch/era5/odbs/1761/era5.1761.conv.1:48455
0-20000-0-20420	[20420]	NAGPUR SONEGAON	21.15	79.120003	1946-09-30 00:00:00	1979-12-31 00:00:00	/raid60/scratch/leo/scratch/era5/odbs/1761/era5.1761.conv.1:20420
0-20000-0-71043	[71043]	NORMAN WELLS A, NWT	65.279999	-126.800003	1955-07-01 00:00:00	1977-07-06 00:00:00	/raid60/scratch/leo/scratch/era5/odbs/1761/era5.1761.conv.1:71043
0-20000-0-72428	[72428]	COLUMBUS/PORT COLUMBUS, OH.	39.98	-82.870003	1948-01-01 00:00:00	1959-12-31 00:00:00	/raid60/scratch/leo/scratch/era5/odbs/1761/era5.1761.conv.1:72428
0-20000-0-43128	[43128]	HYDERABAD AIRPORT	17.450001	78.470001	1954-01-01 00:00:00	1967-07-29 00:00:00	/raid60/scratch/leo/scratch/era5/odbs/1761/era5.1761.conv.1:43128
0-20000-0-51828	[51828]	HOTAN	37.119999	79.919998	1957-03-01 00:00:00	1959-12-31 00:00:00	/raid60/scratch/leo/scratch/era5/odbs/1761/era5.1761.conv.1:51828
0-20000-0-72324	[72324]	CHATTANOOGA/LOVELL FIELD, TN.	35.029999	-85.199997	1941-01-05 00:00:00	1957-07-31 00:00:00	/raid60/scratch/leo/scratch/era5/odbs/1761/era5.1761.conv.1:72324
0-20000-0-33631	[33631]	Uzhhorod	48.630001	22.27	1953-02-16 00:00:00	1979-12-31 00:00:00	/raid60/scratch/leo/scratch/era5/odbs/1761/era5.1761.conv.1:33631
0-20000-0-72250	[72250]	BROWNSVILLE/INT., TX	25.92	-97.470001	1929-08-05 00:00:00	1964-10-31 00:00:00	/raid60/scratch/leo/scratch/era5/odbs/1761/era5.1761.conv.1:72250
0-20000-0-25123	[25123]	CHERSKIJ	68.800003	161.279999	1955-03-14 00:00:00	1979-12-31 00:00:00	/raid60/scratch/leo/scratch/era5/odbs/1761/era5.1761.conv.1:25123
0-20000-0-54511	[54511]	BEIJING	39.93	116.330002	1956-08-20 00:00:00	1959-12-31 00:00:00	/raid60/scratch/leo/scratch/era5/odbs/1761/era5.1761.conv.1:54511
0-20000-0-30935	[30935]	KRASNYJ CHIKOJ	50.369999	108.75	1955-03-16 00:00:00	1972-12-31 00:00:00	/raid60/scratch/leo/scratch/era5/odbs/1761/era5.1761.conv.1:30935
0-20000-0-41661	[41661]	QUETTA (SHEIKH MANDA)	30.18	66.949997	1954-01-01 00:00:00	1963-12-31 00:00:00	/raid60/scratch/leo/scratch/era5/odbs/1761/era5.1761.conv.1:41661
0-20000-0-16080	[16080]	MILANO/LINATE (16080-0)	45.470001	9.28	1955-07-01 00:00:00	1979-12-31 00:00:00	/raid60/scratch/leo/scratch/era5/odbs/1761/era5.1761.conv.1:16080
0-20000-0-47909	[47909]	NAZE	28.379999	129.550003	1957-01-01 00:00:00	1979-12-31 00:00:00	/raid60/scratch/leo/scratch/era5/odbs/1761/era5.1761.conv.1:47909
0-20000-0-37054	[37054]	MINERAL'NYE VODY (37054-0)	44.220001	43.099998	1947-03-01 00:00:00	1979-12-31 00:00:00	/raid60/scratch/leo/scratch/era5/odbs/1761/era5.1761.conv.1:37054
0-20000-0-20498	[20498]	PORT BLAIR	11.67	92.720001	1949-12-18 00:00:00	1979-12-31 00:00:00	/raid60/scratch/leo/scratch/era5/odbs/1761/era5.1761.conv.1:20498
0-20000-0-42410	[42410]	GUWAHATI	26.08	91.720001	1955-04-19 00:00:00	1967-07-30 00:00:00	/raid60/scratch/leo/scratch/era5/odbs/1761/era5.1761.conv.1:42410
0-20000-0-7145	[7145]	TRAPPES	48.77	2.02	1955-07-01 00:00:00	1979-12-31 00:00:00	/raid60/scratch/leo/scratch/era5/odbs/1761/era5.1761.conv.1:7145
0-20000-0-27595	[27595]	KAZAN' (27595-0)	55.779999	49.18	1946-11-05 00:00:00	1979-12-31 00:00:00	/raid60/scratch/leo/scratch/era5/odbs/1761/era5.1761.conv.1:27595
0-20000-0-22820	[22820]	PETROZAVODSK	61.82	34.27	1942-04-04 00:00:00	1979-12-31 00:00:00	/raid60/scratch/leo/scratch/era5/odbs/1761/era5.1761.conv.1:22820
0-20000-0-47744	[47744]	YONAGO	35.43	133.350006	1940-01-01 00:00:00	1953-12-30 00:00:00	/raid60/scratch/leo/scratch/era5/odbs/1761/era5.1761.conv.1:47744
0-20000-0-54527	[54527]	TIANJIN	39.18	117.129997	1957-03-03 00:00:00	1959-12-31 00:00:00	/raid60/scratch/leo/scratch/era5/odbs/1761/era5.1761.conv.1:54527
0-20000-0-72469	[72469]	DENVER/STAPLETON INT., CO.	39.77	-104.879997	1931-09-17 00:00:00	1964-10-31 00:00:00	/raid60/scratch/leo/scratch/era5/odbs/1761/era5.1761.conv.1:72469
0-20000-0-52203	[52203]	HAMI	42.830002	93.449997	1957-03-01 00:00:00	1959-12-31 00:00:00	/raid60/scratch/leo/scratch/era5/odbs/1761/era5.1761.conv.1:52203
0-20000-0-47918	[47918]	ISHIGAKIJIMA	24.33	124.169998	1940-10-02 00:00:00	1951-08-30 00:00:00	/raid60/scratch/leo/scratch/era5/odbs/1761/era5.1761.conv.1:47918
0-20000-0-16239	[16239]	ROMA/CIAMPINO	41.799999	12.6	1957-01-01 00:00:00	1961-12-20 00:00:00	/raid60/scratch/leo/scratch/era5/odbs/1761/era5.1761.conv.1:16239
0-20000-0-72326	[72326]	KNOXVILLE/MUN., TN.	35.799999	-84.0	1927-08-02 00:00:00	1959-03-31 00:00:00	/raid60/scratch/leo/scratch/era5/odbs/1761/era5.1761.conv.1:72326
0-20000-0-30965	[30965]	BORZYA	50.380001	116.519997	1957-08-01 00:00:00	1972-12-31 00:00:00	/raid60/scratch/leo/scratch/era5/odbs/1761/era5.1761.conv.1:30965
0-20000-0-48480	[48480]	CHANTHA BURI	12.62	102.120003	1954-07-20 00:00:00	1967-07-31 00:00:00	/raid60/scratch/leo/scratch/era5/odbs/1761/era5.1761.conv.1:48480
0-20000-0-42415	[42415]	TEZPUR	26.620001	92.779999	1956-06-06 00:00:00	1960-08-08 00:00:00	/raid60/scratch/leo/scratch/era5/odbs/1761/era5.1761.conv.1:42415
0-20000-0-33658	[33658]	Chernivtsi	48.27	25.969999	1950-01-02 00:00:00	1979-12-31 00:00:00	/raid60/scratch/leo/scratch/era5/odbs/1761/era5.1761.conv.1:33658
0-20000-0-41675	[41675]	MULTAN	30.200001	71.43	1954-01-01 00:00:00	1963-12-31 00:00:00	/raid60/scratch/leo/scratch/era5/odbs/1761/era5.1761.conv.1:41675
0-20000-0-72251	[72251]	CORPUS CHRISTI/INT., TX.	27.780001	-97.510002	1953-02-01 00:00:00	1979-12-31 00:00:00	/raid60/scratch/leo/scratch/era5/odbs/1761/era5.1761.conv.1:72251
0-20000-0-72432	[72432]	EVANSVILLE/REG., IN.	38.049999	-87.529999	1934-09-06 00:00:00	1958-12-29 00:00:00	/raid60/scratch/leo/scratch/era5/odbs/1761/era5.1761.conv.1:72432
0-20000-0-20500	[20500]	PUNE	18.53	73.85	1940-12-14 00:00:00	1974-02-13 00:00:00	/raid60/scratch/leo/scratch/era5/odbs/1761/era5.1761.conv.1:20500
0-20000-0-37789	[37789]	YEREVAN ARABKIR	40.130001	44.470001	1960-12-01 00:00:00	1979-12-31 00:00:00	/raid60/scratch/leo/scratch/era5/odbs/1761/era5.1761.conv.1:37789
0-20000-0-47749	[47749]	MAIZURU AB	35.369999	135.199997	1935-08-01 00:00:00	1941-06-10 00:00:00	/raid60/scratch/leo/scratch/era5/odbs/1761/era5.1761.conv.1:47749
0-20000-0-54534	[54534]	TANGSHAN	39.669998	118.120003	1957-03-03 00:00:00	1959-12-31 00:00:00	/raid60/scratch/leo/scratch/era5/odbs/1761/era5.1761.conv.1:54534
0-20000-0-43149	[43149]	VISHAKHAPATNAM	17.719999	83.230003	1954-01-01 00:00:00	1967-07-31 00:00:00	/raid60/scratch/leo/scratch/era5/odbs/1761/era5.1761.conv.1:43149
0-20000-0-52267	[52267]	EJIN QI	41.98	101.07	1957-03-01 00:00:00	1972-12-31 00:00:00	/raid60/scratch/leo/scratch/era5/odbs/1761/era5.1761.conv.1:52267
0-20000-0-47930	[47930]	NAHA AIRPORT	26.200001	127.650002	1927-09-01 00:00:00	1944-06-27 00:00:00	/raid60/scratch/leo/scratch/era5/odbs/1761/era5.1761.conv.1:47930
[]	[25173]	MYS SHMIDTA	68.900002	-179.360001	1936-11-20 00:00:00	1979-12-31 00:00:00	/raid60/scratch/leo/scratch/era5/odbs/1761/era5.1761.conv.1:25173
0-20000-0-47412	[47412]	SAPPORO	43.049999	141.330002	1934-04-02 00:00:00	1953-12-31 00:00:00	/raid60/scratch/leo/scratch/era5/odbs/1761/era5.1761.conv.1:47412
0-20000-0-47755	[47755]	HAMADA	34.900002	132.070007	1938-12-01 00:00:00	1941-06-11 00:00:00	/raid60/scratch/leo/scratch/era5/odbs/1761/era5.1761.conv.1:47755
0-20000-0-16242	[16242]	ROMA/FIUMICINO	41.799999	12.23	1955-07-01 00:00:00	1976-09-04 00:00:00	/raid60/scratch/leo/scratch/era5/odbs/1761/era5.1761.conv.1:16242
0-20000-0-23022	[23022]	AMDERMA	69.75	61.700001	1947-07-03 00:00:00	1979-12-31 00:00:00	/raid60/scratch/leo/scratch/era5/odbs/1761/era5.1761.conv.1:23022
0-20000-0-27612	[27612]	MOSKVA VDNH	55.75	37.57	1946-08-07 00:00:00	1979-12-31 00:00:00	/raid60/scratch/leo/scratch/era5/odbs/1761/era5.1761.conv.1:27612
0-20000-0-20504	[20504]	VERAVAL	20.879999	70.43	1945-06-05 00:00:00	1974-01-06 00:00:00	/raid60/scratch/leo/scratch/era5/odbs/1761/era5.1761.conv.1:20504
0-20000-0-72476	[72476]	GRAND JUNCTION/WALKER FIELD, CO.	39.119999	-108.529999	1948-01-01 00:00:00	1979-12-31 00:00:00	/raid60/scratch/leo/scratch/era5/odbs/1761/era5.1761.conv.1:72476
0-20000-0-37860	[37860]	MASHTAGA	40.400002	50.099998	1946-12-01 00:00:00	1979-12-29 00:00:00	/raid60/scratch/leo/scratch/era5/odbs/1761/era5.1761.conv.1:37860
0-20000-0-43185	[43185]	MACHILIPATNAM/FRANCHPET	16.18	81.129997	1954-01-01 00:00:00	1961-07-19 00:00:00	/raid60/scratch/leo/scratch/era5/odbs/1761/era5.1761.conv.1:43185
0-20000-0-31004	[31004]	ALDAN	58.619999	125.370003	1950-02-06 00:00:00	1972-12-31 00:00:00	/raid60/scratch/leo/scratch/era5/odbs/1761/era5.1761.conv.1:31004
0-20000-0-54662	[54662]	DALIAN	38.900002	121.629997	1957-03-03 00:00:00	1959-12-31 00:00:00	/raid60/scratch/leo/scratch/era5/odbs/1761/era5.1761.conv.1:54662
0-20000-0-41712	[41712]	DAL BANDIN	28.879999	64.400002	1954-01-01 00:00:00	1963-12-31 00:00:00	/raid60/scratch/leo/scratch/era5/odbs/1761/era5.1761.conv.1:41712
0-20000-0-33837	[33837]	Odesa	46.48	30.629999	1946-12-01 00:00:00	1979-12-29 00:00:00	/raid60/scratch/leo/scratch/era5/odbs/1761/era5.1761.conv.1:33837
0-20000-0-52418	[52418]	DUNHUANG	40.130001	94.779999	1957-03-01 00:00:00	1959-12-28 00:00:00	/raid60/scratch/leo/scratch/era5/odbs/1761/era5.1761.conv.1:52418
0-20000-0-72434	[72434]	ST.LOUIS/LAMBERT,  ST.LOUIS INT., MO.	38.75	-89.629997	1929-07-18 00:00:00	1959-03-31 00:00:00	/raid60/scratch/leo/scratch/era5/odbs/1761/era5.1761.conv.1:72434
0-20000-0-71906	[71906]	KUUJJUAQ A, QUE	58.099998	-68.43	1941-11-22 00:00:00	1958-12-31 00:00:00	/raid60/scratch/leo/scratch/era5/odbs/1761/era5.1761.conv.1:71906
0-20000-0-72481	[72481]	MERCED/CASTLE AFB,  CA.	37.380001	-120.57	1952-11-15 00:00:00	1963-01-31 00:00:00	/raid60/scratch/leo/scratch/era5/odbs/1761/era5.1761.conv.1:72481
[]	[23074]	DUDINKA	69.400002	86.169998	1951-08-15 00:00:00	1960-12-26 00:00:00	/raid60/scratch/leo/scratch/era5/odbs/1761/era5.1761.conv.1:23074
0-20000-0-25399	[25399]	MYS UELEN	66.160004	-169.830002	1944-08-03 00:00:00	1979-12-31 00:00:00	/raid60/scratch/leo/scratch/era5/odbs/1761/era5.1761.conv.1:25399
0-20000-0-74612	[74612]	CHINA LAKE, NAF, CA.	35.68	-117.68	1946-04-09 00:00:00	1959-04-30 00:00:00	/raid60/scratch/leo/scratch/era5/odbs/1761/era5.1761.conv.1:74612
0-20000-0-31088	[31088]	OHOTSK	59.369999	143.199997	1950-09-20 00:00:00	1972-12-31 00:00:00	/raid60/scratch/leo/scratch/era5/odbs/1761/era5.1761.conv.1:31088
0-20000-0-43193	[43193]	VENGURLA	15.87	73.629997	1954-01-01 00:00:00	1967-07-30 00:00:00	/raid60/scratch/leo/scratch/era5/odbs/1761/era5.1761.conv.1:43193
0-20000-0-48568	[48568]	SONGKHLA	7.18	100.620003	1954-07-01 00:00:00	1967-07-31 00:00:00	/raid60/scratch/leo/scratch/era5/odbs/1761/era5.1761.conv.1:48568
0-20000-0-52436	[52436]	YUMENZHEN	40.27	97.18	1957-03-01 00:00:00	1959-12-31 00:00:00	/raid60/scratch/leo/scratch/era5/odbs/1761/era5.1761.conv.1:52436
0-20000-0-20531	[20531]	THIRUVANANTHAPURAM (43371-0)	8.48	76.949997	1947-05-31 00:00:00	1979-12-31 00:00:00	/raid60/scratch/leo/scratch/era5/odbs/1761/era5.1761.conv.1:20531
0-20000-0-47420	[47420]	NEMURO	43.330002	145.580002	1941-10-01 00:00:00	1953-12-29 00:00:00	/raid60/scratch/leo/scratch/era5/odbs/1761/era5.1761.conv.1:47420
0-20000-0-37985	[37985]	LANKARAN	38.73	48.830002	1953-03-16 00:00:00	1979-12-31 00:00:00	/raid60/scratch/leo/scratch/era5/odbs/1761/era5.1761.conv.1:37985
0-20000-0-42475	[42475]	ALLAHABAD/GHOORPUR	25.450001	81.730003	1954-01-01 00:00:00	1967-07-31 00:00:00	/raid60/scratch/leo/scratch/era5/odbs/1761/era5.1761.conv.1:42475
0-20000-0-27947	[27947]	TAMBOV (27947-0)	52.73	41.470001	1948-08-23 00:00:00	1979-12-31 00:00:00	/raid60/scratch/leo/scratch/era5/odbs/1761/era5.1761.conv.1:27947
0-20000-0-41715	[41715]	JACOBABAD	28.299999	68.470001	1954-01-01 00:00:00	1963-12-31 00:00:00	/raid60/scratch/leo/scratch/era5/odbs/1761/era5.1761.conv.1:41715
0-20000-0-72201	[72201]	KEY WEST/INT., FL	24.58	-81.699997	1948-01-01 00:00:00	1954-04-30 00:00:00	/raid60/scratch/leo/scratch/era5/odbs/1761/era5.1761.conv.1:72201
0-20000-0-74614	[74614]	INDIAN SPRINGS GUNNERY RANGE, NV.	36.580002	-115.68	1944-08-17 00:00:00	1964-06-30 00:00:00	/raid60/scratch/leo/scratch/era5/odbs/1761/era5.1761.conv.1:74614
0-20000-0-33946	[33946]	Simferopol	45.02	33.98	1950-11-05 00:00:00	1979-12-31 00:00:00	/raid60/scratch/leo/scratch/era5/odbs/1761/era5.1761.conv.1:33946
0-20000-0-47426	[47426]	URAKAWA	42.169998	142.779999	1945-11-01 00:00:00	1948-09-30 00:00:00	/raid60/scratch/leo/scratch/era5/odbs/1761/era5.1761.conv.1:47426
0-20000-0-38001	[38001]	FORT SHEVCHENKO	44.549999	50.25	1953-02-19 00:00:00	1953-12-30 00:00:00	/raid60/scratch/leo/scratch/era5/odbs/1761/era5.1761.conv.1:38001
0-20000-0-25400	[25400]	ZYRYANKA (25400-0)	65.730003	150.899994	1954-07-02 00:00:00	1979-12-31 00:00:00	/raid60/scratch/leo/scratch/era5/odbs/1761/era5.1761.conv.1:25400
0-20000-0-27995	[27995]	SAMARA (BEZENCHUK)	52.98	49.43	1951-05-01 00:00:00	1954-05-28 00:00:00	/raid60/scratch/leo/scratch/era5/odbs/1761/era5.1761.conv.1:27995
0-20000-0-31329	[31329]	EKIMCHAN	53.07	132.929993	1957-01-07 00:00:00	1972-12-31 00:00:00	/raid60/scratch/leo/scratch/era5/odbs/1761/era5.1761.conv.1:31329
0-20000-0-48694	[48694]	SINGAPORE/PAYA LEBAR	1.35	103.900002	1949-10-01 00:00:00	1954-12-31 00:00:00	/raid60/scratch/leo/scratch/era5/odbs/1761/era5.1761.conv.1:48694
0-20000-0-72438	[72438]	INDIANAPOLIS/I.-MUN/WEIR COOK, IN.	39.720001	-85.730003	1932-03-30 00:00:00	1959-06-30 00:00:00	/raid60/scratch/leo/scratch/era5/odbs/1761/era5.1761.conv.1:72438
0-20000-0-42498	[42498]	BHAGALPUR	25.23	86.949997	1954-01-01 00:00:00	1967-07-24 00:00:00	/raid60/scratch/leo/scratch/era5/odbs/1761/era5.1761.conv.1:42498
0-20000-0-23205	[23205]	NAR'JAN-MAR	67.650002	53.02	1946-12-08 00:00:00	1979-12-31 00:00:00	/raid60/scratch/leo/scratch/era5/odbs/1761/era5.1761.conv.1:23205
0-20000-0-8221	[8221]	MADRID/BARAJAS	40.470001	-3.57	1952-08-01 00:00:00	1979-12-31 00:00:00	/raid60/scratch/leo/scratch/era5/odbs/1761/era5.1761.conv.1:8221
0-20000-0-24244	[24244]	SEATTLE/S.-TACOMA, WA.	47.68	-122.260002	1932-12-31 00:00:00	1933-12-31 00:00:00	/raid60/scratch/leo/scratch/era5/odbs/1761/era5.1761.conv.1933
0-20000-0-74630	[74630]	STALLION AAF, NM	33.799999	-106.669998	1956-03-05 00:00:00	1961-01-27 00:00:00	/raid60/scratch/leo/scratch/era5/odbs/1761/era5.1761.conv.1:74630
0-20000-0-72694	[72694]	SALEM/MCNARY, OR.	44.919998	-123.0	1956-06-01 00:00:00	1958-12-31 00:00:00	/raid60/scratch/leo/scratch/era5/odbs/1761/era5.1761.conv.1:72694
0-20000-0-47430	[47430]	HAKODATE	41.82	140.75	1938-06-07 00:00:00	1944-09-30 00:00:00	/raid60/scratch/leo/scratch/era5/odbs/1761/era5.1761.conv.1:47430
0-20000-0-41756	[41756]	JIWANI	25.07	61.799999	1954-01-01 00:00:00	1963-12-31 00:00:00	/raid60/scratch/leo/scratch/era5/odbs/1761/era5.1761.conv.1:41756
0-20000-0-52533	[52533]	JIUQUAN	39.830002	98.25	1957-03-01 00:00:00	1959-12-23 00:00:00	/raid60/scratch/leo/scratch/era5/odbs/1761/era5.1761.conv.1:52533
0-20000-0-42543	[42543]	UDAIPUR	24.58	73.699997	1956-08-01 00:00:00	1967-07-31 00:00:00	/raid60/scratch/leo/scratch/era5/odbs/1761/era5.1761.conv.1:42543
0-20000-0-43201	[43201]	GADAG	15.42	75.629997	1945-10-02 00:00:00	1967-07-28 00:00:00	/raid60/scratch/leo/scratch/era5/odbs/1761/era5.1761.conv.1:43201
0-20000-0-74631	[74631]	WHITE SANDS MISSILE RANGE SITE NO.32, NM	33.18	-106.480003	1955-11-22 00:00:00	1961-01-24 00:00:00	/raid60/scratch/leo/scratch/era5/odbs/1761/era5.1761.conv.1:74631
0-20000-0-48698	[48698]	SINGAPORE/CHANGI AIRPORT	1.37	103.980003	1955-02-10 00:00:00	1979-12-31 00:00:00	/raid60/scratch/leo/scratch/era5/odbs/1761/era5.1761.conv.1:48698
0-20000-0-47575	[47575]	AOMORI	40.82	140.779999	1946-04-01 00:00:00	1948-08-30 00:00:00	/raid60/scratch/leo/scratch/era5/odbs/1761/era5.1761.conv.1:47575
0-20000-0-25428	[25428]	OMOLON	65.0	159.699997	1957-11-11 00:00:00	1979-05-20 00:00:00	/raid60/scratch/leo/scratch/era5/odbs/1761/era5.1761.conv.1:25428
0-20000-0-82598	[82598]	NATAL (82598-0)	-5.9	-35.200001	1943-10-18 00:00:00	1979-12-31 00:00:00	/raid60/scratch/leo/scratch/era5/odbs/1761/era5.1761.conv.1:82598
0-20000-0-72698	[72698]	PORTLAND/INT., OR.	45.599998	-122.599998	1948-01-01 00:00:00	1953-03-31 00:00:00	/raid60/scratch/leo/scratch/era5/odbs/1761/era5.1761.conv.1:72698
0-20000-0-34009	[34009]	KURSK	51.75	36.200001	1946-08-07 00:00:00	1979-12-31 00:00:00	/raid60/scratch/leo/scratch/era5/odbs/1761/era5.1761.conv.1:34009
0-20000-0-72439	[72439]	SPRINGFIELD/CAPITAL, IL.	39.830002	-89.669998	1948-01-02 00:00:00	1959-06-30 00:00:00	/raid60/scratch/leo/scratch/era5/odbs/1761/era5.1761.conv.1:72439
0-20000-0-23274	[23274]	IGARKA	67.470001	86.57	1950-01-04 00:00:00	1974-05-10 00:00:00	/raid60/scratch/leo/scratch/era5/odbs/1761/era5.1761.conv.1:23274
0-20000-0-16622	[16622]	THESSALONIKI (AIRPORT)	40.52	22.969999	1955-04-16 00:00:00	1967-12-31 00:00:00	/raid60/scratch/leo/scratch/era5/odbs/1761/era5.1761.conv.1:16622
0-20000-0-28275	[28275]	TOBOL'SK	58.150002	68.18	1951-11-13 00:00:00	1979-12-31 00:00:00	/raid60/scratch/leo/scratch/era5/odbs/1761/era5.1761.conv.1:28275
0-20000-0-38392	[38392]	DASHOGUZ	41.830002	59.98	1946-10-15 00:00:00	1979-12-31 00:00:00	/raid60/scratch/leo/scratch/era5/odbs/1761/era5.1761.conv.1:38392
0-20000-0-31510	[31510]	BLAGOVESCETNSK	50.27	127.5	1946-10-12 00:00:00	1979-12-31 00:00:00	/raid60/scratch/leo/scratch/era5/odbs/1761/era5.1761.conv.1:31510
0-20000-0-42591	[42591]	GAYA (42591-0)	24.75	84.949997	1956-02-09 00:00:00	1967-07-30 00:00:00	/raid60/scratch/leo/scratch/era5/odbs/1761/era5.1761.conv.1:42591
[]	[74702]	INDEPENDENCE	36.330002	-118.050003	1942-01-06 00:00:00	1945-02-28 00:00:00	/raid60/scratch/leo/scratch/era5/odbs/1761/era5.1761.conv.1:74702
0-20000-0-43237	[43237]	PBO ANANTAPUR	14.68	77.620003	1954-08-29 00:00:00	1967-07-31 00:00:00	/raid60/scratch/leo/scratch/era5/odbs/1761/era5.1761.conv.1:43237
0-20000-0-91178	[91178]	KALAELOA, OAHU, HI.	21.32	-158.070007	1943-06-02 00:00:00	1959-01-31 00:00:00	/raid60/scratch/leo/scratch/era5/odbs/1761/era5.1761.conv.1:91178
0-20000-0-52681	[52681]	MINQIN	38.720001	103.099998	1957-03-01 00:00:00	1959-12-22 00:00:00	/raid60/scratch/leo/scratch/era5/odbs/1761/era5.1761.conv.1:52681
0-20000-0-83743	[83743]	RIO DE JANEIRO (83743-0)	-22.9	-43.169998	1939-06-01 00:00:00	1946-08-30 00:00:00	/raid60/scratch/leo/scratch/era5/odbs/1761/era5.1761.conv.1:83743
0-20000-0-48820	[48820]	HA NOI	21.049999	105.870003	1953-08-01 00:00:00	1979-12-31 00:00:00	/raid60/scratch/leo/scratch/era5/odbs/1761/era5.1761.conv.1:48820
0-20000-0-95767	[94772]	LAKE MACQUARIE AWS	-33.049999	151.600006	1944-09-14 00:00:00	1954-12-31 00:00:00	/raid60/scratch/leo/scratch/era5/odbs/1761/era5.1761.conv.1:94772
0-20000-0-72253	[72253]	SAN ANTONIO/INT., TX.	29.530001	-97.529999	1939-04-22 00:00:00	1962-05-31 00:00:00	/raid60/scratch/leo/scratch/era5/odbs/1761/era5.1761.conv.1:72253
0-20000-0-34139	[34139]	KAMENNAJA STEP'	51.049999	40.700001	1952-11-01 00:00:00	1961-11-01 00:00:00	/raid60/scratch/leo/scratch/era5/odbs/1761/era5.1761.conv.1:34139
0-20000-0-25551	[25551]	MARKOVO	64.68	170.419998	1955-02-20 00:00:00	1979-12-30 00:00:00	/raid60/scratch/leo/scratch/era5/odbs/1761/era5.1761.conv.1:25551
0-20000-0-23330	[23330]	SALEHARD	66.529999	66.529999	1948-03-01 00:00:00	1979-12-31 00:00:00	/raid60/scratch/leo/scratch/era5/odbs/1761/era5.1761.conv.1:23330
0-20000-0-42623	[42623]	IMPHAL/TULIHAL	24.77	93.900002	1954-01-01 00:00:00	1967-07-31 00:00:00	/raid60/scratch/leo/scratch/era5/odbs/1761/era5.1761.conv.1:42623
0-20000-0-83842	[83842]	CURITIBA (83842-0)	-25.43	-49.27	1938-04-01 00:00:00	1946-08-30 00:00:00	/raid60/scratch/leo/scratch/era5/odbs/1761/era5.1761.conv.1:83842
0-20000-0-38457	[38457]	TASHKENT	41.27	69.269997	1946-05-22 00:00:00	1979-12-31 00:00:00	/raid60/scratch/leo/scratch/era5/odbs/1761/era5.1761.conv.1:38457
0-20000-0-72440	[72440]	SPRINGFIELD/MUN., MO.	37.23	-92.620003	1939-05-19 00:00:00	1959-03-31 00:00:00	/raid60/scratch/leo/scratch/era5/odbs/1761/era5.1761.conv.1:72440
0-20000-0-52818	[52818]	GOLMUD	36.200001	94.629997	1957-03-01 00:00:00	1959-12-30 00:00:00	/raid60/scratch/leo/scratch/era5/odbs/1761/era5.1761.conv.1:52818
0-20000-0-72327	[72327]	NASHVILLE/METROPOLITAN, TN.	36.119999	-85.32	1937-07-01 00:00:00	1964-06-30 00:00:00	/raid60/scratch/leo/scratch/era5/odbs/1761/era5.1761.conv.1:72327
0-20000-0-2836	[2836]	SODANKYLA ARCTIC RESEARCH CENTRE	67.370003	26.65	1949-11-09 00:00:00	1979-12-31 00:00:00	/raid60/scratch/leo/scratch/era5/odbs/1761/era5.1761.conv.1:2836
0-20000-0-94776	[94776]	WILLIAMTOWN RAAF	-32.810001	151.830002	1955-01-01 00:00:00	1979-12-31 00:00:00	/raid60/scratch/leo/scratch/era5/odbs/1761/era5.1761.conv.1:94776
0-20000-0-31707	[31707]	EKATERINO-NIKOL'SKOE	47.73	130.970001	1948-07-02 00:00:00	1979-12-27 00:00:00	/raid60/scratch/leo/scratch/era5/odbs/1761/era5.1761.conv.1:31707
0-20000-0-83967	[83967]	PORTO ALEGRE (83967-0)	-29.9	-51.099998	1950-06-05 00:00:00	1954-12-22 00:00:00	/raid60/scratch/leo/scratch/era5/odbs/1761/era5.1761.conv.1:83967
0-20000-0-72256	[72256]	WACO, MADISON-COOPER, TX.	31.620001	-96.779999	1940-05-25 00:00:00	1957-10-31 00:00:00	/raid60/scratch/leo/scratch/era5/odbs/1761/era5.1761.conv.1:72256
[]	[72562]	BROKEN BOW MUNI AP	41.119999	-99.330002	1930-10-30 00:00:00	1964-10-31 00:00:00	/raid60/scratch/leo/scratch/era5/odbs/1761/era5.1761.conv.1:72562
0-20000-0-10503	[10503]	ZANDERIJ	5.47	-55.200001	1942-09-03 00:00:00	1946-12-31 00:00:00	/raid60/scratch/leo/scratch/era5/odbs/1761/era5.1761.conv.2:10503
0-20000-0-47582	[47582]	AKITA (47582-0)	39.720001	140.100006	1936-02-03 00:00:00	1953-12-31 00:00:00	/raid60/scratch/leo/scratch/era5/odbs/1761/era5.1761.conv.1:47582
0-20000-0-94970	[94970]	HOBART (ELLERSLIE ROAD)	-42.880001	147.330002	1950-05-31 00:00:00	1979-12-30 00:00:00	/raid60/scratch/leo/scratch/era5/odbs/1761/era5.1761.conv.1:94970
0-20000-0-74732	[74732]	HOLLOMAN AFB, NM	32.849998	-106.099998	1945-02-07 00:00:00	1961-01-27 00:00:00	/raid60/scratch/leo/scratch/era5/odbs/1761/era5.1761.conv.1:74732
0-20000-0-52836	[52836]	DOULAN	36.330002	98.029999	1957-03-01 00:00:00	1959-12-30 00:00:00	/raid60/scratch/leo/scratch/era5/odbs/1761/era5.1761.conv.1:52836
0-20000-0-34172	[34172]	SARATOV (34171-0)	51.57	46.029999	1947-03-03 00:00:00	1979-12-31 00:00:00	/raid60/scratch/leo/scratch/era5/odbs/1761/era5.1761.conv.1:34172
0-20000-0-23418	[23418]	PECHORA (23418-0)	65.120003	57.099998	1953-02-16 00:00:00	1979-12-31 00:00:00	/raid60/scratch/leo/scratch/era5/odbs/1761/era5.1761.conv.1:23418
0-20000-0-84390	[84390]	TALARA	-4.57	-81.25	1949-01-06 00:00:00	1954-08-12 00:00:00	/raid60/scratch/leo/scratch/era5/odbs/1761/era5.1761.conv.1:84390
0-20000-0-72486	[72486]	ELY/YELLAND, NV.	39.279999	-114.849998	1948-01-01 00:00:00	1964-10-31 00:00:00	/raid60/scratch/leo/scratch/era5/odbs/1761/era5.1761.conv.1:72486
0-20000-0-42647	[42647]	AHMADABAD	23.07	72.629997	1954-01-01 00:00:00	1967-07-28 00:00:00	/raid60/scratch/leo/scratch/era5/odbs/1761/era5.1761.conv.1:42647
0-20000-0-72334	[72334]	MEMPHIS/INTNL., TN.	35.049999	-90.0	1931-11-01 00:00:00	1959-12-31 00:00:00	/raid60/scratch/leo/scratch/era5/odbs/1761/era5.1761.conv.1:72334
0-20000-0-25563	[25563]	ANADYR'	64.78	177.559998	1940-11-25 00:00:00	1979-12-31 00:00:00	/raid60/scratch/leo/scratch/era5/odbs/1761/era5.1761.conv.1:25563
0-20000-0-72445	[72445]	COLUMBIA/REGIONAL,  MO.	38.970001	-92.370003	1946-01-31 00:00:00	1970-06-30 00:00:00	/raid60/scratch/leo/scratch/era5/odbs/1761/era5.1761.conv.1:72445
0-20000-0-28440	[28440]	EKATERINBURG	56.799999	60.630001	1946-05-07 00:00:00	1979-12-31 00:00:00	/raid60/scratch/leo/scratch/era5/odbs/1761/era5.1761.conv.1:28440
0-20000-0-72261	[72261]	DEL RIO/INT., TX.	29.370001	-100.760002	1951-05-01 00:00:00	1954-03-10 00:00:00	/raid60/scratch/leo/scratch/era5/odbs/1761/era5.1761.conv.1:72261
0-20000-0-48855	[48855]	DA NANG	16.030001	108.18	1954-07-03 00:00:00	1967-07-31 00:00:00	/raid60/scratch/leo/scratch/era5/odbs/1761/era5.1761.conv.1:48855
0-20000-0-74754	[74754]	ENGLAND AFB, LA.	31.33	-92.550003	1955-02-15 00:00:00	1955-04-30 00:00:00	/raid60/scratch/leo/scratch/era5/odbs/1761/era5.1761.conv.1:74754
0-20000-0-31735	[31735]	HABAROVSK (31735-0)	48.52	135.169998	1946-10-01 00:00:00	1979-12-26 00:00:00	/raid60/scratch/leo/scratch/era5/odbs/1761/era5.1761.conv.1:31735
0-20000-0-47584	[47584]	MORIOKA	39.700001	141.169998	1936-10-01 00:00:00	1949-07-14 00:00:00	/raid60/scratch/leo/scratch/era5/odbs/1761/era5.1761.conv.1:47584
0-20000-0-94960	[94974]	TUNNAK FIRE STATION	-42.419998	147.529999	1954-04-13 00:00:00	1958-03-31 00:00:00	/raid60/scratch/leo/scratch/era5/odbs/1761/era5.1761.conv.1:94974
0-20000-0-52866	[52866]	XINING (52866-1)	36.580002	101.919998	1957-03-02 00:00:00	1959-12-31 00:00:00	/raid60/scratch/leo/scratch/era5/odbs/1761/era5.1761.conv.1:52866
0-20000-0-10504	[10504]	AMAPA	2.08	-50.869999	1944-06-01 00:00:00	1946-08-31 00:00:00	/raid60/scratch/leo/scratch/era5/odbs/1761/era5.1761.conv.2:10504
0-20000-0-84691	[84691]	PISCO	-13.75	-76.279999	1949-01-05 00:00:00	1967-12-30 00:00:00	/raid60/scratch/leo/scratch/era5/odbs/1761/era5.1761.conv.1:84691
0-20000-0-42667	[42667]	BHOPAL/BAIRAGHAR	23.280001	77.349998	1954-01-01 00:00:00	1967-07-25 00:00:00	/raid60/scratch/leo/scratch/era5/odbs/1761/era5.1761.conv.1:42667
[]	[72488]	FALLON NAAS	39.48	-118.230003	1927-07-18 00:00:00	1930-12-31 00:00:00	/raid60/scratch/leo/scratch/era5/odbs/1761/era5.1761.conv.1:72488
0-20000-0-72311	[72311]	ATHENS/MUN., GA.	33.950001	-83.32	1977-01-01 00:00:00	1977-12-31 00:00:00	/raid60/scratch/leo/scratch/era5/odbs/1761/era5.1761.conv.1977
0-20000-0-43279	[43279]	CHENNAI/MINAMBAKKAM	13.0	80.18	1954-01-01 00:00:00	1967-07-30 00:00:00	/raid60/scratch/leo/scratch/era5/odbs/1761/era5.1761.conv.1:43279
0-20000-0-74781	[74781]	MOODY AFB, GA	30.969999	-82.800003	1942-06-01 00:00:00	1954-04-30 00:00:00	/raid60/scratch/leo/scratch/era5/odbs/1761/era5.1761.conv.1:74781
0-20000-0-34300	[34300]	Kharkiv	49.93	36.279999	1946-10-13 00:00:00	1979-12-31 00:00:00	/raid60/scratch/leo/scratch/era5/odbs/1761/era5.1761.conv.1:34300
0-20000-0-72365	[72365]	ALBUQUERQUE/INT., NM.	35.049999	-106.620003	1933-12-31 00:00:00	1934-12-31 00:00:00	/raid60/scratch/leo/scratch/era5/odbs/1761/era5.1761.conv.1934
0-20000-0-48860	[48860]	HOANG SA (PATTLE)	16.549999	111.620003	1954-07-03 00:00:00	1967-07-25 00:00:00	/raid60/scratch/leo/scratch/era5/odbs/1761/era5.1761.conv.1:48860
0-20000-0-28661	[28661]	KURGAN	55.470001	65.400002	1955-01-02 00:00:00	1979-12-31 00:00:00	/raid60/scratch/leo/scratch/era5/odbs/1761/era5.1761.conv.1:28661
0-20000-0-53068	[53068]	ERENHOT (53068-0)	44.220001	111.529999	1957-03-03 00:00:00	1959-12-31 00:00:00	/raid60/scratch/leo/scratch/era5/odbs/1761/era5.1761.conv.1:53068
0-20000-0-78795	[10805]	SANTIAGO (78795-0)	8.25	-80.57	1942-08-02 00:00:00	1946-01-22 00:00:00	/raid60/scratch/leo/scratch/era5/odbs/1761/era5.1761.conv.2:10805
0-20000-0-23472	[23472]	TURUHANSK	65.779999	87.949997	1952-01-01 00:00:00	1979-12-31 00:00:00	/raid60/scratch/leo/scratch/era5/odbs/1761/era5.1761.conv.1:23472
0-20000-0-81408	[10505]	SAINT GEORGES	3.87	-51.82	1943-10-20 00:00:00	1945-10-20 00:00:00	/raid60/scratch/leo/scratch/era5/odbs/1761/era5.1761.conv.2:10505
[]	[25594]	BUHTA PROVIDENJA	64.410004	-173.229996	1946-02-10 00:00:00	1979-12-31 00:00:00	/raid60/scratch/leo/scratch/era5/odbs/1761/era5.1761.conv.1:25594
0-20000-0-94995	[94995]	LORD HOWE ISLAND AERO	-31.530001	159.059998	1954-11-11 00:00:00	1979-12-30 00:00:00	/raid60/scratch/leo/scratch/era5/odbs/1761/era5.1761.conv.1:94995
0-20000-0-74788	[74788]	MACDILL AFB, FL.	27.85	-82.519997	1941-04-02 00:00:00	1951-07-28 00:00:00	/raid60/scratch/leo/scratch/era5/odbs/1761/era5.1761.conv.1:74788
0-20000-0-42675	[42675]	JABALPUR	23.17	79.949997	1956-02-01 00:00:00	1967-07-30 00:00:00	/raid60/scratch/leo/scratch/era5/odbs/1761/era5.1761.conv.1:42675
0-20000-0-72352	[72352]	ALTUS AFB, OK.	34.669998	-99.269997	1944-05-07 00:00:00	1961-05-31 00:00:00	/raid60/scratch/leo/scratch/era5/odbs/1761/era5.1761.conv.1:72352
0-20000-0-72202	[72202]	MIAMI, FL (72202-0)	25.799999	-79.699997	1945-01-01 00:00:00	1962-12-31 00:00:00	/raid60/scratch/leo/scratch/era5/odbs/1761/era5.1761.conv.1:72202
0-20000-0-91212	[91212]	WEATHER FORECAST OFFICE, GUAM, MARIANA IS.	13.55	144.830002	1956-09-15 00:00:00	1964-12-31 00:00:00	/raid60/scratch/leo/scratch/era5/odbs/1761/era5.1761.conv.1:91212
0-20000-0-82098	[10506]	MACAPA	0.03	-51.02	1944-01-18 00:00:00	1945-09-12 00:00:00	/raid60/scratch/leo/scratch/era5/odbs/1761/era5.1761.conv.2:10506
0-20000-0-10806	[10806]	TOBIAS BOLANOS PALMA INTERNATIONAL AIRPORT	9.9	-84.129997	1943-03-02 00:00:00	1945-09-21 00:00:00	/raid60/scratch/leo/scratch/era5/odbs/1761/era5.1761.conv.2:10806
0-20000-0-48870	[48870]	QUY NHON	13.77	109.220001	1956-08-22 00:00:00	1967-07-31 00:00:00	/raid60/scratch/leo/scratch/era5/odbs/1761/era5.1761.conv.1:48870
0-20000-0-72489	[72489]	RENO, NV.	39.57	-119.790001	1956-05-01 00:00:00	1979-12-31 00:00:00	/raid60/scratch/leo/scratch/era5/odbs/1761/era5.1761.conv.1:72489
0-20000-0-43295	[43295]	BANGALORE	12.97	77.580002	1954-01-01 00:00:00	1967-07-30 00:00:00	/raid60/scratch/leo/scratch/era5/odbs/1761/era5.1761.conv.1:43295
0-20000-0-8508	[8508]	LAJES (ACORES) (8508-0)	38.73	-27.07	1947-08-01 00:00:00	1979-12-31 00:00:00	/raid60/scratch/leo/scratch/era5/odbs/1761/era5.1761.conv.1:8508
0-20000-0-34560	[34560]	VOLGOGRAD (34560-0)	48.68	44.349998	1947-04-01 00:00:00	1979-12-31 00:00:00	/raid60/scratch/leo/scratch/era5/odbs/1761/era5.1761.conv.1:34560
0-20000-0-11812	[11812]	OWEN ROBERTS AIRPORT GRAND CAYMAN	19.25	-81.419998	1951-08-14 00:00:00	1957-05-13 00:00:00	/raid60/scratch/leo/scratch/era5/odbs/1761/era5.1761.conv.2:11812
0-20000-0-94996	[94996]	NORFOLK ISLAND AERO	-29.049999	167.929993	1943-10-01 00:00:00	1979-12-30 00:00:00	/raid60/scratch/leo/scratch/era5/odbs/1761/era5.1761.conv.1:94996
0-20000-0-42724	[42724]	AGARTALA	23.879999	91.25	1956-02-27 00:00:00	1967-07-25 00:00:00	/raid60/scratch/leo/scratch/era5/odbs/1761/era5.1761.conv.1:42724
0-20000-0-25677	[25677]	BERINGOVSKAJA	63.049999	179.320007	1955-04-10 00:00:00	1979-01-06 00:00:00	/raid60/scratch/leo/scratch/era5/odbs/1761/era5.1761.conv.1:25677
[]	[10808]	COCLE DEL NORTE	9.08	-80.57	1945-04-08 00:00:00	1945-04-25 00:00:00	/raid60/scratch/leo/scratch/era5/odbs/1761/era5.1761.conv.2:10808
0-20000-0-10507	[10507]	AMAPA	2.08	-50.869999	1943-12-01 00:00:00	1944-08-21 00:00:00	/raid60/scratch/leo/scratch/era5/odbs/1761/era5.1761.conv.2:10507
0-20000-0-28698	[28698]	OMSK (28698-0)	54.93	73.400002	1946-10-16 00:00:00	1979-12-31 00:00:00	/raid60/scratch/leo/scratch/era5/odbs/1761/era5.1761.conv.1:28698
[]	[12802]	FORT MYERS (BUCKINGHAM AAF)	26.629999	-81.699997	1943-09-14 00:00:00	1945-10-07 00:00:00	/raid60/scratch/leo/scratch/era5/odbs/1761/era5.1761.conv.2:12802
0-20000-0-47590	[47590]	SENDAI (47590-0)	38.27	140.899994	1940-05-10 00:00:00	1953-12-31 00:00:00	/raid60/scratch/leo/scratch/era5/odbs/1761/era5.1761.conv.1:47590
0-20000-0-43296	[43296]	BANGALORE/HINDUSTAN AIRPORT	12.95	77.629997	1955-02-03 00:00:00	1960-10-30 00:00:00	/raid60/scratch/leo/scratch/era5/odbs/1761/era5.1761.conv.1:43296
0-20000-0-74787	[12846]	DAYTONA BEACH, FL, DAYTONA BEACH INT. ARPT	29.18	-81.07	1943-11-01 00:00:00	1946-04-10 00:00:00	/raid60/scratch/leo/scratch/era5/odbs/1761/era5.1761.conv.2:12846
0-20000-0-94997	[94997]	HEARD ISLAND (THE SPIT)	-53.02	73.379997	1948-09-14 00:00:00	1948-09-14 00:00:00	/raid60/scratch/leo/scratch/era5/odbs/1761/era5.1761.conv.1:94997
0-20000-0-8521	[8521]	FUNCHAL/S.CATARINA	32.68	-16.77	1948-03-09 00:00:00	1979-12-31 00:00:00	/raid60/scratch/leo/scratch/era5/odbs/1761/era5.1761.conv.1:8521
0-686-0-61660	[11101]	DAKAR-DIASS-AIBD	14.72	-17.23	1943-06-18 00:00:00	1944-05-30 00:00:00	/raid60/scratch/leo/scratch/era5/odbs/1761/era5.1761.conv.2:11101
0-20000-0-10508	[10508]	TIMEHRI/CHEDDI JAGAN INTERNATIONAL	6.5	-58.25	1943-05-01 00:00:00	1943-11-30 00:00:00	/raid60/scratch/leo/scratch/era5/odbs/1761/era5.1761.conv.2:10508
0-20000-0-72712	[72712]	CARIBOU/MUN., ME.	46.869999	-68.019997	1940-06-24 00:00:00	1964-12-31 00:00:00	/raid60/scratch/leo/scratch/era5/odbs/1761/era5.1761.conv.1:72712
[]	[12909]	KELLY FIELD	29.379999	-97.419998	1918-12-03 00:00:00	1948-12-21 00:00:00	/raid60/scratch/leo/scratch/era5/odbs/1761/era5.1761.conv.2:12909
0-20000-0-13016	[13016]	AGADIR INEZGANNE	30.450001	-9.55	1943-04-23 00:00:00	1944-08-31 00:00:00	/raid60/scratch/leo/scratch/era5/odbs/1761/era5.1761.conv.2:13016
0-20000-0-12803	[12803]	FORT LAUDERDALE, FL, FORT LAUDERDALE-HOLYWOOD INT. ARPT	26.370001	-80.099998	1943-04-06 00:00:00	1945-09-08 00:00:00	/raid60/scratch/leo/scratch/era5/odbs/1761/era5.1761.conv.2:12803
0-20000-0-74420	[72572]	ROOSEVELT, UT	40.77	-110.029999	1928-05-01 00:00:00	1959-01-30 00:00:00	/raid60/scratch/leo/scratch/era5/odbs/1761/era5.1761.conv.1:72572
0-20000-0-72451	[72451]	DODGE CITY/MUN., KS.	37.77	-99.970001	1947-12-01 00:00:00	1962-12-31 00:00:00	/raid60/scratch/leo/scratch/era5/odbs/1761/era5.1761.conv.1:72451
0-20000-0-74787	[12847]	DAYTONA BEACH, FL, DAYTONA BEACH INT. ARPT	29.08	-81.419998	1943-04-15 00:00:00	1945-05-30 00:00:00	/raid60/scratch/leo/scratch/era5/odbs/1761/era5.1761.conv.2:12847
0-20000-0-94998	[94998]	MACQUARIE ISLAND	-54.5	158.949997	1956-09-03 00:00:00	1979-12-31 00:00:00	/raid60/scratch/leo/scratch/era5/odbs/1761/era5.1761.conv.1:94998
0-20000-0-11103	[11103]	DAKAR/YOFF	14.75	-17.5	1944-05-31 00:00:00	1946-09-30 00:00:00	/raid60/scratch/leo/scratch/era5/odbs/1761/era5.1761.conv.2:11103
0-20000-0-10509	[10509]	ZANDERIJ	5.47	-55.200001	1943-06-22 00:00:00	1944-08-01 00:00:00	/raid60/scratch/leo/scratch/era5/odbs/1761/era5.1761.conv.2:10509
0-20000-0-74745	[12910]	AUSTIN-BERGSTROM INTL AIRPORT, TX.	29.879999	-97.870003	1944-07-25 00:00:00	1945-08-14 00:00:00	/raid60/scratch/leo/scratch/era5/odbs/1761/era5.1761.conv.2:12910
0-20000-0-74794	[74794]	CAPE KENNEDY, FL.	28.48	-80.550003	1950-05-23 00:00:00	1964-12-31 00:00:00	/raid60/scratch/leo/scratch/era5/odbs/1761/era5.1761.conv.1:74794
0-20000-0-74796	[12805]	AVON PARK GUNNERY RANGE, FL.	27.469999	-81.360001	1942-04-08 00:00:00	1945-12-31 00:00:00	/raid60/scratch/leo/scratch/era5/odbs/1761/era5.1761.conv.2:12805
0-20000-0-8536	[8536]	LISBOA/PORTELA	38.77	-9.15	1948-01-11 00:00:00	1979-12-31 00:00:00	/raid60/scratch/leo/scratch/era5/odbs/1761/era5.1761.conv.1:8536
0-20000-0-12848	[12848]	MIAMI, FL (72202-0)	25.73	-80.230003	1944-05-05 00:00:00	1945-02-28 00:00:00	/raid60/scratch/leo/scratch/era5/odbs/1761/era5.1761.conv.2:12848
0-20000-0-72265	[72265]	MIDLAND/MIDLAND REG. AIR TERM., TX.	31.950001	-101.82	1930-06-16 00:00:00	1964-12-31 00:00:00	/raid60/scratch/leo/scratch/era5/odbs/1761/era5.1761.conv.1:72265
0-20000-0-11501	[11501]	GRANTLEY ADAMS	13.07	-59.5	1943-10-01 00:00:00	1945-12-31 00:00:00	/raid60/scratch/leo/scratch/era5/odbs/1761/era5.1761.conv.2:11501
0-20000-0-96745	[96745]	JAKARTA/OBSERVATORY	-6.18	106.830002	1956-01-05 00:00:00	1964-03-28 00:00:00	/raid60/scratch/leo/scratch/era5/odbs/1761/era5.1761.conv.1:96745
0-20000-0-43311	[43311]	AMINIDIVI	11.12	72.730003	1946-11-21 00:00:00	1967-07-31 00:00:00	/raid60/scratch/leo/scratch/era5/odbs/1761/era5.1761.conv.1:43311
[]	[12911]	SAN ANTONIO RANDOLPH AFB	29.52	-97.730003	1941-05-26 00:00:00	1950-12-22 00:00:00	/raid60/scratch/leo/scratch/era5/odbs/1761/era5.1761.conv.2:12911
0-20000-0-12849	[12849]	FORT LAUDERDALE, FL, FORT LAUDERDALE-HOLYWOOD INT. ARPT	26.07	-80.150002	1943-01-08 00:00:00	1946-05-31 00:00:00	/raid60/scratch/leo/scratch/era5/odbs/1761/era5.1761.conv.2:12849
0-20000-0-11813	[11813]	OWEN ROBERTS AIRPORT GRAND CAYMAN	19.299999	-81.370003	1956-08-14 00:00:00	1958-12-31 00:00:00	/raid60/scratch/leo/scratch/era5/odbs/1761/era5.1761.conv.2:11813
0-20000-0-13017	[13017]	KENITRA	34.299999	-6.6	1948-08-25 00:00:00	1971-02-02 00:00:00	/raid60/scratch/leo/scratch/era5/odbs/1761/era5.1761.conv.2:13017
0-20000-0-12806	[12806]	TAMPA/INT., FL.	27.98	-82.519997	1942-06-08 00:00:00	1945-08-20 00:00:00	/raid60/scratch/leo/scratch/era5/odbs/1761/era5.1761.conv.2:12806
0-20000-0-85442	[85442]	ANTOFAGASTA	-23.48	-70.43	1943-05-02 00:00:00	1953-04-03 00:00:00	/raid60/scratch/leo/scratch/era5/odbs/1761/era5.1761.conv.1:85442
0-20000-0-47600	[47600]	WAJIMA	37.380001	136.899994	1941-10-09 00:00:00	1953-12-31 00:00:00	/raid60/scratch/leo/scratch/era5/odbs/1761/era5.1761.conv.1:47600
0-20000-0-96933	[96933]	SURABAYA/PERAK I	-7.22	112.709999	1957-10-01 00:00:00	1979-12-31 00:00:00	/raid60/scratch/leo/scratch/era5/odbs/1761/era5.1761.conv.1:96933
0-20000-0-12914	[12914]	VICTORIA/VICTORIA REGIONAL, TX.	28.77	-96.879997	1944-08-03 00:00:00	1945-06-20 00:00:00	/raid60/scratch/leo/scratch/era5/odbs/1761/era5.1761.conv.2:12914
0-20000-0-11631	[11631]	SAN JUAN/INT.,  PUERTO RICO	18.450001	-66.099998	1948-01-01 00:00:00	1952-05-31 00:00:00	/raid60/scratch/leo/scratch/era5/odbs/1761/era5.1761.conv.2:11631
0-20000-0-11601	[11601]	HEWANORRA INT'L AIRPORT	13.73	-60.950001	1942-03-20 00:00:00	1949-04-02 00:00:00	/raid60/scratch/leo/scratch/era5/odbs/1761/era5.1761.conv.2:11601
[]	[12807]	BURRWOOD	28.950001	-89.370003	1942-08-03 00:00:00	1944-02-01 00:00:00	/raid60/scratch/leo/scratch/era5/odbs/1761/era5.1761.conv.2:12807
0-20000-0-24244	[24244]	SEATTLE/S.-TACOMA, WA.	47.68	-122.260002	1934-12-31 00:00:00	1935-12-31 00:00:00	/raid60/scratch/leo/scratch/era5/odbs/1761/era5.1761.conv.1935
0-20000-0-8545	[8545]	PORTO/PEDRAS RUBRAS	41.23	-8.68	1948-03-24 00:00:00	1961-08-30 00:00:00	/raid60/scratch/leo/scratch/era5/odbs/1761/era5.1761.conv.1:8545
[]	[72206]		30.5	-80.300003	1930-11-01 00:00:00	1962-12-31 00:00:00	/raid60/scratch/leo/scratch/era5/odbs/1761/era5.1761.conv.1:72206
0-20000-0-72250	[12915]	BROWNSVILLE/INT., TX	25.879999	-97.550003	1929-01-28 00:00:00	1929-11-06 00:00:00	/raid60/scratch/leo/scratch/era5/odbs/1761/era5.1761.conv.2:12915
0-20000-0-72266	[72266]	ABILENE/MUN., TX.	32.450001	-99.68	1935-07-02 00:00:00	1964-05-23 00:00:00	/raid60/scratch/leo/scratch/era5/odbs/1761/era5.1761.conv.1:72266
0-20000-0-96996	[96996]	COCOS ISLAND AERO	-12.18	96.830002	1954-11-19 00:00:00	1979-12-30 00:00:00	/raid60/scratch/leo/scratch/era5/odbs/1761/era5.1761.conv.1:96996
0-20000-0-13019	[13019]	NOUASSEUR	33.369999	-7.58	1951-10-01 00:00:00	1958-06-15 00:00:00	/raid60/scratch/leo/scratch/era5/odbs/1761/era5.1761.conv.2:13019
[]	[11633]	PONCE LOSEY FIELD	18.02	-66.57	1949-01-01 00:00:00	1950-02-28 00:00:00	/raid60/scratch/leo/scratch/era5/odbs/1761/era5.1761.conv.2:11633
0-20000-0-11814	[11814]	SAN ANDRES (ISLA)/SESQUICENTENARIO	12.58	-81.699997	1956-11-24 00:00:00	1958-12-31 00:00:00	/raid60/scratch/leo/scratch/era5/odbs/1761/era5.1761.conv.2:11814
0-20000-0-12808	[12808]	TAMPA BAY AREA, FL.	28.0	-82.019997	1943-06-17 00:00:00	1945-03-31 00:00:00	/raid60/scratch/leo/scratch/era5/odbs/1761/era5.1761.conv.2:12808
0-20000-0-47604	[47604]	NIIGATA	37.919998	139.050003	1932-01-01 00:00:00	1953-12-27 00:00:00	/raid60/scratch/leo/scratch/era5/odbs/1761/era5.1761.conv.1:47604
0-20000-0-11602	[11602]	CHRISTIANSTED/ALEX. HAMILTON FIELD,  ST. CROIX	17.700001	-64.800003	1941-09-03 00:00:00	1948-12-31 00:00:00	/raid60/scratch/leo/scratch/era5/odbs/1761/era5.1761.conv.2:11602
0-20000-0-8554	[8554]	FARO/AEROPORTO	37.02	-7.92	1952-04-17 00:00:00	1961-08-30 00:00:00	/raid60/scratch/leo/scratch/era5/odbs/1761/era5.1761.conv.1:8554
0-20000-0-13750	[13750]	NORFOLK/INT., VA.	36.93	-76.300003	1919-02-01 00:00:00	1955-11-15 00:00:00	/raid60/scratch/leo/scratch/era5/odbs/1761/era5.1761.conv.2:13750
0-20000-0-72268	[72268]	ROSWELL/INDUSTRIAL AIR CENTER, NM	33.299999	-104.519997	1944-05-09 00:00:00	1954-09-30 00:00:00	/raid60/scratch/leo/scratch/era5/odbs/1761/era5.1761.conv.1:72268
0-20000-0-72576	[72576]	LANDER/HUNT, WY.	42.82	-108.730003	1947-12-01 00:00:00	1958-12-31 00:00:00	/raid60/scratch/leo/scratch/era5/odbs/1761/era5.1761.conv.1:72576
0-20000-0-12809	[12809]	AVON PARK GUNNERY RANGE, FL.	27.950001	-81.779999	1944-04-15 00:00:00	1945-03-01 00:00:00	/raid60/scratch/leo/scratch/era5/odbs/1761/era5.1761.conv.2:12809
0-20000-0-47605	[47605]	KANAZAWA	36.549999	136.649994	1939-03-10 00:00:00	1941-06-14 00:00:00	/raid60/scratch/leo/scratch/era5/odbs/1761/era5.1761.conv.1:47605
0-20000-0-11902	[11902]	SAN JOSE (78647-0)	13.92	-90.830002	1943-07-01 00:00:00	1946-08-11 00:00:00	/raid60/scratch/leo/scratch/era5/odbs/1761/era5.1761.conv.2:11902
0-20000-0-72353	[72353]	OKLAHOMA CITY/W. ROGERS WORLD, OK.	35.380001	-96.400002	1932-04-01 00:00:00	1964-10-31 00:00:00	/raid60/scratch/leo/scratch/era5/odbs/1761/era5.1761.conv.1:72353
0-20000-0-43333	[43333]	PORT BLAIR	11.67	92.720001	1954-01-01 00:00:00	1967-07-30 00:00:00	/raid60/scratch/leo/scratch/era5/odbs/1761/era5.1761.conv.1:43333
0-20000-0-91285	[91285]	HILO HI, HAWAII	19.73	-155.070007	1949-11-09 00:00:00	1963-07-31 00:00:00	/raid60/scratch/leo/scratch/era5/odbs/1761/era5.1761.conv.1:91285
0-20000-0-74795	[74795]	COCOA/PATRICK AFB,  FL.	28.48	-80.550003	1950-02-04 00:00:00	1956-11-17 00:00:00	/raid60/scratch/leo/scratch/era5/odbs/1761/era5.1761.conv.1:74795
0-20000-0-13751	[13751]	WASHINGTON/NAT., VA.	38.849998	-77.019997	1924-07-11 00:00:00	1954-09-07 00:00:00	/raid60/scratch/leo/scratch/era5/odbs/1761/era5.1761.conv.2:13751
[]	[12811]	FORT MYERS (PAIGE FIELD)	26.58	-81.870003	1943-08-14 00:00:00	1944-10-08 00:00:00	/raid60/scratch/leo/scratch/era5/odbs/1761/era5.1761.conv.2:12811
