level_0	index	WIGOS	station_name	latitude	longitude	elevation	ObsRems	original_lat	original_lon	station_id	start_date	end_date	isRadio	distance_km	distance_km_minusLat	inventory	WIGOS_calc	city	city_dist_km	city_lat	city_lon	station_id_igra	WMO_id	Unnamed: 0	date_min	date_max	lat_file	lon_file	file	file_dataset	file_min_date	file_max_date	file_statid	WIGOS_best	variables
0	0	0-20000-0-95527	MOREE AERO	-29.489722222222223	149.84722222222223	218.5	Climatological station, Precipitation station, Upper-air / Radiosonde station, Surface land meteorological station (SYNOP), Weather radar, RBCN, GOS, RBSN(ST), WRO, CLIMAT(C)	29 29 23S	149 50 50E	95527	999.0	999.0	True	2.2		OSCAR	0-20000-0-95527	tamworth	208.4	-31.090481	150.929047						[-29.46, -29.47]	[149.85, 149.85]	era5.1759.conv.1:94527	era5_1759	19640401	19791230	1:94527	0-20000-0-95527	[38, 85, 106, 107, 117]
0	0		MOREE AERO	-29.4897	149.8472	213.7				95527	1964.0	2021.0	True	2.2		IGRA2	0-20300-0-95527	tamworth	208.4	-31.090481	150.929047	ASM00095527					[-29.46, -29.47]	[149.85, 149.85]	era5.1759.conv.1:94527	era5_1759	19640401	19791230	1:94527	0-20000-0-95527	[38, 85, 106, 107, 117]
0	0															WBAN	0-20500-0-nan	tamworth	208.4	-31.090481	150.929047						[-29.46, -29.47]	[149.85, 149.85]	era5.1759.conv.1:94527	era5_1759	19640401	19791230	1:94527	0-20000-0-95527	[38, 85, 106, 107, 117]
0	0															CHUAN	0-20400-0-nan	tamworth	208.4	-31.090481	150.929047						[-29.46, -29.47]	[149.85, 149.85]	era5.1759.conv.1:94527	era5_1759	19640401	19791230	1:94527	0-20000-0-95527	[38, 85, 106, 107, 117]
0	0		Moree - Bureau of Meteorology Office, Jones Avenue, Moree, New South Wales, Australia	-29.47	149.85	-999.0				94527				0.0		SCHROEDER	0-20600-0-94527	tamworth	208.4	-31.090481	150.929047		94527	3891.0	1964-04-01 00:00:00	1991-04-18 00:00:00	[-29.46, -29.47]	[149.85, 149.85]	era5.1759.conv.1:94527	era5_1759	19640401	19791230	1:94527	0-20000-0-95527	[38, 85, 106, 107, 117]
1	1		Moree AP Meteorological Office, Blueberry Road, Moree, New South Wales, Australia	-29.4902	149.8462	-999.0				95527				2.3		SCHROEDER	0-20600-0-95527	tamworth	208.4	-31.090481	150.929047		95527	3940.0	1995-05-01 00:00:00	2007-02-26 00:00:00	[-29.46, -29.47]	[149.85, 149.85]	era5.1759.conv.1:94527	era5_1759	19640401	19791230	1:94527	0-20000-0-95527	[38, 85, 106, 107, 117]
0	0		MOREE                    	-29.466666666666665	149.85	-999.0				94527				0.4		WMO	0-20700-0-94527	tamworth	208.4	-31.090481	150.929047		94527	1633.0			[-29.46, -29.47]	[149.85, 149.85]	era5.1759.conv.1:94527	era5_1759	19640401	19791230	1:94527	0-20000-0-95527	[38, 85, 106, 107, 117]
1	2		MOREE AERO               	-29.48333333333333	149.85	218.0				95527				1.5		WMO	0-20700-0-95527	tamworth	208.4	-31.090481	150.929047		95527	3191.0			[-29.46, -29.47]	[149.85, 149.85]	era5.1759.conv.1:94527	era5_1759	19640401	19791230	1:94527	0-20000-0-95527	[38, 85, 106, 107, 117]
