level_0	index	WIGOS	station_name	latitude	longitude	elevation	ObsRems	original_lat	original_lon	station_id	start_date	end_date	isRadio	distance_km	distance_km_minusLat	inventory	WIGOS_calc	city	city_dist_km	city_lat	city_lon	station_id_igra	WMO_id	Unnamed: 0	date_min	date_max	lat_file	lon_file	file	file_dataset	file_min_date	file_max_date	file_statid	WIGOS_best	variables
0	0	0-20000-0-03809	CULDROSE	50.08444444444444	-5.2572222222222225	76.0	Surface land meteorological station (SYNOP), GOS	50 05 04N	005 15 26W	03809	999.0	999.0	False	19.8		OSCAR	0-20000-0-03809	penzance	13.1	50.113611	-5.547778						[50.0, 50.0]	[-5.5, -5.5]	era5.1759.conv.1:3807	era5_1759	19480101	19481130	1:3807	0-20000-0-03808	[38, 85, 117]
1	1	0-20000-0-03808	CAMBORNE	50.218333333333334	-5.3275	87.0	Automatic weather station (AWS), Climatological station, Cryosphere station, Precipitation station, Upper-air / Radiosonde station, Surface land meteorological station (SYNOP), GUAN, CLIMAT(C), RBCN, RBSN(ST), GSN, GOS, GCW	50 13 06N	005 19 39W	03808	999.0	999.0	True	27.2		OSCAR	0-20000-0-03808	penzance	13.1	50.113611	-5.547778						[50.0, 50.0]	[-5.5, -5.5]	era5.1759.conv.1:3807	era5_1759	19480101	19481130	1:3807	0-20000-0-03808	[38, 85, 117]
0	0		CAMBORNE	50.2183	-5.3275	87.0				03808	1949.0	2021.0	True	27.2		IGRA2	0-20300-0-03808	penzance	13.1	50.113611	-5.547778	UKM00003808					[50.0, 50.0]	[-5.5, -5.5]	era5.1759.conv.1:3807	era5_1759	19480101	19481130	1:3807	0-20000-0-03808	[38, 85, 117]
0	0		PENZANCE	50.08	-5.53	21.031200000000002				15006	19430901.0	19440831.0		9.2		WBAN	0-20500-0-15006	penzance	13.1	50.113611	-5.547778						[50.0, 50.0]	[-5.5, -5.5]	era5.1759.conv.1:3807	era5_1759	19480101	19481130	1:3807	0-20000-0-03808	[38, 85, 117]
0	0															CHUAN	0-20400-0-nan	penzance	13.1	50.113611	-5.547778						[50.0, 50.0]	[-5.5, -5.5]	era5.1759.conv.1:3807	era5_1759	19480101	19481130	1:3807	0-20000-0-03808	[38, 85, 117]
0	0		(made up station ID) Penzance, England, UK	50.07	-5.33	-999.0				3811				14.5		SCHROEDER	0-20600-0-3811	penzance	13.1	50.113611	-5.547778		3811	152.0	1940-10-27 00:00:00	1946-01-01 00:00:00	[50.0, 50.0]	[-5.5, -5.5]	era5.1759.conv.1:3807	era5_1759	19480101	19481130	1:3807	0-20000-0-03808	[38, 85, 117]
1	1		Camborne wind profiler, England, UK	50.2186	-5.3268	-999.0				3807				27.3		SCHROEDER	0-20600-0-3807	penzance	13.1	50.113611	-5.547778		3807	150.0	1998-01-01 00:00:00	1998-01-01 00:00:00	[50.0, 50.0]	[-5.5, -5.5]	era5.1759.conv.1:3807	era5_1759	19480101	19481130	1:3807	0-20000-0-03808	[38, 85, 117]
2	2		Camborne, Cornwall, England, UK	50.2185	-5.3261	-999.0				3808				27.3		SCHROEDER	0-20600-0-3808	penzance	13.1	50.113611	-5.547778		3808	151.0	1948-09-01 00:00:00	2005-04-12 00:00:00	[50.0, 50.0]	[-5.5, -5.5]	era5.1759.conv.1:3807	era5_1759	19480101	19481130	1:3807	0-20000-0-03808	[38, 85, 117]
0	0		CAMBORNE                 	50.21666666666667	-5.333333333333333	-999.0				03808				26.9		WMO	0-20700-0-03808	penzance	13.1	50.113611	-5.547778		03808	2674.0			[50.0, 50.0]	[-5.5, -5.5]	era5.1759.conv.1:3807	era5_1759	19480101	19481130	1:3807	0-20000-0-03808	[38, 85, 117]
