file_statid	station_id	station_name	latitude	longitude	elevation	original_lat	original_lon	distance_km	lat_file	lon_file	inventory	WIGOS	WMO_id	WIGOS_calc	file_min_date	file_max_date	start_date	end_date	isRadio	WIGOS_best	city	variables
1:71805	71805	SAINT-PIERRE	46.76638888888889	-56.17916666666667	7.0	46 45 59N	056 10 45W	0.8	[46.77, 46.77]	[-56.17, -56.17]	OSCAR	0-20000-0-71805		0-20000-0-71805	19620306	19720811	999	999	False	0-20000-0-71805	bay roberts	[38, 85, 106, 107, 117]
1:71805	71805	SAINT-PIERRE	46.767	-56.167	24.0			0.4	[46.77, 46.77]	[-56.17, -56.17]	IGRA2			0-20300-0-71805	19620306	19720811	1973	1983	True	0-20000-0-71805	bay roberts	[38, 85, 106, 107, 117]
1:71805	14502	MIQUELON ISLAND	46.77	-56.17	2.1336			0.0	[46.77, 46.77]	[-56.17, -56.17]	WBAN			0-20500-0-14502	19620306	19720811	19390501	19400831		0-20000-0-71805	bay roberts	[38, 85, 106, 107, 117]
1:71805	14518	ST PIERRE ISLAND	46.78	-56.18	7.010400000000001			1.3	[46.77, 46.77]	[-56.17, -56.17]	WBAN			0-20500-0-14518	19620306	19720811	10101	99991231		0-20000-0-71805	bay roberts	[38, 85, 106, 107, 117]
1:71805	4415	Saint-Pierre (Miquelon)	46.766	-56.179	21			0.8	[46.77, 46.77]	[-56.17, -56.17]	CHUAN		71805	0-20400-0-4415	19620306	19720811	191503	-999-999		0-20000-0-71805	bay roberts	[38, 85, 106, 107, 117]
1:71805	4414	Saint-Pierre (Miquelon)	46.766	-56.179	21			0.8	[46.77, 46.77]	[-56.17, -56.17]	CHUAN		71805	0-20400-0-4414	19620306	19720811	191503	-999-999		0-20000-0-71805	bay roberts	[38, 85, 106, 107, 117]
1:71805	71805	St. Pierre, St. Pierre and Miquelon (France)	46.77	-56.17	-999			0.0	[46.77, 46.77]	[-56.17, -56.17]	SCHROEDER		71805	0-20600-0-71805	19620306	19720811				0-20000-0-71805	bay roberts	[38, 85, 106, 107, 117]
1:71805	72805	St. Pierre, St. Pierre and Miquelon (France)	46.77	-56.17	-999			0.0	[46.77, 46.77]	[-56.17, -56.17]	SCHROEDER		72805	0-20600-0-72805	19620306	19720811				0-20000-0-71805	bay roberts	[38, 85, 106, 107, 117]
1:71805	71805	SAINT-PIERRE             	46.766666666666666	-56.15	5.0			1.6	[46.77, 46.77]	[-56.17, -56.17]	WMO		71805	0-20700-0-71805	19620306	19720811				0-20000-0-71805	bay roberts	[38, 85, 106, 107, 117]
