file_statid	station_id	station_name	latitude	longitude	elevation	original_lat	original_lon	distance_km	lat_file	lon_file	inventory	WIGOS	WMO_id	WIGOS_calc	file_min_date	file_max_date	start_date	end_date	isRadio	WIGOS_best	city	variables
2:61502	91929	BORA-BORA-MOTU-AERO	-16.44527777777778	-151.75194444444443	3.0	16 26 43S	151 45 07W	2.0	[-16.45, -16.45]	[-151.77, -151.77]	OSCAR	0-20000-0-91929		0-20000-0-91929	19430726	19440901	999.0	999.0	False	0-20000-0-91929	faaa	[106, 107]
2:61502	91929	BORA-BORA	-16.45	-151.75	3.0			2.1	[-16.45, -16.45]	[-151.77, -151.77]	IGRA2			0-20300-0-91929	19430726	19440901	1974.0	1999.0	True	0-20000-0-91929	faaa	[106, 107]
2:61502	61502	BORA BORA AAF	-16.45	-151.77	3.048			0.0	[-16.45, -16.45]	[-151.77, -151.77]	WBAN			0-20500-0-61502	19430726	19440901	19430701.0	19440831.0		0-20000-0-91929	faaa	[106, 107]
2:61502	61503	BORA BORA NF	-16.47	-151.75	6.096			3.1	[-16.45, -16.45]	[-151.77, -151.77]	WBAN			0-20500-0-61503	19430726	19440901	19420401.0	19451130.0		0-20000-0-91929	faaa	[106, 107]
2:61502									[-16.45, -16.45]	[-151.77, -151.77]	CHUAN			0-20400-0-nan	19430726	19440901				0-20000-0-91929	faaa	[106, 107]
2:61502	91929	Bora-Bora, Society Islands, French Polynesia	-16.45	-151.75	-999.0			2.1	[-16.45, -16.45]	[-151.77, -151.77]	SCHROEDER		91929	0-20600-0-91929	19430726	19440901				0-20000-0-91929	faaa	[106, 107]
2:61502	91930	NTTB Bora-Bora AP, Society Islands, French Polynesia	-16.45	-151.75	-999.0			2.1	[-16.45, -16.45]	[-151.77, -151.77]	SCHROEDER		91930	0-20600-0-91930	19430726	19440901				0-20000-0-91929	faaa	[106, 107]
2:61502	91929	BORA-BORA-MOTU-AERO      	-16.433333333333334	-151.75	-999.0			2.8	[-16.45, -16.45]	[-151.77, -151.77]	WMO		91929	0-20700-0-91929	19430726	19440901				0-20000-0-91929	faaa	[106, 107]
2:61502	91930	BORA BORA                	-16.483333333333334	-151.75	-999.0			4.3	[-16.45, -16.45]	[-151.77, -151.77]	WMO		91930	0-20700-0-91930	19430726	19440901				0-20000-0-91929	faaa	[106, 107]
