file_statid	station_id	station_name	latitude	longitude	elevation	original_lat	original_lon	distance_km	lat_file	lon_file	inventory	WIGOS	WMO_id	WIGOS_calc	file_min_date	file_max_date	start_date	end_date	isRadio	WIGOS_best	city	variables
2:34114	16253	GRAZZANISE	41.06055555555555	14.078888888888889	10.0	41 03 38N	014 04 44E	16.3	[41.2, 41.2]	[14.02, 14.02]	OSCAR	0-20000-0-16253		0-20000-0-16253	19440328	19440512	999	999	False	0-20000-0-16253	teano	[106, 107]
2:34114	16288	CASERTA	41.07083333333334	14.323611111111111	63.0	41 04 15N	014 19 25E	29.3	[41.2, 41.2]	[14.02, 14.02]	OSCAR	0-20000-0-16288		0-20000-0-16288	19440328	19440512	999	999	False	0-20000-0-16253	teano	[106, 107]
2:34114									[41.2, 41.2]	[14.02, 14.02]	IGRA2			0-20300-0-nan	19440328	19440512				0-20000-0-16253	teano	[106, 107]
2:34114	34114	SAN MARCO MU 2	41.2	14.02	135.0264			0.0	[41.2, 41.2]	[14.02, 14.02]	WBAN			0-20500-0-34114	19440328	19440512	19440401	19440531		0-20000-0-16253	teano	[106, 107]
2:34114	34118	PRESENZANO	41.37	14.07	198.12			19.3	[41.2, 41.2]	[14.02, 14.02]	WBAN			0-20500-0-34118	19440328	19440512	19440101	19440331		0-20000-0-16253	teano	[106, 107]
2:34114	5088	Capua	41.08	14.25	18			23.5	[41.2, 41.2]	[14.02, 14.02]	CHUAN		-999	0-20400-0-5088	19440328	19440512	-999-999	-999-999		0-20000-0-16253	teano	[106, 107]
2:34114									[41.2, 41.2]	[14.02, 14.02]	SCHROEDER			0-20600-0-nan	19440328	19440512				0-20000-0-16253	teano	[106, 107]
2:34114	16253	GRAZZANISE               	41.05	14.066666666666666	10.0			17.1	[41.2, 41.2]	[14.02, 14.02]	WMO		16253	0-20700-0-16253	19440328	19440512				0-20000-0-16253	teano	[106, 107]
