level_0	index	WIGOS	station_name	latitude	longitude	elevation	ObsRems	original_lat	original_lon	station_id	start_date	end_date	isRadio	distance_km	distance_km_minusLat	inventory	WIGOS_calc	city	city_dist_km	city_lat	city_lon	station_id_igra	WMO_id	Unnamed: 0	date_min	date_max	lat_file	lon_file	file	file_dataset	file_min_date	file_max_date	file_statid	WIGOS_best	variables
0	0	0-20000-0-43320	M.O. KARIPUR AIRPORT	11.133333333333333	75.95	107.0	Surface land meteorological station (SYNOP), GOS	11 08 00N	075 57 00E	43320	999	999	False	6922.2		OSCAR	0-20000-0-43320	yokosuka	4.3	35.283611	139.667222						[35.32, 35.32]	[139.65, 139.65]	era5.1759.conv.2:43320	era5_1759	19550301	19551025	2:43320	0-20000-0-47696	[38, 85, 117]
1	1	0-20000-0-47696	YOKOSUKA	35.28333333333333	139.66666666666666	53.0	Surface land meteorological station (SYNOP), GOS	35 17 00N	139 40 00E	47696	999	999	False	4.3		OSCAR	0-20000-0-47696	yokosuka	4.3	35.283611	139.667222						[35.32, 35.32]	[139.65, 139.65]	era5.1759.conv.2:43320	era5_1759	19550301	19551025	2:43320	0-20000-0-47696	[38, 85, 117]
2	2	0-20000-0-47670	YOKOHAMA	35.439722222222215	139.6525	42.74	Automatic weather station (AWS), Surface land meteorological station (SYNOP), GOS	35 26 23N	139 39 09E	47670	999	999	False	13.3		OSCAR	0-20000-0-47670	yokosuka	4.3	35.283611	139.667222						[35.32, 35.32]	[139.65, 139.65]	era5.1759.conv.2:43320	era5_1759	19550301	19551025	2:43320	0-20000-0-47696	[38, 85, 117]
3	3	0-20000-0-47679	ATSUGI NAS	35.45472222222222	139.45	65.48	Surface land meteorological station (SYNOP), GOS	35 27 17N	139 27 00E	47679	999	999	False	23.5		OSCAR	0-20000-0-47679	yokosuka	4.3	35.283611	139.667222						[35.32, 35.32]	[139.65, 139.65]	era5.1759.conv.2:43320	era5_1759	19550301	19551025	2:43320	0-20000-0-47696	[38, 85, 117]
4	4	0-20000-0-47661	KISARAZU AB	35.39833333333333	139.90972222222223	6.05	Surface land meteorological station (SYNOP), GOS	35 23 54N	139 54 35E	47661	999	999	False	25.2		OSCAR	0-20000-0-47661	yokosuka	4.3	35.283611	139.667222						[35.32, 35.32]	[139.65, 139.65]	era5.1759.conv.2:43320	era5_1759	19550301	19551025	2:43320	0-20000-0-47696	[38, 85, 117]
5	5	0-20000-0-47671	TOKYO INTERNATIONAL AIRPORT	35.55333333333333	139.78111111111113	9.41	Precipitation station, Surface land meteorological station (SYNOP), Weather radar, WRO, GOS	35 33 12N	139 46 52E	47671	999	999	False	28.5		OSCAR	0-20000-0-47671	yokosuka	4.3	35.283611	139.667222						[35.32, 35.32]	[139.65, 139.65]	era5.1759.conv.2:43320	era5_1759	19550301	19551025	2:43320	0-20000-0-47696	[38, 85, 117]
0	0		YOKOSUKA	35.28	139.67	49.0				47696	1955	1957	True	4.8		IGRA2	0-20300-0-47696	yokosuka	4.3	35.283611	139.667222	JAM00047696					[35.32, 35.32]	[139.65, 139.65]	era5.1759.conv.2:43320	era5_1759	19550301	19551025	2:43320	0-20000-0-47696	[38, 85, 117]
0	0		OPPAMA	35.32	139.65	8.2296				43320	19510701	19600630		0.0		WBAN	0-20500-0-43320	yokosuka	4.3	35.283611	139.667222						[35.32, 35.32]	[139.65, 139.65]	era5.1759.conv.2:43320	era5_1759	19550301	19551025	2:43320	0-20000-0-47696	[38, 85, 117]
1	1		YOKOSUKA	35.28	139.67	53.0352				43323	19950101	99991231		4.8		WBAN	0-20500-0-43323	yokosuka	4.3	35.283611	139.667222						[35.32, 35.32]	[139.65, 139.65]	era5.1759.conv.2:43320	era5_1759	19550301	19551025	2:43320	0-20000-0-47696	[38, 85, 117]
2	2		YOKOSUKA	35.28	139.67	53.0352				43323	19530101	19950101		4.8		WBAN	0-20500-0-43323	yokosuka	4.3	35.283611	139.667222						[35.32, 35.32]	[139.65, 139.65]	era5.1759.conv.2:43320	era5_1759	19550301	19551025	2:43320	0-20000-0-47696	[38, 85, 117]
3	3		ATSUGI	35.43	139.45	59.1312				43304	19450901	19460831		21.9		WBAN	0-20500-0-43304	yokosuka	4.3	35.283611	139.667222						[35.32, 35.32]	[139.65, 139.65]	era5.1759.conv.2:43320	era5_1759	19550301	19551025	2:43320	0-20000-0-47696	[38, 85, 117]
4	4		ATSUGI	35.45	139.45	65.2272				43319	19510301	19710630		23.2		WBAN	0-20500-0-43319	yokosuka	4.3	35.283611	139.667222						[35.32, 35.32]	[139.65, 139.65]	era5.1759.conv.2:43320	era5_1759	19550301	19551025	2:43320	0-20000-0-47696	[38, 85, 117]
5	5		KISARAZU	35.38	139.92	6.096				43321	19520701	19590331		25.4		WBAN	0-20500-0-43321	yokosuka	4.3	35.283611	139.667222						[35.32, 35.32]	[139.65, 139.65]	era5.1759.conv.2:43320	era5_1759	19550301	19551025	2:43320	0-20000-0-47696	[38, 85, 117]
6	6		TOKYO	35.55	139.77	3.048				43311	19460901	19580228		27.7		WBAN	0-20500-0-43311	yokosuka	4.3	35.283611	139.667222						[35.32, 35.32]	[139.65, 139.65]	era5.1759.conv.2:43320	era5_1759	19550301	19551025	2:43320	0-20000-0-47696	[38, 85, 117]
0	0		Oihama	35.3	139.63	41				5260	-999-999	-999-999		2.9		CHUAN	0-20400-0-5260	yokosuka	4.3	35.283611	139.667222		-999				[35.32, 35.32]	[139.65, 139.65]	era5.1759.conv.2:43320	era5_1759	19550301	19551025	2:43320	0-20000-0-47696	[38, 85, 117]
0	0		Oppama, Japan (operated by US Navy) (WBAN=43320)	35.32	139.65	-999				47697				0.0		SCHROEDER	0-20600-0-47697	yokosuka	4.3	35.283611	139.667222		47697	1350.0	1955-03-01 00:00:00	1955-07-01 00:00:00	[35.32, 35.32]	[139.65, 139.65]	era5.1759.conv.2:43320	era5_1759	19550301	19551025	2:43320	0-20000-0-47696	[38, 85, 117]
1	1		Yokosuka FWF (Fleet Weather Facility), Japan (operated by US Navy) (WBAN=43323)	35.28	139.67	-999				47696				4.8		SCHROEDER	0-20600-0-47696	yokosuka	4.3	35.283611	139.667222		47696	1349.0	1956-02-15 00:00:00	1956-02-15 00:00:00	[35.32, 35.32]	[139.65, 139.65]	era5.1759.conv.2:43320	era5_1759	19550301	19551025	2:43320	0-20000-0-47696	[38, 85, 117]
2	2		Tokyo - Haneda AP, Japan	35.55	139.77	-999				47671				27.7		SCHROEDER	0-20600-0-47671	yokosuka	4.3	35.283611	139.667222		47671	1343.0	1932-07-01 00:00:00	1957-08-01 00:00:00	[35.32, 35.32]	[139.65, 139.65]	era5.1759.conv.2:43320	era5_1759	19550301	19551025	2:43320	0-20000-0-47696	[38, 85, 117]
0	0		YOKOHAMA                 	35.43333333333333	139.65	-999.0				47670				12.6		WMO	0-20700-0-47670	yokosuka	4.3	35.283611	139.667222		47670	5336.0			[35.32, 35.32]	[139.65, 139.65]	era5.1759.conv.2:43320	era5_1759	19550301	19551025	2:43320	0-20000-0-47696	[38, 85, 117]
