level_0	index	WIGOS	station_name	latitude	longitude	elevation	ObsRems	original_lat	original_lon	station_id	start_date	end_date	isRadio	distance_km	distance_km_minusLat	inventory	WIGOS_calc	city	city_dist_km	city_lat	city_lon	station_id_igra	WMO_id	Unnamed: 0	date_min	date_max	lat_file	lon_file	file	file_dataset	file_min_date	file_max_date	file_statid	WIGOS_best	variables
0	0	0-20000-0-62760	EL FASHER	13.616666666666667	25.333333333333332	730.0	Climatological station, Upper-air / Radiosonde station, Surface land meteorological station (SYNOP), GOS, GSN, RBSN(ST), RBCN, CLIMAT(C)	13 37 00N	025 20 00E	62760	999	999	True	1.5		OSCAR	0-20000-0-62760	umm kaddadah	148.3	13.6	26.7						[13.62, 13.62]	[25.33, 25.32]	era5.1759.conv.1:62760	era5_1759	19530415	19791231	1:62760	0-20000-0-62760	[38, 85, 106, 107, 117]
0	0		EL FASHER	13.617	25.333	733.0				62760	1939	2008	True	1.4		IGRA2	0-20300-0-62760	umm kaddadah	148.3	13.6	26.7	SUM00062760					[13.62, 13.62]	[25.33, 25.32]	era5.1759.conv.1:62760	era5_1759	19530415	19791231	1:62760	0-20000-0-62760	[38, 85, 106, 107, 117]
0	0		EL FASHER SUDAN	13.63	25.35	731.2152				31201	19430401	19450630		3.4		WBAN	0-20500-0-31201	umm kaddadah	148.3	13.6	26.7						[13.62, 13.62]	[25.33, 25.32]	era5.1759.conv.1:62760	era5_1759	19530415	19791231	1:62760	0-20000-0-62760	[38, 85, 106, 107, 117]
0	0		Al-Fashir	13.62	25.32	732				4949	-999-999	-999-999		0.0		CHUAN	0-20400-0-4949	umm kaddadah	148.3	13.6	26.7		-999				[13.62, 13.62]	[25.33, 25.32]	era5.1759.conv.1:62760	era5_1759	19530415	19791231	1:62760	0-20000-0-62760	[38, 85, 106, 107, 117]
0	0		El Fasher, Sudan	13.62	25.33	-999				62760				1.1		SCHROEDER	0-20600-0-62760	umm kaddadah	148.3	13.6	26.7		62760	1952.0	1976-01-20 00:00:00	2004-05-23 00:00:00	[13.62, 13.62]	[25.33, 25.32]	era5.1759.conv.1:62760	era5_1759	19530415	19791231	1:62760	0-20000-0-62760	[38, 85, 106, 107, 117]
0	0		EL FASHER                	13.633333333333333	25.33333333333333	733.0				62760				2.1		WMO	0-20700-0-62760	umm kaddadah	148.3	13.6	26.7		62760	369.0			[13.62, 13.62]	[25.33, 25.32]	era5.1759.conv.1:62760	era5_1759	19530415	19791231	1:62760	0-20000-0-62760	[38, 85, 106, 107, 117]
