level_0	index	WIGOS	station_name	latitude	longitude	elevation	ObsRems	original_lat	original_lon	station_id	start_date	end_date	isRadio	distance_km	distance_km_minusLat	inventory	WIGOS_calc	city	city_dist_km	city_lat	city_lon	station_id_igra	WMO_id	Unnamed: 0	date_min	date_max
0	0		CORDOBA AERO	-31.3167	-64.2167	484.0				87344	1959.0	2021.0	True	9.9		IGRA2	0-20300-0-87344	cordoba	1.5	-31.413496	-64.18105200000001	ARM00087344				
0	0	0-20000-0-87345	CORDOBA OBSERVATORIO	-31.420833333333334	-64.19833333333334	426.0	Surface land meteorological station (SYNOP), CLIMAT(C), GOS	31 25 15S	064 11 54W	87345	999.0	999.0	False	2.9		OSCAR	0-20000-0-87345	cordoba	1.5	-31.413496	-64.18105200000001					
1	2	0-20000-0-87347	ESCUELA DE AVIACION MILITAR AERO	-31.441944444444445	-64.28055555555555	502.0	Surface land meteorological station (SYNOP), GOS	31 26 31S	064 16 50W	87347	999.0	999.0	False	10.6		OSCAR	0-20000-0-87347	cordoba	1.5	-31.413496	-64.18105200000001					
2	3	0-20000-0-87344	CORDOBA AERO	-31.296666666666667	-64.21194444444444	493.0	Climatological station, Upper-air / Radiosonde station, Surface land meteorological station (SYNOP), GSN, CLIMAT(C), RBCN, GOS, RBSN(ST)	31 17 48S	064 12 43W	87344	999.0	999.0	True	11.9		OSCAR	0-20000-0-87344	cordoba	1.5	-31.413496	-64.18105200000001					
0	0		Cordoba AP, Argentina	-31.32	-64.21	-999.0				87344				9.3		SCHROEDER	0-20600-0-87344	cordoba	1.5	-31.413496	-64.18105200000001		87344	3631.0	1978-04-01 00:00:00	1987-07-01 00:00:00
0	0		CORDOBA OBSERVATORIO     	-31.4	-64.18333333333334	-999.0				87345				0.3		WMO	0-20700-0-87345	cordoba	1.5	-31.413496	-64.18105200000001		87345	1397.0		
1	2		CORDOBA AERO             	-31.316666666666663	-64.21666666666667	474.0				87344				9.9		WMO	0-20700-0-87344	cordoba	1.5	-31.413496	-64.18105200000001		87344	1398.0		
