file_statid	station_id	station_name	latitude	longitude	elevation	original_lat	original_lon	distance_km	lat_file	lon_file	inventory	WIGOS	WMO_id	WIGOS_calc	file_min_date	file_max_date	start_date	end_date	isRadio	WIGOS_best	city	variables
2:43002	43002	BOMBAY / JUHU	19.116666666666667	72.83333333333333		19 07 00N	072 50 00E	4055.9	[36.52, 36.52]	[109.45, 109.45]	OSCAR	0-20000-0-43002		0-20000-0-43002	19441123	19460323	999.0	999.0	False	0-20001-0-53845	yanan	[106, 107]
2:43002	53845	YAN AN (53845-1)	36.56666666666667	109.45		36 34 00N	109 27 00E	5.2	[36.52, 36.52]	[109.45, 109.45]	OSCAR	0-20001-0-53845		0-20001-0-53845	19441123	19460323	999.0	999.0	True	0-20001-0-53845	yanan	[106, 107]
2:43002	53845	YAN AN (53845-0)	36.583333333333336	109.45	1181.1	36 35 00N	109 27 00E	7.0	[36.52, 36.52]	[109.45, 109.45]	OSCAR	0-20000-0-53845		0-20000-0-53845	19441123	19460323	999.0	999.0	False	0-20001-0-53845	yanan	[106, 107]
2:43002	53845	YAN AN	36.5667	109.45	958.9			5.2	[36.52, 36.52]	[109.45, 109.45]	IGRA2			0-20300-0-53845	19441123	19460323	1956.0	2021.0	True	0-20001-0-53845	yanan	[106, 107]
2:43002	43002	YENAN	36.52	109.45	98.1456			0.0	[36.52, 36.52]	[109.45, 109.45]	WBAN			0-20500-0-43002	19441123	19460323	19441101.0	19460228.0		0-20001-0-53845	yanan	[106, 107]
2:43002									[36.52, 36.52]	[109.45, 109.45]	CHUAN			0-20400-0-nan	19441123	19460323				0-20001-0-53845	yanan	[106, 107]
2:43002	53845	Yan'an, China	36.62	109.48	-999.0			11.4	[36.52, 36.52]	[109.45, 109.45]	SCHROEDER		53845	0-20600-0-53845	19441123	19460323				0-20001-0-53845	yanan	[106, 107]
2:43002	53845	YAN AN                   	36.583333333333336	109.45	-999.0			7.0	[36.52, 36.52]	[109.45, 109.45]	WMO		53845	0-20700-0-53845	19441123	19460323				0-20001-0-53845	yanan	[106, 107]
