level_0	index	WIGOS	station_name	latitude	longitude	elevation	ObsRems	original_lat	original_lon	station_id	start_date	end_date	isRadio	distance_km	distance_km_minusLat	inventory	WIGOS_calc	city	city_dist_km	city_lat	city_lon	station_id_igra	WMO_id	Unnamed: 0	date_min	date_max	lat_file	lon_file	file	file_dataset	file_min_date	file_max_date	file_statid	WIGOS_best	variables
0	0	0-20000-0-06478	BIERSET	50.645833333333336	5.455555555555556	181.03	Surface land meteorological station (SYNOP), GOS	50 38 45N	005 27 20E	06478	999.0	999.0	False	21.6		OSCAR	0-20000-0-06478	landen	7.2	50.75	5.0833330000000005						[50.73, 50.73]	[5.18, 5.18]	era5.1759.conv.1:6470	era5_1759	19520214	19560530	1:6470	0-20000-0-06458	[38, 106, 107]
1	1	0-20000-0-06477	DIEPENBEEK	50.91555555555556	5.450277777777778	39.0	Surface land meteorological station (SYNOP), GOS	50 54 56N	005 27 01E	06477	999.0	999.0	False	28.1		OSCAR	0-20000-0-06477	landen	7.2	50.75	5.0833330000000005						[50.73, 50.73]	[5.18, 5.18]	era5.1759.conv.1:6470	era5_1759	19520214	19560530	1:6470	0-20000-0-06458	[38, 106, 107]
2	2	0-20000-0-06458	BEAUVECHAIN	50.745555555555555	4.763333333333334	123.0	Upper-air / Radiosonde station, Surface land meteorological station (SYNOP), RBSN(T), GOS	50 44 44N	004 45 48E	06458	999.0	999.0	True	29.5		OSCAR	0-20000-0-06458	landen	7.2	50.75	5.0833330000000005						[50.73, 50.73]	[5.18, 5.18]	era5.1759.conv.1:6470	era5_1759	19520214	19560530	1:6470	0-20000-0-06458	[38, 106, 107]
0	0		BEAUVECHAIN	50.7456	4.7633	112.8				06458	2005.0	2021.0	True	29.5		IGRA2	0-20300-0-06458	landen	7.2	50.75	5.0833330000000005	BEM00006458					[50.73, 50.73]	[5.18, 5.18]	era5.1759.conv.1:6470	era5_1759	19520214	19560530	1:6470	0-20000-0-06458	[38, 106, 107]
0	0															WBAN	0-20500-0-nan	landen	7.2	50.75	5.0833330000000005						[50.73, 50.73]	[5.18, 5.18]	era5.1759.conv.1:6470	era5_1759	19520214	19560530	1:6470	0-20000-0-06458	[38, 106, 107]
0	0															CHUAN	0-20400-0-nan	landen	7.2	50.75	5.0833330000000005						[50.73, 50.73]	[5.18, 5.18]	era5.1759.conv.1:6470	era5_1759	19520214	19560530	1:6470	0-20000-0-06458	[38, 106, 107]
0	0		Goetsenhoven, Belgium	50.78	4.95	-999.0				6463				17.2		SCHROEDER	0-20600-0-6463	landen	7.2	50.75	5.0833330000000005		6463.0	231.0	2009-10-15 00:00:00	2009-10-15 00:00:00	[50.73, 50.73]	[5.18, 5.18]	era5.1759.conv.1:6470	era5_1759	19520214	19560530	1:6470	0-20000-0-06458	[38, 106, 107]
1	1		EBBE Beauvechain - Meteorological Wing, Base Charles Roman, Beauvechain, Belgium	50.75	4.77	-999.0				6458				29.0		SCHROEDER	0-20600-0-6458	landen	7.2	50.75	5.0833330000000005		6458.0	230.0	2004-11-22 00:00:00	2007-01-01 00:00:00	[50.73, 50.73]	[5.18, 5.18]	era5.1759.conv.1:6470	era5_1759	19520214	19560530	1:6470	0-20000-0-06458	[38, 106, 107]
0	0															WMO	0-20700-0-nan	landen	7.2	50.75	5.0833330000000005						[50.73, 50.73]	[5.18, 5.18]	era5.1759.conv.1:6470	era5_1759	19520214	19560530	1:6470	0-20000-0-06458	[38, 106, 107]
