level_0	index	WIGOS	station_name	latitude	longitude	elevation	ObsRems	original_lat	original_lon	station_id	start_date	end_date	isRadio	distance_km	distance_km_minusLat	inventory	WIGOS_calc	city	city_dist_km	city_lat	city_lon	station_id_igra	WMO_id	Unnamed: 0	date_min	date_max	lat_file	lon_file	file	file_dataset	file_min_date	file_max_date	file_statid	WIGOS_best	variables
0	0	0-20000-0-26422	RIGA LU	56.95055555555556	24.116111111111113	7.25	Automatic weather station (AWS), Surface land meteorological station (SYNOP), GOS, RBSN(S)	56 57 02N	024 06 58E	26422	999	999	False	5.7		OSCAR	0-20000-0-26422	riga	4.8	56.95	24.1						[56.97, 56.97]	[24.03, 24.03]	era5.1759.conv.1:26423	era5_1759	19510418	19560131	1:26423	0-20000-0-26422	[38, 85, 106, 107, 117]
0	0		RIGA	56.917	23.967	3.0				26422	1942	2005	True	7.0		IGRA2	0-20300-0-26422	riga	4.8	56.95	24.1	LGM00026422					[56.97, 56.97]	[24.03, 24.03]	era5.1759.conv.1:26423	era5_1759	19510418	19560131	1:26423	0-20000-0-26422	[38, 85, 106, 107, 117]
0	0															WBAN	0-20500-0-nan	riga	4.8	56.95	24.1						[56.97, 56.97]	[24.03, 24.03]	era5.1759.conv.1:26423	era5_1759	19510418	19560131	1:26423	0-20000-0-26422	[38, 85, 106, 107, 117]
0	0		Riga	56.97	24.03	10				6143	-999-999	-999-999		0.0		CHUAN	0-20400-0-6143	riga	4.8	56.95	24.1		-999				[56.97, 56.97]	[24.03, 24.03]	era5.1759.conv.1:26423	era5_1759	19510418	19560131	1:26423	0-20000-0-26422	[38, 85, 106, 107, 117]
1	1		Riga	56.98	24.08	3				5298	-999-999	-999-999		3.2		CHUAN	0-20400-0-5298	riga	4.8	56.95	24.1		-999				[56.97, 56.97]	[24.03, 24.03]	era5.1759.conv.1:26423	era5_1759	19510418	19560131	1:26423	0-20000-0-26422	[38, 85, 106, 107, 117]
0	0		Riga - Spilve AP, Latvia	56.98	24.08	-999				26422				3.2		SCHROEDER	0-20600-0-26422	riga	4.8	56.95	24.1		26422	724.0	1942-01-01 00:00:00	2005-04-14 00:00:00	[56.97, 56.97]	[24.03, 24.03]	era5.1759.conv.1:26423	era5_1759	19510418	19560131	1:26423	0-20000-0-26422	[38, 85, 106, 107, 117]
0	0		RIGA                     	56.96666666666667	24.066666666666663	17.0				26422				2.3		WMO	0-20700-0-26422	riga	4.8	56.95	24.1		26422	1077.0			[56.97, 56.97]	[24.03, 24.03]	era5.1759.conv.1:26423	era5_1759	19510418	19560131	1:26423	0-20000-0-26422	[38, 85, 106, 107, 117]
