level_0	index	WIGOS	station_name	latitude	longitude	elevation	ObsRems	original_lat	original_lon	station_id	start_date	end_date	isRadio	distance_km	distance_km_minusLat	inventory	WIGOS_calc	city	city_dist_km	city_lat	city_lon	station_id_igra	WMO_id	Unnamed: 0	date_min	date_max	lat_file	lon_file	file	file_dataset	file_min_date	file_max_date	file_statid	WIGOS_best	variables
0	0	0-20000-0-42706	BANKURA	23.383333333333333	87.08333333333333	98.6	Surface land meteorological station (SYNOP), GOS, RBSN(S), RBSN(T)	23 23 00N	087 05 00E	42706	999.0	999.0	False	28.8		OSCAR	0-20000-0-42706	ondal	2.2	23.6	87.2						[23.62, 23.62]	[87.2, 87.2]	era5.1759.conv.2:32808	era5_1759	19430531	19451229	2:32808	0-20000-0-42706	[106, 107]
0	0		BANKURA	23.3833	87.0833	100.0				42706	2015.0	2021.0	True	28.8		IGRA2	0-20300-0-42706	ondal	2.2	23.6	87.2	INM00042706					[23.62, 23.62]	[87.2, 87.2]	era5.1759.conv.2:32808	era5_1759	19430531	19451229	2:32808	0-20000-0-42706	[106, 107]
0	0		ONDAL	23.62	87.2	86.25840000000001				32808	19430601.0	19451231.0		0.0		WBAN	0-20500-0-32808	ondal	2.2	23.6	87.2						[23.62, 23.62]	[87.2, 87.2]	era5.1759.conv.2:32808	era5_1759	19430531	19451229	2:32808	0-20000-0-42706	[106, 107]
1	1		PANDAVESWAR	23.72	87.28	87.17280000000001				32819	19450101.0	19450930.0		13.8		WBAN	0-20500-0-32819	ondal	2.2	23.6	87.2						[23.62, 23.62]	[87.2, 87.2]	era5.1759.conv.2:32808	era5_1759	19430531	19451229	2:32808	0-20000-0-42706	[106, 107]
2	2		MADHAIGANJ	23.63	87.35	94.1832				32810	19440101.0	19441231.0		15.3		WBAN	0-20500-0-32810	ondal	2.2	23.6	87.2						[23.62, 23.62]	[87.2, 87.2]	era5.1759.conv.2:32808	era5_1759	19430531	19451229	2:32808	0-20000-0-42706	[106, 107]
0	0															CHUAN	0-20400-0-nan	ondal	2.2	23.6	87.2						[23.62, 23.62]	[87.2, 87.2]	era5.1759.conv.2:32808	era5_1759	19430531	19451229	2:32808	0-20000-0-42706	[106, 107]
0	0		Asansol, West Bengal, India	23.68	86.98	-999.0				42704				23.4		SCHROEDER	0-20600-0-42704	ondal	2.2	23.6	87.2		42704.0	1119.0	1949-02-01 00:00:00	1976-01-21 00:00:00	[23.62, 23.62]	[87.2, 87.2]	era5.1759.conv.2:32808	era5_1759	19430531	19451229	2:32808	0-20000-0-42706	[106, 107]
0	0															WMO	0-20700-0-nan	ondal	2.2	23.6	87.2						[23.62, 23.62]	[87.2, 87.2]	era5.1759.conv.2:32808	era5_1759	19430531	19451229	2:32808	0-20000-0-42706	[106, 107]
