file_statid	station_id	station_name	latitude	longitude	elevation	original_lat	original_lon	distance_km	lat_file	lon_file	inventory	WIGOS	WMO_id	WIGOS_calc	file_min_date	file_max_date	start_date	end_date	isRadio	WIGOS_best	city	variables
47891	47891	TAKAMATSU	34.318333333333335	134.05416666666667	10.69	34 19 06N	134 03 15E	0.4	[34.32, 34.32]	[134.05, 134.05]	OSCAR	0-20000-0-47891		0-20000-0-47891	19860314	19940221	999.0	999.0	False	0-20000-0-47891	shido	[104, 105, 106, 107, 117]
47891	47880	TAKAMATSU AIRPORT	34.21416666666667	134.01555555555555	188.02	34 12 51N	134 00 56E	12.2	[34.32, 34.32]	[134.05, 134.05]	OSCAR	0-20000-0-47880		0-20000-0-47880	19860314	19940221	999.0	999.0	False	0-20000-0-47891	shido	[104, 105, 106, 107, 117]
47891	47890	TADOTSU	34.27611111111111	133.7525	5.34	34 16 34N	133 45 09E	27.8	[34.32, 34.32]	[134.05, 134.05]	OSCAR	0-20000-0-47890		0-20000-0-47890	19860314	19940221	999.0	999.0	False	0-20000-0-47891	shido	[104, 105, 106, 107, 117]
47891									[34.32, 34.32]	[134.05, 134.05]	IGRA2			0-20300-0-nan	19860314	19940221				0-20000-0-47891	shido	[104, 105, 106, 107, 117]
47891									[34.32, 34.32]	[134.05, 134.05]	WBAN			0-20500-0-nan	19860314	19940221				0-20000-0-47891	shido	[104, 105, 106, 107, 117]
47891									[34.32, 34.32]	[134.05, 134.05]	CHUAN			0-20400-0-nan	19860314	19940221				0-20000-0-47891	shido	[104, 105, 106, 107, 117]
47891	47891	Takamatsu WINDAS Doppler wind profiler site, Japan	34.31	134.06	-999.0			1.4	[34.32, 34.32]	[134.05, 134.05]	SCHROEDER		47891	0-20600-0-47891	19860314	19940221				0-20000-0-47891	shido	[104, 105, 106, 107, 117]
47891	47891	TAKAMATSU                	34.31666666666667	134.05	9.0			0.4	[34.32, 34.32]	[134.05, 134.05]	WMO		47891	0-20700-0-47891	19860314	19940221				0-20000-0-47891	shido	[104, 105, 106, 107, 117]
