level_0	index	WIGOS	station_name	latitude	longitude	elevation	ObsRems	original_lat	original_lon	station_id	start_date	end_date	isRadio	distance_km	distance_km_minusLat	inventory	WIGOS_calc	city	city_dist_km	city_lat	city_lon	station_id_igra	WMO_id	Unnamed: 0	date_min	date_max	lat_file	lon_file	file	file_dataset	file_min_date	file_max_date	file_statid	WIGOS_best	variables
0	0	0-20000-0-07434	LIMOGES-BELLEGARDE	45.861111111111114	1.175	403.0	Climatological station, Surface land meteorological station (SYNOP), GOS, RBCN, RBSN(S), CLIMAT(C)	45 51 40N	001 10 30E	07434	999	999	False	1.1		OSCAR	0-20000-0-07434	limoges	7.4	45.83153400000001	1.2578049999999998						[45.87, 45.87]	[1.18, 1.18]	era5.conv._07434	era5_1	19801120	19860920	07434	0-20000-0-07434	[104, 105, 106, 107, 117]
0	0		LIMOGES	45.867	1.183	402.0				07434	1974	1976	True	0.4		IGRA2	0-20300-0-07434	limoges	7.4	45.83153400000001	1.2578049999999998	FRM00007434					[45.87, 45.87]	[1.18, 1.18]	era5.conv._07434	era5_1	19801120	19860920	07434	0-20000-0-07434	[104, 105, 106, 107, 117]
0	0															WBAN	0-20500-0-nan	limoges	7.4	45.83153400000001	1.2578049999999998						[45.87, 45.87]	[1.18, 1.18]	era5.conv._07434	era5_1	19801120	19860920	07434	0-20000-0-07434	[104, 105, 106, 107, 117]
0	0		Limoges	45.85	1.25	330				5211	-999-999	-999-999		5.9		CHUAN	0-20400-0-5211	limoges	7.4	45.83153400000001	1.2578049999999998		-999				[45.87, 45.87]	[1.18, 1.18]	era5.conv._07434	era5_1	19801120	19860920	07434	0-20000-0-07434	[104, 105, 106, 107, 117]
1	2		Limoges	45.8	1.27	265				6096	-999-999	-999-999		10.5		CHUAN	0-20400-0-6096	limoges	7.4	45.83153400000001	1.2578049999999998		-999				[45.87, 45.87]	[1.18, 1.18]	era5.conv._07434	era5_1	19801120	19860920	07434	0-20000-0-07434	[104, 105, 106, 107, 117]
0	0		Limoges, France	45.87	1.18	-999				7434				0.0		SCHROEDER	0-20600-0-7434	limoges	7.4	45.83153400000001	1.2578049999999998		7434	285.0	9999999	9999999	[45.87, 45.87]	[1.18, 1.18]	era5.conv._07434	era5_1	19801120	19860920	07434	0-20000-0-07434	[104, 105, 106, 107, 117]
0	0		LIMOGES/BELLEGARDE      0	45.86666666666667	1.1833333333333331	-999.0				07434				0.5		WMO	0-20700-0-07434	limoges	7.4	45.83153400000001	1.2578049999999998		07434	856.0			[45.87, 45.87]	[1.18, 1.18]	era5.conv._07434	era5_1	19801120	19860920	07434	0-20000-0-07434	[104, 105, 106, 107, 117]
