level_0	index	WIGOS	station_name	latitude	longitude	elevation	ObsRems	original_lat	original_lon	station_id	start_date	end_date	isRadio	distance_km	distance_km_minusLat	inventory	WIGOS_calc	city	city_dist_km	city_lat	city_lon	station_id_igra	WMO_id	Unnamed: 0	date_min	date_max	lat_file	lon_file	file	file_dataset	file_min_date	file_max_date	file_statid	WIGOS_best	variables
0	0	0-20000-0-16090	VERONA/VILLAFRANCA	45.38805555555555	10.873333333333333	68.0	Surface land meteorological station (SYNOP), GOS	45 23 17N	010 52 24E	16090	999	999	False	0.9		OSCAR	0-20000-0-16090	sommacampagna	3.6	45.4	10.833333						[45.38, 45.38]	[10.87, 10.87]	era5.conv._16090	era5_1	19800223	19860317	16090	0-20000-0-16090	[36, 38, 39, 85, 104, 105, 106, 107, 117]
1	2	0-20000-0-16089	DESENZANO	45.464444444444446	10.555277777777778	66.0	Surface land meteorological station (SYNOP), GOS	45 27 52N	010 33 19E	16089	999	999	False	26.4		OSCAR	0-20000-0-16089	sommacampagna	3.6	45.4	10.833333						[45.38, 45.38]	[10.87, 10.87]	era5.conv._16090	era5_1	19800223	19860317	16090	0-20000-0-16090	[36, 38, 39, 85, 104, 105, 106, 107, 117]
0	0															IGRA2	0-20300-0-nan	sommacampagna	3.6	45.4	10.833333						[45.38, 45.38]	[10.87, 10.87]	era5.conv._16090	era5_1	19800223	19860317	16090	0-20000-0-16090	[36, 38, 39, 85, 104, 105, 106, 107, 117]
0	0		VILLA FRANCA MU 1	45.38	10.87	55.168800000000005				34159	19450501	19450630		0.0		WBAN	0-20500-0-34159	sommacampagna	3.6	45.4	10.833333						[45.38, 45.38]	[10.87, 10.87]	era5.conv._16090	era5_1	19800223	19860317	16090	0-20000-0-16090	[36, 38, 39, 85, 104, 105, 106, 107, 117]
1	1		VERONA	45.47	10.93	93.2688				34194	19600101	19700331		11.0		WBAN	0-20500-0-34194	sommacampagna	3.6	45.4	10.833333						[45.38, 45.38]	[10.87, 10.87]	era5.conv._16090	era5_1	19800223	19860317	16090	0-20000-0-16090	[36, 38, 39, 85, 104, 105, 106, 107, 117]
0	0		Boscomantico	45.33	10.93	84				5072	-999-999	-999-999		7.3		CHUAN	0-20400-0-5072	sommacampagna	3.6	45.4	10.833333		-999				[45.38, 45.38]	[10.87, 10.87]	era5.conv._16090	era5_1	19800223	19860317	16090	0-20000-0-16090	[36, 38, 39, 85, 104, 105, 106, 107, 117]
0	0															SCHROEDER	0-20600-0-nan	sommacampagna	3.6	45.4	10.833333						[45.38, 45.38]	[10.87, 10.87]	era5.conv._16090	era5_1	19800223	19860317	16090	0-20000-0-16090	[36, 38, 39, 85, 104, 105, 106, 107, 117]
0	0		VERONA VILLAFRANCA      0	45.38333333333333	10.866666666666667	68.0				16090				0.5		WMO	0-20700-0-16090	sommacampagna	3.6	45.4	10.833333		16090	966.0			[45.38, 45.38]	[10.87, 10.87]	era5.conv._16090	era5_1	19800223	19860317	16090	0-20000-0-16090	[36, 38, 39, 85, 104, 105, 106, 107, 117]
