file_statid	station_id	station_name	latitude	longitude	elevation	original_lat	original_lon	distance_km	lat_file	lon_file	inventory	WIGOS	WMO_id	WIGOS_calc	file_min_date	file_max_date	start_date	end_date	isRadio	WIGOS_best	city	variables
86218	86218	AEROPUERTO SILVIO PETTIROSSI, LUQUE	-25.233333333333334	-57.516666666666666	83.0	25 14 00S	057 31 00W	2.0	[-25.23, -25.27]	[-57.47, -57.63]	OSCAR	0-20000-0-86218		0-20000-0-86218	19790101	20211231	999.0	999.0	False	0-20000-0-86218	asuncion	[36, 38, 39, 85, 104, 105, 106, 107, 117]
86218	86218	AEROPUERTO SILVIO PETTIROSSI	-25.2333	-57.5167	83.0			2.0	[-25.23, -25.27]	[-57.47, -57.63]	IGRA2			0-20300-0-86218	19790101	20211231	1975.0	2020.0	True	0-20000-0-86218	asuncion	[36, 38, 39, 85, 104, 105, 106, 107, 117]
86218	52502	ASUNCION	-25.25	-57.52	92.0496			1.0	[-25.23, -25.27]	[-57.47, -57.63]	WBAN		86218.0	0-20500-0-52502	19790101	20211231	19870101.0	99991231.0		0-20000-0-86218	asuncion	[36, 38, 39, 85, 104, 105, 106, 107, 117]
86218									[-25.23, -25.27]	[-57.47, -57.63]	CHUAN			0-20400-0-nan	19790101	20211231				0-20000-0-86218	asuncion	[36, 38, 39, 85, 104, 105, 106, 107, 117]
86218	86218	Asuncion AP, Paraguay	-25.27	-57.62	-999.0			11.3	[-25.23, -25.27]	[-57.47, -57.63]	SCHROEDER		86218	0-20600-0-86218	19790101	20211231				0-20000-0-86218	asuncion	[36, 38, 39, 85, 104, 105, 106, 107, 117]
86218	86218	ASUNCION                 	-25.266666666666666	-57.63333333333333	111.0			12.6	[-25.23, -25.27]	[-57.47, -57.63]	WMO		86218	0-20700-0-86218	19790101	20211231				0-20000-0-86218	asuncion	[36, 38, 39, 85, 104, 105, 106, 107, 117]
86218	86217	ASUNCION                 	-25.266666666666666	-57.63333333333333	-999.0			12.6	[-25.23, -25.27]	[-57.47, -57.63]	WMO		86217	0-20700-0-86217	19790101	20211231				0-20000-0-86218	asuncion	[36, 38, 39, 85, 104, 105, 106, 107, 117]
