file_statid	station_id	station_name	latitude	longitude	elevation	original_lat	original_lon	distance_km	lat_file	lon_file	inventory	WIGOS	WMO_id	WIGOS_calc	file_min_date	file_max_date	start_date	end_date	isRadio	WIGOS_best	city	variables
02599	02679	HOBURG A	56.92111111111111	18.150555555555552	36.3	56 55 16N	018 09 02E	17.1	[57.07, 57.07]	[18.22, 18.22]	OSCAR	0-20000-0-02679		0-20000-0-02679	19850314	19850314	999.0	999.0	False	0-20000-0-02679	visby	[39, 106, 107, 117]
02599									[57.07, 57.07]	[18.22, 18.22]	IGRA2			0-20300-0-nan	19850314	19850314				0-20000-0-02679	visby	[39, 106, 107, 117]
02599									[57.07, 57.07]	[18.22, 18.22]	WBAN			0-20500-0-nan	19850314	19850314				0-20000-0-02679	visby	[39, 106, 107, 117]
02599									[57.07, 57.07]	[18.22, 18.22]	CHUAN			0-20400-0-nan	19850314	19850314				0-20000-0-02679	visby	[39, 106, 107, 117]
02599	2694	(made up station ID) Nasudden Peninsula, Sweden	57.07	18.22	-999.0			0.0	[57.07, 57.07]	[18.22, 18.22]	SCHROEDER		2694	0-20600-0-2694	19850314	19850314				0-20000-0-02679	visby	[39, 106, 107, 117]
02599	2692	(made up station ID) Eksta, Sweden	57.29	18.21	-999.0			24.5	[57.07, 57.07]	[18.22, 18.22]	SCHROEDER		2692	0-20600-0-2692	19850314	19850314				0-20000-0-02679	visby	[39, 106, 107, 117]
02599	2691	(made up station ID) Lojsta, Sweden	57.31	18.37	-999.0			28.2	[57.07, 57.07]	[18.22, 18.22]	SCHROEDER		2691	0-20600-0-2691	19850314	19850314				0-20000-0-02679	visby	[39, 106, 107, 117]
02599	02679	Hoburg A                 	56.91666666666666	18.15	-999.0			17.6	[57.07, 57.07]	[18.22, 18.22]	WMO		02679	0-20700-0-02679	19850314	19850314				0-20000-0-02679	visby	[39, 106, 107, 117]
