file_statid	station_id	station_name	latitude	longitude	elevation	original_lat	original_lon	distance_km	lat_file	lon_file	inventory	WIGOS	WMO_id	WIGOS_calc	file_min_date	file_max_date	start_date	end_date	isRadio	WIGOS_best	city	variables
47401	47401	WAKKANAI	45.415277777777774	141.6786111111111	11.7	45 24 55N	141 40 43E	0.0	[45.42, 45.4]	[141.683, 141.667]	OSCAR	0-20000-0-47401		0-20000-0-47401	19790101	20211231	999.0	999.0	True	0-20000-0-47401	wakkanai	[36, 38, 39, 85, 104, 105, 106, 107, 117]
47401	47441	WAKKANAI AIRPORT	45.404444444444444	141.80222222222224	11.23	45 24 16N	141 48 08E	9.7	[45.42, 45.4]	[141.683, 141.667]	OSCAR	0-20000-0-47441		0-20000-0-47441	19790101	20211231	999.0	999.0	False	0-20000-0-47401	wakkanai	[36, 38, 39, 85, 104, 105, 106, 107, 117]
47401	47401	WAKKANAI	45.415	141.6789	2.8			0.0	[45.42, 45.4]	[141.683, 141.667]	IGRA2			0-20300-0-47401	19790101	20211231	1949.0	2021.0	True	0-20000-0-47401	wakkanai	[36, 38, 39, 85, 104, 105, 106, 107, 117]
47401									[45.42, 45.4]	[141.683, 141.667]	WBAN			0-20500-0-nan	19790101	20211231				0-20000-0-47401	wakkanai	[36, 38, 39, 85, 104, 105, 106, 107, 117]
47401									[45.42, 45.4]	[141.683, 141.667]	CHUAN			0-20400-0-nan	19790101	20211231				0-20000-0-47401	wakkanai	[36, 38, 39, 85, 104, 105, 106, 107, 117]
47401	47401	Wakkanai, Japan	45.42	141.68	-999.0			0.6	[45.42, 45.4]	[141.683, 141.667]	SCHROEDER		47401	0-20600-0-47401	19790101	20211231				0-20000-0-47401	wakkanai	[36, 38, 39, 85, 104, 105, 106, 107, 117]
47401	47400	(made up station ID) Wakkanai Communication Research Laboratory ST wind profiler, Japan	45.36	141.81	-999.0			11.9	[45.42, 45.4]	[141.683, 141.667]	SCHROEDER		47400	0-20600-0-47400	19790101	20211231				0-20000-0-47401	wakkanai	[36, 38, 39, 85, 104, 105, 106, 107, 117]
47401	47401	WAKKANAI                 	45.41666666666666	141.68333333333334	11.0			0.4	[45.42, 45.4]	[141.683, 141.667]	WMO		47401	0-20700-0-47401	19790101	20211231				0-20000-0-47401	wakkanai	[36, 38, 39, 85, 104, 105, 106, 107, 117]
