file_statid	station_id	station_name	latitude	longitude	elevation	original_lat	original_lon	distance_km	lat_file	lon_file	inventory	WIGOS	WMO_id	WIGOS_calc	file_min_date	file_max_date	start_date	end_date	isRadio	WIGOS_best	city	variables
76903	76903	TAPACHULA, CHIS	14.887222222222222	-92.29638888888888	118.0	14 53 14N	092 17 47W	6.2	[14.921, 14.887]	[-92.25, -92.296]	OSCAR	0-20000-0-76903		0-20000-0-76903	20140423	20211222	999.0	999.0	False	0-20000-0-76903	tapachula	[36, 38, 39, 85, 104, 105, 106, 107, 117]
76903	76903	TAPACHULA	14.9167	-92.25	118.0			0.5	[14.921, 14.887]	[-92.25, -92.296]	IGRA2			0-20300-0-76903	20140423	20211222	2011.0	2021.0	True	0-20000-0-76903	tapachula	[36, 38, 39, 85, 104, 105, 106, 107, 117]
76903									[14.921, 14.887]	[-92.25, -92.296]	WBAN			0-20500-0-nan	20140423	20211222				0-20000-0-76903	tapachula	[36, 38, 39, 85, 104, 105, 106, 107, 117]
76903									[14.921, 14.887]	[-92.25, -92.296]	CHUAN			0-20400-0-nan	20140423	20211222				0-20000-0-76903	tapachula	[36, 38, 39, 85, 104, 105, 106, 107, 117]
76903	76903	Tapachula, Chiapas, Mexico	14.92	-92.27	-999.0			2.2	[14.921, 14.887]	[-92.25, -92.296]	SCHROEDER		76903	0-20600-0-76903	20140423	20211222				0-20000-0-76903	tapachula	[36, 38, 39, 85, 104, 105, 106, 107, 117]
76903	76904	Tapachula AP (Operated by Pan American Airways), Chiapas, Mexico	14.88	-92.3	-999.0			7.0	[14.921, 14.887]	[-92.25, -92.296]	SCHROEDER		76904	0-20600-0-76904	20140423	20211222				0-20000-0-76903	tapachula	[36, 38, 39, 85, 104, 105, 106, 107, 117]
76903	76921	Puerto Madero Naval Facility PACS-SONET pibal site (operated by SMAM = Secretaria de Marina Armada de Mexico [Mexican Navy]), Chiapas, Mexico	14.7	-92.4	-999.0			29.3	[14.921, 14.887]	[-92.25, -92.296]	SCHROEDER		76921	0-20600-0-76921	20140423	20211222				0-20000-0-76903	tapachula	[36, 38, 39, 85, 104, 105, 106, 107, 117]
76903	76903	TAPACHULA                	14.9	-92.26666666666668	-999.0			2.9	[14.921, 14.887]	[-92.25, -92.296]	WMO		76903	0-20700-0-76903	20140423	20211222				0-20000-0-76903	tapachula	[36, 38, 39, 85, 104, 105, 106, 107, 117]
76903	76904	TAPACHULA                	14.916666666666666	-92.26666666666668	-999.0			1.9	[14.921, 14.887]	[-92.25, -92.296]	WMO		76904	0-20700-0-76904	20140423	20211222				0-20000-0-76903	tapachula	[36, 38, 39, 85, 104, 105, 106, 107, 117]
