file_statid	station_id	station_name	latitude	longitude	elevation	original_lat	original_lon	distance_km	lat_file	lon_file	inventory	WIGOS	WMO_id	WIGOS_calc	file_min_date	file_max_date	start_date	end_date	isRadio	WIGOS_best	city	variables
03373	03373	SCAMPTON	53.30694444444444	-0.5480555555555555	57.0	53 18 25N	000 32 53W	0.8	[53.3, 53.3]	[-0.55, -0.55]	OSCAR	0-20000-0-03373		0-20000-0-03373	20091103	20100907	999.0	999.0	False	0-20000-0-03377	lincoln	[36, 38, 39, 85, 104, 105, 106, 107, 117]
03373	03377	WADDINGTON	53.17527777777777	-0.5233333333333334	70.4	53 10 31N	000 31 24W	14.0	[53.3, 53.3]	[-0.55, -0.55]	OSCAR	0-20000-0-03377		0-20000-0-03377	20091103	20100907	999.0	999.0	True	0-20000-0-03377	lincoln	[36, 38, 39, 85, 104, 105, 106, 107, 117]
03373	03377	WADDINGTON	53.167	-0.517	70.0			15.0	[53.3, 53.3]	[-0.55, -0.55]	IGRA2			0-20300-0-03377	20091103	20100907	1989.0	2005.0	True	0-20000-0-03377	lincoln	[36, 38, 39, 85, 104, 105, 106, 107, 117]
03373	15041	STURGATE	53.37	-0.68	21.031200000000002			11.6	[53.3, 53.3]	[-0.55, -0.55]	WBAN			0-20500-0-15041	20091103	20100907	19541001.0	19570630.0		0-20000-0-03377	lincoln	[36, 38, 39, 85, 104, 105, 106, 107, 117]
03373	15035	WADDINGTON	53.17	-0.52	72.2376			14.6	[53.3, 53.3]	[-0.55, -0.55]	WBAN			0-20500-0-15035	20091103	20100907	19500901.0	19510331.0		0-20000-0-03377	lincoln	[36, 38, 39, 85, 104, 105, 106, 107, 117]
03373									[53.3, 53.3]	[-0.55, -0.55]	CHUAN			0-20400-0-nan	20091103	20100907				0-20000-0-03377	lincoln	[36, 38, 39, 85, 104, 105, 106, 107, 117]
03373	3373	Scampton, England, UK	53.3	-0.55	-999.0			0.0	[53.3, 53.3]	[-0.55, -0.55]	SCHROEDER		3373	0-20600-0-3373	20091103	20100907				0-20000-0-03377	lincoln	[36, 38, 39, 85, 104, 105, 106, 107, 117]
03373	3377	EGXW Waddington AP, England, UK	53.1755	-0.5232	-999.0			14.0	[53.3, 53.3]	[-0.55, -0.55]	SCHROEDER		3377	0-20600-0-3377	20091103	20100907				0-20000-0-03377	lincoln	[36, 38, 39, 85, 104, 105, 106, 107, 117]
03373	03377	WADDINGTON               	53.16666666666666	-0.5166666666666667	-999.0			15.0	[53.3, 53.3]	[-0.55, -0.55]	WMO		03377	0-20700-0-03377	20091103	20100907				0-20000-0-03377	lincoln	[36, 38, 39, 85, 104, 105, 106, 107, 117]
