level_0	index	WIGOS	station_name	latitude	longitude	elevation	ObsRems	original_lat	original_lon	station_id	start_date	end_date	isRadio	distance_km	distance_km_minusLat	inventory	WIGOS_calc	city	city_dist_km	city_lat	city_lon	station_id_igra	WMO_id	Unnamed: 0	date_min	date_max	lat_file	lon_file	file	file_dataset	file_min_date	file_max_date	file_statid	WIGOS_best	variables
0	0	0-20000-0-91929	BORA-BORA-MOTU-AERO	-16.44527777777778	-151.75194444444443	3.0	Climatological station, Surface land meteorological station (SYNOP), RBSN(S), GOS, GSN, RBCN, CLIMAT(C)	16 26 43S	151 45 07W	91929	999.0	999.0	False	1.7		OSCAR	0-20000-0-91929	faaa	259.3	-17.55	-149.6						[-16.43, -16.45]	[-151.75, -151.75]	era5.conv._91929	era5_1	19980310	19990930	91929	0-20000-0-91929	[104, 105, 106, 107, 117]
0	0		BORA-BORA	-16.45	-151.75	3.0				91929	1974.0	1999.0	True	2.2		IGRA2	0-20300-0-91929	faaa	259.3	-17.55	-149.6	FPM00091929					[-16.43, -16.45]	[-151.75, -151.75]	era5.conv._91929	era5_1	19980310	19990930	91929	0-20000-0-91929	[104, 105, 106, 107, 117]
0	0		BORA BORA AAF	-16.45	-151.77	3.048				61502	19430701.0	19440831.0		3.1		WBAN	0-20500-0-61502	faaa	259.3	-17.55	-149.6						[-16.43, -16.45]	[-151.75, -151.75]	era5.conv._91929	era5_1	19980310	19990930	91929	0-20000-0-91929	[104, 105, 106, 107, 117]
1	1		BORA BORA NF	-16.47	-151.75	6.096				61503	19420401.0	19451130.0		4.4		WBAN	0-20500-0-61503	faaa	259.3	-17.55	-149.6						[-16.43, -16.45]	[-151.75, -151.75]	era5.conv._91929	era5_1	19980310	19990930	91929	0-20000-0-91929	[104, 105, 106, 107, 117]
0	0															CHUAN	0-20400-0-nan	faaa	259.3	-17.55	-149.6						[-16.43, -16.45]	[-151.75, -151.75]	era5.conv._91929	era5_1	19980310	19990930	91929	0-20000-0-91929	[104, 105, 106, 107, 117]
0	0		Bora-Bora, Society Islands, French Polynesia	-16.45	-151.75	-999.0				91929				2.2		SCHROEDER	0-20600-0-91929	faaa	259.3	-17.55	-149.6		91929	3793.0	1998-06-25 00:00:00	1998-06-25 00:00:00	[-16.43, -16.45]	[-151.75, -151.75]	era5.conv._91929	era5_1	19980310	19990930	91929	0-20000-0-91929	[104, 105, 106, 107, 117]
1	1		NTTB Bora-Bora AP, Society Islands, French Polynesia	-16.45	-151.75	-999.0				91930				2.2		SCHROEDER	0-20600-0-91930	faaa	259.3	-17.55	-149.6		91930	3794.0	9999999	9999999	[-16.43, -16.45]	[-151.75, -151.75]	era5.conv._91929	era5_1	19980310	19990930	91929	0-20000-0-91929	[104, 105, 106, 107, 117]
0	0		BORA-BORA-MOTU-AERO      	-16.433333333333334	-151.75	-999.0				91929				0.4		WMO	0-20700-0-91929	faaa	259.3	-17.55	-149.6		91929	4822.0			[-16.43, -16.45]	[-151.75, -151.75]	era5.conv._91929	era5_1	19980310	19990930	91929	0-20000-0-91929	[104, 105, 106, 107, 117]
1	2		BORA BORA                	-16.483333333333334	-151.75	-999.0				91930				5.9		WMO	0-20700-0-91930	faaa	259.3	-17.55	-149.6		91930	135.0			[-16.43, -16.45]	[-151.75, -151.75]	era5.conv._91929	era5_1	19980310	19990930	91929	0-20000-0-91929	[104, 105, 106, 107, 117]
