level_0	index	WIGOS	station_name	latitude	longitude	elevation	ObsRems	original_lat	original_lon	station_id	start_date	end_date	isRadio	distance_km	distance_km_minusLat	inventory	WIGOS_calc	city	city_dist_km	city_lat	city_lon	station_id_igra	WMO_id	Unnamed: 0	date_min	date_max
0	0		BASRAH-HUSSEN	30.517	47.783	2.0				40689	1957.0	1990.0	True	4.8		IGRA2	0-20300-0-40689	khorramshahr	39.8	30.4397	48.1664	IZM00040689				
0	0	0-20000-0-40689	BASRAH-HUSSEN	30.516666666666666	47.78333333333333	2.0	Surface land meteorological station (SYNOP), CLIMAT(C), GOS, RBSN(P)	30 31 00N	047 47 00E	40689	999.0	999.0	False	4.8		OSCAR	0-20000-0-40689	khorramshahr	39.8	30.4397	48.1664					
1	1	0-20000-0-40690	BASRAH INT. AIRPORT	30.516666666666666	47.78333333333333	3.0	Upper-air / Radiosonde station, Surface land meteorological station (SYNOP), GOS	30 31 00N	047 47 00E	40690	999.0	999.0	True	4.8		OSCAR	0-20000-0-40690	khorramshahr	39.8	30.4397	48.1664					
0	0		Basrah, Iraq	30.57	47.78	-999.0				40689				1.1		SCHROEDER	0-20600-0-40689	khorramshahr	39.8	30.4397	48.1664		40689	981.0	2008-09-18 00:00:00	2008-09-18 00:00:00
1	1		Basrah International AP, Iraq	30.52	47.78	-999.0				40690				4.4		SCHROEDER	0-20600-0-40690	khorramshahr	39.8	30.4397	48.1664		40690	982.0	2011-02-08 00:00:00	2011-02-08 00:00:00
0	0		BASRAH                   	30.566666666666663	47.78333333333333	-999.0				40689				0.8		WMO	0-20700-0-40689	khorramshahr	39.8	30.4397	48.1664		40689	583.0		
