level_0	index	WIGOS	station_name	latitude	longitude	elevation	ObsRems	original_lat	original_lon	station_id	start_date	end_date	isRadio	distance_km	distance_km_minusLat	inventory	WIGOS_calc	city	city_dist_km	city_lat	city_lon	station_id_igra	WMO_id	Unnamed: 0	date_min	date_max	lat_file	lon_file	file	file_dataset	file_min_date	file_max_date	file_statid	WIGOS_best	variables
0	0	0-20000-0-61996	MARTIN DE VIVIES (ILE AMSTERDAM)	-37.79527777777778	77.56916666666666	29.0	Climatological station, Surface land meteorological station (SYNOP), CLIMAT(C), RBCN, GOS, GSN, RBSN(S)	37 47 43S	077 34 09E	61996	999	999	False	6.1		OSCAR	0-20000-0-61996	None	None	None	None						[-37.8, -37.83]	[77.57, 77.5]	era5.conv._61996	era5_1	19790101	20111208	61996	0-20000-0-61996	[36, 38, 39, 85, 104, 105, 106, 107, 117]
0	0		MARTIN DE VIVIES	-37.7953	77.5692	27.0				61996	1951	2011	True	6.1		IGRA2	0-20300-0-61996	None	None	None	None	FSM00061996					[-37.8, -37.83]	[77.57, 77.5]	era5.conv._61996	era5_1	19790101	20111208	61996	0-20000-0-61996	[36, 38, 39, 85, 104, 105, 106, 107, 117]
0	0		AMSTERDAM IS AIR SAM	-37.95	77.53	150.2664				73701	19830102	19901207		16.9		WBAN	0-20500-0-73701	None	None	None	None						[-37.8, -37.83]	[77.57, 77.5]	era5.conv._61996	era5_1	19790101	20111208	61996	0-20000-0-61996	[36, 38, 39, 85, 104, 105, 106, 107, 117]
0	0		Base Martin de Viviès	-37.795	77.569	27				4247	195004	-999-999		6.1		CHUAN	0-20400-0-4247	None	None	None	None		61996				[-37.8, -37.83]	[77.57, 77.5]	era5.conv._61996	era5_1	19790101	20111208	61996	0-20000-0-61996	[36, 38, 39, 85, 104, 105, 106, 107, 117]
1	1		Base Martin de Viviès	-37.795	77.569	27				6067	195004	-999-999		6.1		CHUAN	0-20400-0-6067	None	None	None	None		61996				[-37.8, -37.83]	[77.57, 77.5]	era5.conv._61996	era5_1	19790101	20111208	61996	0-20000-0-61996	[36, 38, 39, 85, 104, 105, 106, 107, 117]
0	0		Martin de Vivies, Ile Amsterdam / New Amsterdam Island (France)	-37.8	77.53	-999				61996				2.6		SCHROEDER	0-20600-0-61996	None	None	None	None		61996	1894.0	1978-02-10 00:00:00	2008-04-22 00:00:00	[-37.8, -37.83]	[77.57, 77.5]	era5.conv._61996	era5_1	19790101	20111208	61996	0-20000-0-61996	[36, 38, 39, 85, 104, 105, 106, 107, 117]
1	1		Nouvelle Amsterdam	-37.83	77.57	-999				67198				7.0		SCHROEDER	0-20600-0-67198	None	None	None	None		67198	2115.0	1951-03-01 00:00:00	1951-03-01 00:00:00	[-37.8, -37.83]	[77.57, 77.5]	era5.conv._61996	era5_1	19790101	20111208	61996	0-20000-0-61996	[36, 38, 39, 85, 104, 105, 106, 107, 117]
0	0		ILE NOUVELLE AMSTERDAM   	-37.833333333333336	77.56666666666666	-999.0				61996				6.9		WMO	0-20700-0-61996	None	None	None	None		61996	6.0			[-37.8, -37.83]	[77.57, 77.5]	era5.conv._61996	era5_1	19790101	20111208	61996	0-20000-0-61996	[36, 38, 39, 85, 104, 105, 106, 107, 117]
