level_0	index	WIGOS	station_name	latitude	longitude	elevation	ObsRems	original_lat	original_lon	station_id	start_date	end_date	isRadio	distance_km	distance_km_minusLat	inventory	WIGOS_calc	city	city_dist_km	city_lat	city_lon	station_id_igra	WMO_id	Unnamed: 0	date_min	date_max	lat_file	lon_file	file	file_dataset	file_min_date	file_max_date	file_statid	WIGOS_best	variables
0	0	0-20000-0-94287	CAIRNS AERO	-16.87361111111111	145.7458333333333	8.3	Climatological station, Precipitation station, Surface land meteorological station (SYNOP), Weather radar, CLIMAT(C), WRO, RBCN, GOS, RBSN(S), GSN	16 52 25S	145 44 45E	94287	999.0	999.0	False	0.6		OSCAR	0-20000-0-94287	cairns	5.1	-16.92304	145.766251						[-16.87, -16.88]	[145.75, 145.73]	era5.conv._94287	era5_1	19781231	20140430	94287	0-20000-0-94287	[36, 38, 39, 85, 104, 105, 106, 107, 117]
1	2	0-20000-0-94288	CAIRNS RACECOURSE	-16.94638888888889	145.74749999999997	4.1	Surface land meteorological station (SYNOP), GOS	16 56 47S	145 44 51E	94288	999.0	999.0	False	8.5		OSCAR	0-20000-0-94288	cairns	5.1	-16.92304	145.766251						[-16.87, -16.88]	[145.75, 145.73]	era5.conv._94287	era5_1	19781231	20140430	94287	0-20000-0-94287	[36, 38, 39, 85, 104, 105, 106, 107, 117]
0	0		CAIRNS AERO	-16.8736	145.7458	3.0				94287	1947.0	2014.0	True	0.6		IGRA2	0-20300-0-94287	cairns	5.1	-16.92304	145.766251	ASM00094287					[-16.87, -16.88]	[145.75, 145.73]	era5.conv._94287	era5_1	19781231	20140430	94287	0-20000-0-94287	[36, 38, 39, 85, 104, 105, 106, 107, 117]
0	0		CAIRNS	-16.88	145.75	2.1336				81401	19430101.0	19450131.0		1.1		WBAN	0-20500-0-81401	cairns	5.1	-16.92304	145.766251						[-16.87, -16.88]	[145.75, 145.73]	era5.conv._94287	era5_1	19781231	20140430	94287	0-20000-0-94287	[36, 38, 39, 85, 104, 105, 106, 107, 117]
0	0															CHUAN	0-20400-0-nan	cairns	5.1	-16.92304	145.766251						[-16.87, -16.88]	[145.75, 145.73]	era5.conv._94287	era5_1	19781231	20140430	94287	0-20000-0-94287	[36, 38, 39, 85, 104, 105, 106, 107, 117]
0	0		Cairns RAAF Meteorological Office, Queensland, Australia	-16.92	145.77	-999.0				94287				5.9		SCHROEDER	0-20600-0-94287	cairns	5.1	-16.92304	145.766251		94287	3868.0	1941-01-01 00:00:00	1992-01-01 00:00:00	[-16.87, -16.88]	[145.75, 145.73]	era5.conv._94287	era5_1	19781231	20140430	94287	0-20000-0-94287	[36, 38, 39, 85, 104, 105, 106, 107, 117]
0	0		CAIRNS                   	-16.883333333333333	145.75	8.0				94287				1.5		WMO	0-20700-0-94287	cairns	5.1	-16.92304	145.766251		94287	1604.0			[-16.87, -16.88]	[145.75, 145.73]	era5.conv._94287	era5_1	19781231	20140430	94287	0-20000-0-94287	[36, 38, 39, 85, 104, 105, 106, 107, 117]
