level_0	index	WIGOS	station_name	latitude	longitude	elevation	ObsRems	original_lat	original_lon	station_id	start_date	end_date	isRadio	distance_km	distance_km_minusLat	inventory	WIGOS_calc	city	city_dist_km	city_lat	city_lon	station_id_igra	WMO_id	Unnamed: 0	date_min	date_max	lat_file	lon_file	file	file_dataset	file_min_date	file_max_date	file_statid	WIGOS_best	variables
0	0	0-20000-0-40754	TEHRAN-MEHRABAD	35.69333333333333	51.309444444444445	1191.0	Climatological station, Upper-air / Radiosonde station, Surface land meteorological station (SYNOP), CLIMAT(C), RBCN, GOS, GSN, RBSN(ST)	35 41 36N	051 18 34E	40754	999.0	999.0	True	1.5		OSCAR	0-20000-0-40754	eslamshahr	15.4	35.5605	51.2346						[35.69, 35.68]	[51.35, 51.31]	era5.conv._40754	era5_1	19790101	20211231	40754	0-20000-0-40754	[36, 38, 39, 85, 104, 105, 106, 107, 117]
0	0		TEHRAN-MEHRABAD	35.6833	51.3167	1204.0				40754	1961.0	2021.0	True	0.7		IGRA2	0-20300-0-40754	eslamshahr	15.4	35.5605	51.2346	IRM00040754					[35.69, 35.68]	[51.35, 51.31]	era5.conv._40754	era5_1	19790101	20211231	40754	0-20000-0-40754	[36, 38, 39, 85, 104, 105, 106, 107, 117]
0	0		AMIRABAD POST	35.72	51.38	1340.2056				33501	19431101.0	19451231.0		7.7		WBAN	0-20500-0-33501	eslamshahr	15.4	35.5605	51.2346						[35.69, 35.68]	[51.35, 51.31]	era5.conv._40754	era5_1	19790101	20211231	40754	0-20000-0-40754	[36, 38, 39, 85, 104, 105, 106, 107, 117]
0	0															CHUAN	0-20400-0-nan	eslamshahr	15.4	35.5605	51.2346						[35.69, 35.68]	[51.35, 51.31]	era5.conv._40754	era5_1	19790101	20211231	40754	0-20000-0-40754	[36, 38, 39, 85, 104, 105, 106, 107, 117]
0	0		OIII Tehran - Mehrabad AP, Iran	35.68	51.32	-999.0				40754				0.9		SCHROEDER	0-20600-0-40754	eslamshahr	15.4	35.5605	51.2346		40754	985.0	1964-06-04 00:00:00	1977-02-01 00:00:00	[35.69, 35.68]	[51.35, 51.31]	era5.conv._40754	era5_1	19790101	20211231	40754	0-20000-0-40754	[36, 38, 39, 85, 104, 105, 106, 107, 117]
0	0		TEHRAN/MEHRABAD          	35.68333333333333	51.31666666666667	-999.0				40754				0.7		WMO	0-20700-0-40754	eslamshahr	15.4	35.5605	51.2346		40754	579.0			[35.69, 35.68]	[51.35, 51.31]	era5.conv._40754	era5_1	19790101	20211231	40754	0-20000-0-40754	[36, 38, 39, 85, 104, 105, 106, 107, 117]
1	2		DOUSHAN TAPPEH           	35.7	51.333333333333336	-999.0				40753				3.1		WMO	0-20700-0-40753	eslamshahr	15.4	35.5605	51.2346		40753	2796.0			[35.69, 35.68]	[51.35, 51.31]	era5.conv._40754	era5_1	19790101	20211231	40754	0-20000-0-40754	[36, 38, 39, 85, 104, 105, 106, 107, 117]
