file_statid	station_id	station_name	latitude	longitude	elevation	original_lat	original_lon	distance_km	lat_file	lon_file	inventory	WIGOS	WMO_id	WIGOS_calc	file_min_date	file_max_date	start_date	end_date	isRadio	WIGOS_best	city	variables
41624	41624	DERA ISMAIL KHAN	31.816666666666666	70.91666666666667	173.0	31 49 00N	070 55 00E	0.5	[31.82, 31.82]	[70.92, 70.92]	OSCAR	0-20000-0-41624		0-20000-0-41624	19790102	20211231	999	999	False	0-20000-0-41624	dera ismail khan	[36, 38, 39, 85, 104, 105, 106, 107, 117]
41624	41669	BHAKKAR	31.616666666666667	71.06666666666666	162.0	31 37 00N	071 04 00E	26.5	[31.82, 31.82]	[70.92, 70.92]	OSCAR	0-20000-0-41669		0-20000-0-41669	19790102	20211231	999	999	False	0-20000-0-41624	dera ismail khan	[36, 38, 39, 85, 104, 105, 106, 107, 117]
41624	41624	DERA ISMAIL KHAN	31.8167	70.9167	172.0			0.5	[31.82, 31.82]	[70.92, 70.92]	IGRA2			0-20300-0-41624	19790102	20211231	1935	2021	True	0-20000-0-41624	dera ismail khan	[36, 38, 39, 85, 104, 105, 106, 107, 117]
41624									[31.82, 31.82]	[70.92, 70.92]	WBAN			0-20500-0-nan	19790102	20211231				0-20000-0-41624	dera ismail khan	[36, 38, 39, 85, 104, 105, 106, 107, 117]
41624	5799	Dera Ismail Khan	31.85	70.93	190			3.5	[31.82, 31.82]	[70.92, 70.92]	CHUAN		-999	0-20400-0-5799	19790102	20211231	-999-999	-999-999		0-20000-0-41624	dera ismail khan	[36, 38, 39, 85, 104, 105, 106, 107, 117]
41624	41624	Dera Ismail Khan, Pakistan	31.82	70.92	-999			0.0	[31.82, 31.82]	[70.92, 70.92]	SCHROEDER		41624	0-20600-0-41624	19790102	20211231				0-20000-0-41624	dera ismail khan	[36, 38, 39, 85, 104, 105, 106, 107, 117]
41624	41624	DERA ISMAIL KHAN         	31.816666666666663	70.91666666666667	174.0			0.5	[31.82, 31.82]	[70.92, 70.92]	WMO		41624	0-20700-0-41624	19790102	20211231				0-20000-0-41624	dera ismail khan	[36, 38, 39, 85, 104, 105, 106, 107, 117]
