level_0	index	WIGOS	station_name	latitude	longitude	elevation	ObsRems	original_lat	original_lon	station_id	start_date	end_date	isRadio	distance_km	distance_km_minusLat	inventory	WIGOS_calc	city	city_dist_km	city_lat	city_lon	station_id_igra	WMO_id	Unnamed: 0	date_min	date_max	lat_file	lon_file	file	file_dataset	file_min_date	file_max_date	file_statid	WIGOS_best	variables
0	0	0-20000-0-41316	SALALAH AIRPORT	17.034722222222225	54.07361111111111	23.0	Climatological station, Upper-air / Radiosonde station, Surface land meteorological station (SYNOP), CLIMAT(C), GOS, GSN, RBSN(ST), RBCN	17 02 05N	054 04 25E	41316	999.0	999.0	True	0.6		OSCAR	0-20000-0-41316	salalah	1.4	17.0175	54.0827778						[17.04, 17.03]	[54.1, 54.07]	era5.conv._41316	era5_1	19830101	20211231	41316	0-20000-0-41316	[36, 38, 39, 85, 104, 105, 106, 107, 117]
1	2	0-20000-0-41312	MINA SALALAH	16.934444444444445	54.00833333333333	25.0	Surface land meteorological station (SYNOP), GOS	16 56 04N	054 00 30E	41312	999.0	999.0	False	12.4		OSCAR	0-20000-0-41312	salalah	1.4	17.0175	54.0827778						[17.04, 17.03]	[54.1, 54.07]	era5.conv._41316	era5_1	19830101	20211231	41316	0-20000-0-41316	[36, 38, 39, 85, 104, 105, 106, 107, 117]
2	3	0-20000-0-41315	QAIROON HAIRITI	17.252777777777776	54.08916666666667	881.0	Surface land meteorological station (SYNOP), GOS	17 15 10N	054 05 21E	41315	999.0	999.0	False	24.7		OSCAR	0-20000-0-41315	salalah	1.4	17.0175	54.0827778						[17.04, 17.03]	[54.1, 54.07]	era5.conv._41316	era5_1	19830101	20211231	41316	0-20000-0-41316	[36, 38, 39, 85, 104, 105, 106, 107, 117]
0	0		SALALAH AIRPORT	17.0439	54.1022	23.0				41316	1973.0	2021.0	True	3.8		IGRA2	0-20300-0-41316	salalah	1.4	17.0175	54.0827778	MUM00041316					[17.04, 17.03]	[54.1, 54.07]	era5.conv._41316	era5_1	19830101	20211231	41316	0-20000-0-41316	[36, 38, 39, 85, 104, 105, 106, 107, 117]
0	0		SALALAH	17.05	54.1	17.0688				31501	19430401.0	19450531.0		3.9		WBAN	0-20500-0-31501	salalah	1.4	17.0175	54.0827778						[17.04, 17.03]	[54.1, 54.07]	era5.conv._41316	era5_1	19830101	20211231	41316	0-20000-0-41316	[36, 38, 39, 85, 104, 105, 106, 107, 117]
0	0															CHUAN	0-20400-0-nan	salalah	1.4	17.0175	54.0827778						[17.04, 17.03]	[54.1, 54.07]	era5.conv._41316	era5_1	19830101	20211231	41316	0-20000-0-41316	[36, 38, 39, 85, 104, 105, 106, 107, 117]
0	0		Salalah, Oman	17.03	54.08	-999.0				41316				1.1		SCHROEDER	0-20600-0-41316	salalah	1.4	17.0175	54.0827778		41316	1009.0	1983-07-30 00:00:00	2005-01-26 00:00:00	[17.04, 17.03]	[54.1, 54.07]	era5.conv._41316	era5_1	19830101	20211231	41316	0-20000-0-41316	[36, 38, 39, 85, 104, 105, 106, 107, 117]
1	1		OOSA Salalah AP, Muscat	17.05	54.1	-999.0				40575				3.9		SCHROEDER	0-20600-0-40575	salalah	1.4	17.0175	54.0827778		40575	970.0	1973-01-04 00:00:00	1981-03-30 00:00:00	[17.04, 17.03]	[54.1, 54.07]	era5.conv._41316	era5_1	19830101	20211231	41316	0-20000-0-41316	[36, 38, 39, 85, 104, 105, 106, 107, 117]
0	0		SALALAH                  	17.033333333333335	54.083333333333336	-999.0				41316				1.5		WMO	0-20700-0-41316	salalah	1.4	17.0175	54.0827778		41316	2031.0			[17.04, 17.03]	[54.1, 54.07]	era5.conv._41316	era5_1	19830101	20211231	41316	0-20000-0-41316	[36, 38, 39, 85, 104, 105, 106, 107, 117]
