level_0	index	WIGOS	station_name	latitude	longitude	elevation	ObsRems	original_lat	original_lon	station_id	start_date	end_date	isRadio	distance_km	distance_km_minusLat	inventory	WIGOS_calc	city	city_dist_km	city_lat	city_lon	station_id_igra	WMO_id	Unnamed: 0	date_min	date_max	lat_file	lon_file	file	file_dataset	file_min_date	file_max_date	file_statid	WIGOS_best	variables
0	0	0-20000-0-67775	HARARE (KUTSAGA)	-17.916666666666668	31.133333333333333	1480.0	Climatological station, Surface land meteorological station (SYNOP), GSN, CLIMAT(C), RBCN, RBSN(S), GOS	17 55 00S	031 08 00E	67775	999.0	999.0	False	0.5		OSCAR	0-20000-0-67775	chitungwiza	9.0	-17.993888899999995	31.048055600000005						[-17.92, -17.93]	[31.13, 31.1]	era5.conv._67775	era5_1	19790101	20020316	67775	0-20000-0-67774	[36, 38, 39, 85, 104, 105, 106, 107, 117]
1	2	0-20000-0-67774	HARARE (BELVEDERE)	-17.831666666666667	31.017777777777777		Upper-air / Radiosonde station, Surface land meteorological station (SYNOP), RBSN(T), GUAN, GOS	17 49 54S	031 01 04E	67774	999.0	999.0	True	15.4		OSCAR	0-20000-0-67774	chitungwiza	9.0	-17.993888899999995	31.048055600000005						[-17.92, -17.93]	[31.13, 31.1]	era5.conv._67775	era5_1	19790101	20020316	67775	0-20000-0-67774	[36, 38, 39, 85, 104, 105, 106, 107, 117]
0	0		HARARE (KUTSAGA)	-17.917	31.133	1480.0				67775	1973.0	1978.0	True	0.5		IGRA2	0-20300-0-67775	chitungwiza	9.0	-17.993888899999995	31.048055600000005	ZIM00067775					[-17.92, -17.93]	[31.13, 31.1]	era5.conv._67775	era5_1	19790101	20020316	67775	0-20000-0-67774	[36, 38, 39, 85, 104, 105, 106, 107, 117]
1	2		HARARE (BELVEDERE)	-17.8333	31.0167	1471.0				67774	1970.0	2018.0	True	15.4		IGRA2	0-20300-0-67774	chitungwiza	9.0	-17.993888899999995	31.048055600000005	ZIM00067774					[-17.92, -17.93]	[31.13, 31.1]	era5.conv._67775	era5_1	19790101	20020316	67775	0-20000-0-67774	[36, 38, 39, 85, 104, 105, 106, 107, 117]
0	0															WBAN	0-20500-0-nan	chitungwiza	9.0	-17.993888899999995	31.048055600000005						[-17.92, -17.93]	[31.13, 31.1]	era5.conv._67775	era5_1	19790101	20020316	67775	0-20000-0-67774	[36, 38, 39, 85, 104, 105, 106, 107, 117]
0	0															CHUAN	0-20400-0-nan	chitungwiza	9.0	-17.993888899999995	31.048055600000005						[-17.92, -17.93]	[31.13, 31.1]	era5.conv._67775	era5_1	19790101	20020316	67775	0-20000-0-67774	[36, 38, 39, 85, 104, 105, 106, 107, 117]
0	0		FRSB Salisbury (Kutsaga) - Salisbury AP, Rhodesia	-17.93	31.1	-999.0				67775				3.4		SCHROEDER	0-20600-0-67775	chitungwiza	9.0	-17.993888899999995	31.048055600000005		67775	2140.0	9999999	9999999	[-17.92, -17.93]	[31.13, 31.1]	era5.conv._67775	era5_1	19790101	20020316	67775	0-20000-0-67774	[36, 38, 39, 85, 104, 105, 106, 107, 117]
1	1		Salisbury (Belvedere), Rhodesia	-17.83	31.02	-999.0				67774				15.3		SCHROEDER	0-20600-0-67774	chitungwiza	9.0	-17.993888899999995	31.048055600000005		67774	2139.0	1977-11-01 00:00:00	2002-01-01 00:00:00	[-17.92, -17.93]	[31.13, 31.1]	era5.conv._67775	era5_1	19790101	20020316	67775	0-20000-0-67774	[36, 38, 39, 85, 104, 105, 106, 107, 117]
0	0		SALISBURY/KUTSAGA OBSY.  	-17.933333333333334	31.08333333333333	1479.0				67775				5.2		WMO	0-20700-0-67775	chitungwiza	9.0	-17.993888899999995	31.048055600000005		67775	425.0			[-17.92, -17.93]	[31.13, 31.1]	era5.conv._67775	era5_1	19790101	20020316	67775	0-20000-0-67774	[36, 38, 39, 85, 104, 105, 106, 107, 117]
