level_0	index	WIGOS	station_name	latitude	longitude	elevation	ObsRems	original_lat	original_lon	station_id	start_date	end_date	isRadio	distance_km	distance_km_minusLat	inventory	WIGOS_calc	city	city_dist_km	city_lat	city_lon	station_id_igra	WMO_id	Unnamed: 0	date_min	date_max	lat_file	lon_file	file	file_dataset	file_min_date	file_max_date	file_statid	WIGOS_best	variables
0	0	0-20000-0-85041	COBIJA	-11.033333333333333	-68.78333333333333	235.0	Climatological station, Surface land meteorological station (SYNOP), RBSN(S), CLIMAT(C), GSN, GOS, RBCN	11 02 00S	068 47 00W	85041	999.0	999.0	False	1.5		OSCAR	0-20000-0-85041	cobija	5.3	-11.0333333	-68.7333333						[-11.02, -11.02]	[-68.78, -68.78]	era5.conv._85041	era5_1	19930329	19930329	85041	0-20000-0-85041	[36, 38, 39, 85, 104, 105, 106, 107, 117]
1	2	0-20000-0-86620	EPITACIOLANDIA	-11.024444444444445	-68.735	218.5	Surface land meteorological station (SYNOP), GOS	11 01 28S	068 44 06W	86620	999.0	999.0	False	4.9		OSCAR	0-20000-0-86620	cobija	5.3	-11.0333333	-68.7333333						[-11.02, -11.02]	[-68.78, -68.78]	era5.conv._85041	era5_1	19930329	19930329	85041	0-20000-0-85041	[36, 38, 39, 85, 104, 105, 106, 107, 117]
2	3	0-20000-0-83010	BRASILEIA	-11.016666666666667	-68.73333333333333		Surface land meteorological station (SYNOP), GOS	11 01 00S	068 44 00W	83010	999.0	999.0	False	5.1		OSCAR	0-20000-0-83010	cobija	5.3	-11.0333333	-68.7333333						[-11.02, -11.02]	[-68.78, -68.78]	era5.conv._85041	era5_1	19930329	19930329	85041	0-20000-0-85041	[36, 38, 39, 85, 104, 105, 106, 107, 117]
0	0		COBIJA	-11.0333	-68.7833	235.0				85041	2002.0	2003.0	True	1.5		IGRA2	0-20300-0-85041	cobija	5.3	-11.0333333	-68.7333333	BLM00085041					[-11.02, -11.02]	[-68.78, -68.78]	era5.conv._85041	era5_1	19930329	19930329	85041	0-20000-0-85041	[36, 38, 39, 85, 104, 105, 106, 107, 117]
0	0															WBAN	0-20500-0-nan	cobija	5.3	-11.0333333	-68.7333333						[-11.02, -11.02]	[-68.78, -68.78]	era5.conv._85041	era5_1	19930329	19930329	85041	0-20000-0-85041	[36, 38, 39, 85, 104, 105, 106, 107, 117]
0	0															CHUAN	0-20400-0-nan	cobija	5.3	-11.0333333	-68.7333333						[-11.02, -11.02]	[-68.78, -68.78]	era5.conv._85041	era5_1	19930329	19930329	85041	0-20000-0-85041	[36, 38, 39, 85, 104, 105, 106, 107, 117]
0	0		Cobija PACS-SONET pibal site (operated by AASANA = Administration of Airports and Aerial Navigation Services), Bolivia	-11.04	-68.78	-999.0				85041				2.2		SCHROEDER	0-20600-0-85041	cobija	5.3	-11.0333333	-68.7333333		85041	3582.0	2000-07-01 00:00:00	2000-07-01 00:00:00	[-11.02, -11.02]	[-68.78, -68.78]	era5.conv._85041	era5_1	19930329	19930329	85041	0-20000-0-85041	[36, 38, 39, 85, 104, 105, 106, 107, 117]
0	0		COBIJA                   	-11.016666666666667	-68.78333333333333	-999.0				85041				0.5		WMO	0-20700-0-85041	cobija	5.3	-11.0333333	-68.7333333		85041	1442.0			[-11.02, -11.02]	[-68.78, -68.78]	era5.conv._85041	era5_1	19930329	19930329	85041	0-20000-0-85041	[36, 38, 39, 85, 104, 105, 106, 107, 117]
