level_0	index	WIGOS	station_name	latitude	longitude	elevation	ObsRems	original_lat	original_lon	station_id	start_date	end_date	isRadio	distance_km	distance_km_minusLat	inventory	WIGOS_calc	city	city_dist_km	city_lat	city_lon	station_id_igra	WMO_id	Unnamed: 0	date_min	date_max	lat_file	lon_file	file	file_dataset	file_min_date	file_max_date	file_statid	WIGOS_best	variables
0	0	0-20000-0-94120	DARWIN AIRPORT	-12.423888888888888	130.89249999999998	35.0	Climatological station, Upper-air / Radiosonde station, Surface land meteorological station (SYNOP), RBCN, GRUAN, GUAN, CTBTO, GOS, RBSN(ST), GSN, CLIMAT(C)	12 25 26S	130 53 33E	94120	999.0	999.0	True	4.4		OSCAR	0-20000-0-94120	darwin	7.1	-12.45722	130.836639						[-12.4, -12.43]	[130.893, 130.86]	era5.conv._94120	era5_1	19781231	20211231	94120	0-20000-0-94120	[36, 38, 39, 85, 104, 105, 106, 107, 117]
0	0		DARWIN AIRPORT	-12.4239	130.8925	31.4				94120	1943.0	2021.0	True	4.4		IGRA2	0-20300-0-94120	darwin	7.1	-12.45722	130.836639	ASM00094120					[-12.4, -12.43]	[130.893, 130.86]	era5.conv._94120	era5_1	19781231	20211231	94120	0-20000-0-94120	[36, 38, 39, 85, 104, 105, 106, 107, 117]
0	0		DARWIN	-12.43	130.87	37.1856				81302	19440801.0	19450131.0		3.5		WBAN	0-20500-0-81302	darwin	7.1	-12.45722	130.836639						[-12.4, -12.43]	[130.893, 130.86]	era5.conv._94120	era5_1	19781231	20211231	94120	0-20000-0-94120	[36, 38, 39, 85, 104, 105, 106, 107, 117]
0	0															CHUAN	0-20400-0-nan	darwin	7.1	-12.45722	130.836639						[-12.4, -12.43]	[130.893, 130.86]	era5.conv._94120	era5_1	19781231	20211231	94120	0-20000-0-94120	[36, 38, 39, 85, 104, 105, 106, 107, 117]
0	0		Darwin Royal Australian Air Force Base, Northern Territory, Australia	-12.47	130.92	-999.0				94120				10.1		SCHROEDER	0-20600-0-94120	darwin	7.1	-12.45722	130.836639		94120	3846.0	1943-05-30 00:00:00	2007-02-23 00:00:00	[-12.4, -12.43]	[130.893, 130.86]	era5.conv._94120	era5_1	19781231	20211231	94120	0-20000-0-94120	[36, 38, 39, 85, 104, 105, 106, 107, 117]
1	1		(made up station ID) Darwin 50 MHz wind profiler, Northern Territory, Australia	-12.44	130.95	-999.0				94115				10.7		SCHROEDER	0-20600-0-94115	darwin	7.1	-12.45722	130.836639		94115	3844.0	1989-01-01 00:00:00	1990-01-01 00:00:00	[-12.4, -12.43]	[130.893, 130.86]	era5.conv._94120	era5_1	19781231	20211231	94120	0-20000-0-94120	[36, 38, 39, 85, 104, 105, 106, 107, 117]
0	0		DARWIN                   	-12.416666666666666	130.86666666666667	35.0				94120				2.0		WMO	0-20700-0-94120	darwin	7.1	-12.45722	130.836639		94120	1614.0			[-12.4, -12.43]	[130.893, 130.86]	era5.conv._94120	era5_1	19781231	20211231	94120	0-20000-0-94120	[36, 38, 39, 85, 104, 105, 106, 107, 117]
