primary_id	primary_id_scheme	record_number	secondary_id	secondary_id_scheme	station_name	station_abbreviation	alternative_name	station_crs	longitude	latitude	local_gravity	start_date	end_date	station_type	platform_type	platform_sub_type	operating_institute	operating_territory	city	contact	role	observing_frequency	reporting_time	telecommunication_method	station_automation	measuring_system_model	measuring_system_id	observed_variables	comment	optional_data	bbox_min_longitude	bbox_max_longitude	bbox_min_latitude	bbox_max_latitude	metadata_contact	metadata_contact_role
0-20000-0-78862	5	0	ACM00078861	3	VC BIRD INT'L AIRPORT ANTIGUA	-1	-1	0	-61.783	17.117	NA	1947-01-01	1993-12-31	1	0	63	NMS	-1	Sainte-Rose	NA	NA	0	63	29	1	NA	NA	[111, 112, 1, 2, 59, 29]	NA	-1	-62.30617359279054	-61.25982640720946	16.617	17.617	S. Schroeder	0
0-20000-0-41217	5	1	AEM00041217	3	ABU DHABI INTERNATIONAL AIRPORT	-1	-1	0	54.65	24.433	NA	1983-01-01	2021-12-31	1	0	63	NMS	-1	Abu Dhabi	NA	NA	0	63	29	1	NA	NA	[111, 112, 1, 2, 59, 29]	NA	-1	54.10081835565092	55.199181644349075	23.933	24.933	S. Schroeder	0
0-20000-0-41194	5	2	AEXUAE05467	3	DUBAI WORLD CENTRAL-DWC	-1	-1	0	55.37	25.25	NA	1935-01-01	1942-12-31	1	0	63	NMS	-1	Dubai	NA	NA	0	63	29	1	NA	NA	[111, 112, 1, 2, 59, 29]	NA	-1	54.81718098789872	55.92281901210127	24.75	25.75	S. Schroeder	0
0-20000-0-40911	5	3	AFM00040911	3	MAZAR-I-SHARIF	-1	-1	0	67.2	36.7	NA	2010-01-01	2014-12-31	1	0	63	NMS	-1	Kholm	NA	NA	0	63	29	1	NA	NA	[111, 112, 1, 2, 59, 29]	NA	-1	66.57638414986825	67.82361585013176	36.2	37.2	S. Schroeder	0
0-20000-0-40913	5	4	AFM00040913	3	KUNDUZ	-1	-1	0	68.917	36.667	NA	2010-01-01	2013-12-31	1	0	63	NMS	-1	Qunduz	NA	NA	0	63	29	1	NA	NA	[111, 112, 1, 2, 59, 29]	NA	-1	68.29365165386508	69.54034834613492	36.167	37.167	S. Schroeder	0
0-20000-0-40938	5	5	AFM00040938	3	HERAT	-1	-1	0	62.217	34.217	NA	1978-01-01	1988-12-31	1	0	63	NMS	-1	Herat	NA	NA	0	63	29	1	NA	NA	[111, 112, 1, 2, 59, 29]	NA	-1	61.612342027741626	62.82165797225837	33.717	34.717	S. Schroeder	0
0-20000-0-40948	5	6	AFM00040948	3	KABUL AIRPORT	-1	-1	0	69.217	34.55	NA	1961-01-01	2021-12-31	1	0	63	NMS	-1	Kabul	NA	NA	0	63	29	1	NA	NA	[111, 112, 1, 2, 59, 29]	NA	-1	68.60993246551146	69.82406753448853	34.05	35.05	S. Schroeder	0
0-20000-0-40990	5	7	AFM00040990	3	KANDAHAR AIRPORT	-1	-1	0	65.85	31.5	NA	1976-01-01	2014-12-31	1	0	63	NMS	-1	Qandahar	NA	NA	0	63	29	1	NA	NA	[111, 112, 1, 2, 59, 29]	NA	-1	65.26358615169299	66.436413848307	31.0	32.0	S. Schroeder	0
0-20000-0-60355	5	8	AGM00060355	3	SKIKDA	-1	-1	0	6.9	36.883	NA	1974-01-01	1976-12-31	1	0	63	NMS	-1	Constantine	NA	NA	0	63	29	1	NA	NA	[111, 112, 1, 2, 59, 29]	NA	-1	6.274892771881293	7.525107228118708	36.383	37.383	S. Schroeder	0
0-20000-0-60360	5	9	AGM00060360	3	GUELMA	-1	-1	0	7.817	36.833	NA	1973-01-01	2008-12-31	1	0	63	NMS	-1	Tabarqah	NA	NA	0	63	29	1	NA	NA	[111, 112, 1, 2, 59, 29]	NA	-1	7.192301592935637	8.441698407064363	36.333	37.333	S. Schroeder	0
0-20000-0-60390	5	10	AGM00060390	3	DAR-EL-BEIDA	-1	-1	0	3.217	36.683	NA	1948-01-01	2021-12-31	1	0	63	NMS	-1	Algiers	NA	NA	0	63	29	1	NA	NA	[111, 112, 1, 2, 59, 29]	NA	-1	2.5935220094533484	3.8404779905466517	36.183	37.183	S. Schroeder	0
0-20000-0-60402	5	11	AGM00060402	3	BEJAIA-AEROPORT	-1	-1	0	5.067	36.717	NA	1973-01-01	1988-12-31	1	0	63	NMS	-1	Tazmalt	NA	NA	0	63	29	1	NA	NA	[111, 112, 1, 2, 59, 29]	NA	-1	4.4432461743803975	5.690753825619603	36.217	37.217	S. Schroeder	0
0-20000-0-60419	5	12	AGM00060419	3	CONSTANTINE	-1	-1	0	6.617	36.283	NA	1973-01-01	2008-12-31	1	0	63	NMS	-1	Constantine	NA	NA	0	63	29	1	NA	NA	[111, 112, 1, 2, 59, 29]	NA	-1	5.99673256348584	7.23726743651416	35.783	36.783	S. Schroeder	0
0-20000-0-60425	5	13	AGM00060425	3	TENES	-1	-1	0	1.333	36.217	NA	1973-01-01	1977-12-31	1	0	63	NMS	-1	Sidi Ali	NA	NA	0	63	29	1	NA	NA	[111, 112, 1, 2, 59, 29]	NA	-1	0.7132562331176464	1.9527437668823535	35.717	36.717	S. Schroeder	0
0-20000-0-60430	5	14	AGM00060430	3	MEDEA	-1	-1	0	2.233	36.3	NA	1973-01-01	1990-12-31	1	0	63	NMS	-1	Médéa	NA	NA	0	63	29	1	NA	NA	[111, 112, 1, 2, 59, 29]	NA	-1	1.6125974021348217	2.8534025978651787	35.8	36.8	S. Schroeder	0
0-20000-0-60445	5	15	AGM00060445	3	BORDJ-BOU-ARRERIDJ	-1	-1	0	5.25	36.183	NA	1983-01-01	1989-12-31	1	0	63	NMS	-1	Tazmalt	NA	NA	0	63	29	1	NA	NA	[111, 112, 1, 2, 59, 29]	NA	-1	4.6305253367748165	5.8694746632251835	35.683	36.683	S. Schroeder	0
0-20000-0-60475	5	16	AGM00060475	3	THALA	-1	-1	0	8.117	35.417	NA	1974-01-01	1991-12-31	1	0	63	NMS	-1	Talah	NA	NA	0	63	29	1	NA	NA	[111, 112, 1, 2, 59, 29]	NA	-1	7.503469856810167	8.730530143189835	34.917	35.917	S. Schroeder	0
0-20000-0-60461	5	17	AGM00060490	3	SIDI-BEL-ABBES	-1	-1	0	-0.6	35.633	NA	1973-01-01	2008-12-31	1	0	63	NMS	-1	Wahran	NA	NA	0	63	29	1	NA	NA	[111, 112, 1, 2, 59, 29]	NA	-1	-1.2151837077887657	0.015183707788765766	35.133	36.133	S. Schroeder	0
0-20000-0-60511	5	18	AGM00060511	3	TIARET	-1	-1	0	1.467	35.35	NA	1987-01-01	1988-12-31	1	0	63	NMS	-1	Sidi Ali	NA	NA	0	63	29	1	NA	NA	[111, 112, 1, 2, 59, 29]	NA	-1	0.8539791954590573	2.080020804540943	34.85	35.85	S. Schroeder	0
0-20000-0-60525	5	19	AGM00060525	3	BISKRA	-1	-1	0	5.733	34.8	NA	1973-01-01	2002-12-31	1	0	63	NMS	-1	Constantine	NA	NA	0	63	29	1	NA	NA	[111, 112, 1, 2, 59, 29]	NA	-1	5.124097264128781	6.341902735871218	34.3	35.3	S. Schroeder	0
0-20000-0-60535	5	20	AGM00060535	3	DJELFA	-1	-1	0	3.25	34.683	NA	1974-01-01	1989-12-31	1	0	63	NMS	-1	Birin	NA	NA	0	63	29	1	NA	NA	[111, 112, 1, 2, 59, 29]	NA	-1	2.6419589589231784	3.8580410410768216	34.183	35.183	S. Schroeder	0
0-20000-0-60549	5	21	AGM00060549	3	NAAMA	-1	-1	0	-0.283	33.533	NA	1982-01-01	2012-12-31	1	0	63	NMS	-1	Aflu	NA	NA	0	63	29	1	NA	NA	[111, 112, 1, 2, 59, 29]	NA	-1	-0.882831238040028	0.31683123804002805	33.033	34.033	S. Schroeder	0
0-20000-0-60550	5	22	AGM00060550	3	EL-BAYADH	-1	-1	0	1.0	33.683	NA	1977-01-01	1991-12-31	1	0	63	NMS	-1	Aflu	NA	NA	0	63	29	1	NA	NA	[111, 112, 1, 2, 59, 29]	NA	-1	0.3991241955117777	1.6008758044882223	33.183	34.183	S. Schroeder	0
0-20000-0-60559	5	23	AGM00060559	3	EL-OUED	-1	-1	0	6.783	33.5	NA	1973-01-01	2008-12-31	1	0	63	NMS	-1	Tuggurt	NA	NA	0	63	29	1	NA	NA	[111, 112, 1, 2, 59, 29]	NA	-1	6.183397528332451	7.38260247166755	33.0	34.0	S. Schroeder	0
0-20000-0-60566	5	24	AGM00060566	3	GHARDAIA	-1	-1	0	3.817	32.383	NA	1973-01-01	2008-12-31	1	0	63	NMS	-1	Warqla	NA	NA	0	63	29	1	NA	NA	[111, 112, 1, 2, 59, 29]	NA	-1	3.2249244841266234	4.409075515873377	31.883000000000003	32.883	S. Schroeder	0
0-20000-0-60571	5	25	AGM00060571	3	BECHAR	-1	-1	0	-2.25	31.5	NA	1948-01-01	2021-12-31	1	0	63	NMS	-1	Mrirt	NA	NA	0	63	29	1	NA	NA	[111, 112, 1, 2, 59, 29]	NA	-1	-2.8364138483070045	-1.6635861516929955	31.0	32.0	S. Schroeder	0
0-20000-0-60580	5	26	AGM00060580	3	OUARGLA	-1	-1	0	5.4	31.933	NA	1963-01-01	1997-12-31	1	0	63	NMS	-1	Warqla	NA	NA	0	63	29	1	NA	NA	[111, 112, 1, 2, 59, 29]	NA	-1	4.810840896229025	5.989159103770976	31.433	32.433	S. Schroeder	0
0-20000-0-60590	5	27	AGM00060590	3	EL-GOLEA	-1	-1	0	2.867	30.567	NA	1973-01-01	2008-12-31	1	0	63	NMS	-1	Warqla	NA	NA	0	63	29	1	NA	NA	[111, 112, 1, 2, 59, 29]	NA	-1	2.286303560536659	3.447696439463341	30.067	31.067	S. Schroeder	0
0-20000-0-60602	5	28	AGM00060602	3	BENI-ABBES	-1	-1	0	-2.167	30.133	NA	1981-01-01	1990-12-31	1	0	63	NMS	-1	Adrar	NA	NA	0	63	29	1	NA	NA	[111, 112, 1, 2, 59, 29]	NA	-1	-2.7451266291851404	-1.5888733708148592	29.633	30.633	S. Schroeder	0
0-20000-0-60607	5	29	AGM00060607	3	TIMIMOUN	-1	-1	0	0.283	29.25	NA	1973-01-01	1991-12-31	1	0	63	NMS	-1	Adrar	NA	NA	0	63	29	1	NA	NA	[111, 112, 1, 2, 59, 29]	NA	-1	-0.2900685251815511	0.856068525181551	28.75	29.75	S. Schroeder	0
0-20000-0-60611	5	30	AGM00060611	3	IN-AMENAS	-1	-1	0	9.633	28.05	NA	1973-01-01	1989-12-31	1	0	63	NMS	-1	Gat	NA	NA	0	63	29	1	NA	NA	[111, 112, 1, 2, 59, 29]	NA	-1	9.066451878361713	10.199548121638285	27.55	28.55	S. Schroeder	0
0-20000-0-60620	5	31	AGM00060620	3	ADRAR	-1	-1	0	-0.283	27.883	NA	1973-01-01	2008-12-31	1	0	63	NMS	-1	Adrar	NA	NA	0	63	29	1	NA	NA	[111, 112, 1, 2, 59, 29]	NA	-1	-0.8486720158121681	0.2826720158121682	27.383	28.383	S. Schroeder	0
0-20000-0-60625	5	32	AGM00060625	3	AOULEF	-1	-1	0	1.083	26.967	NA	1949-01-01	1962-12-31	1	0	63	NMS	-1	Adrar	NA	NA	0	63	29	1	NA	NA	[111, 112, 1, 2, 59, 29]	NA	-1	0.5220014219037784	1.6439985780962214	26.467	27.467	S. Schroeder	0
0-20000-0-60630	5	33	AGM00060630	3	IN-SALAH	-1	-1	0	2.5	27.233	NA	1964-01-01	2021-12-31	1	0	63	NMS	-1	Adrar	NA	NA	0	63	29	1	NA	NA	[111, 112, 1, 2, 59, 29]	NA	-1	1.9376670555159525	3.0623329444840475	26.733	27.733	S. Schroeder	0
0-20000-0-60640	5	34	AGM00060640	3	ILLIZI	-1	-1	0	8.417	26.5	NA	1973-01-01	1986-12-31	1	0	63	NMS	-1	Gat	NA	NA	0	63	29	1	NA	NA	[111, 112, 1, 2, 59, 29]	NA	-1	7.85829980761388	8.97570019238612	26.0	27.0	S. Schroeder	0
0-20000-0-60656	5	35	AGM00060656	3	TINDOUF	-1	-1	0	-8.167	27.7	NA	1973-01-01	2021-12-31	1	0	63	NMS	-1	Tiznit	NA	NA	0	63	29	1	NA	NA	[111, 112, 1, 2, 59, 29]	NA	-1	-8.731720577894341	-7.602279422105658	27.2	28.2	S. Schroeder	0
0-20000-0-60670	5	36	AGM00060670	3	DJANET	-1	-1	0	9.467	24.267	NA	1973-01-01	1985-12-31	1	0	63	NMS	-1	Gat	NA	NA	0	63	29	1	NA	NA	[111, 112, 1, 2, 59, 29]	NA	-1	8.918537972416196	10.015462027583805	23.767	24.767	S. Schroeder	0
0-20000-0-60678	5	37	AGM00060678	3	IN AMGUEL	-1	-1	0	5.15	23.817	NA	1964-01-01	1965-12-31	1	0	63	NMS	-1	Gat	NA	NA	0	63	29	1	NA	NA	[111, 112, 1, 2, 59, 29]	NA	-1	4.603456278334668	5.696543721665333	23.317	24.317	S. Schroeder	0
0-20000-0-60680	5	38	AGM00060680	3	TAMANRASSET	-1	-1	0	5.433	22.8	NA	1934-01-01	2021-12-31	1	0	63	NMS	-1	Arlit	NA	NA	0	63	29	1	NA	NA	[111, 112, 1, 2, 59, 29]	NA	-1	4.890620147699331	5.9753798523006685	22.3	23.3	S. Schroeder	0
0-20000-0-60686	5	39	AGM00060686	3	BORDJ-BADJ-MOKHTAR	-1	-1	0	0.95	21.333	NA	2011-01-01	2012-12-31	1	0	63	NMS	-1	Kidal	NA	NA	0	63	29	1	NA	NA	[111, 112, 1, 2, 59, 29]	NA	-1	0.4132208914047626	1.4867791085952373	20.833	21.833	S. Schroeder	0
0-20000-0-60390	5	40	AGXUAE04843	3	DAR-EL-BEIDA	-1	-1	0	3.05	36.77	NA	1930-01-01	1938-12-31	1	0	63	NMS	-1	Algiers	NA	NA	0	63	29	1	NA	NA	[111, 112, 1, 2, 59, 29]	NA	-1	2.4258152704538016	3.674184729546198	36.27	37.27	S. Schroeder	0
0-20000-0-37575	5	41	AJM00037575	3	SARIBASH	-1	-1	0	46.667	41.55	NA	1973-01-01	1978-12-31	1	0	63	NMS	-1	Zaqatala	NA	NA	0	63	29	1	NA	NA	[111, 112, 1, 2, 59, 29]	NA	-1	45.99888770812748	47.33511229187253	41.05	42.05	S. Schroeder	0
0-20000-0-37735	5	42	AJM00037735	3	MINGACHEVIR	-1	-1	0	46.417	40.717	NA	1973-01-01	1982-12-31	1	0	63	NMS	-1	Xanlar	NA	NA	0	63	29	1	NA	NA	[111, 112, 1, 2, 59, 29]	NA	-1	45.75731789036354	47.076682109636465	40.217	41.217	S. Schroeder	0
0-20000-0-37747	5	43	AJM00037747	3	GOYCHAY	-1	-1	0	47.15	40.617	NA	1973-01-01	1973-12-31	1	0	63	NMS	-1	Yevlax	NA	NA	0	63	29	1	NA	NA	[111, 112, 1, 2, 59, 29]	NA	-1	46.49130632434185	47.80869367565815	40.117	41.117	S. Schroeder	0
0-20000-0-37860	5	44	AJM00037860	3	MASHTAGA	-1	-1	0	50.0	40.533	NA	1947-01-01	2016-12-31	1	0	63	NMS	-1	Mastaga	NA	NA	0	63	29	1	NA	NA	[111, 112, 1, 2, 59, 29]	NA	-1	49.34213277609434	50.65786722390566	40.033	41.033	S. Schroeder	0
0-20000-0-37895	5	45	AJM00037895	3	FIZULY	-1	-1	0	46.75	39.983	NA	1973-01-01	1980-12-31	1	0	63	NMS	-1	Agdam	NA	NA	0	63	29	1	NA	NA	[111, 112, 1, 2, 59, 29]	NA	-1	46.09745878710076	47.40254121289924	39.483	40.483	S. Schroeder	0
0-20000-0-37936	5	46	AJM00037936	3	SHARUR	-1	-1	0	45.417	39.2	NA	1973-01-01	1980-12-31	1	0	63	NMS	-1	Culfa	NA	NA	0	63	29	1	NA	NA	[111, 112, 1, 2, 59, 29]	NA	-1	44.77179249509075	46.06220750490925	38.7	39.7	S. Schroeder	0
0-20000-0-37985	5	47	AJM00037985	3	LANKARAN	-1	-1	0	48.833	38.733	NA	1953-01-01	1997-12-31	1	0	63	NMS	-1	Astara	NA	NA	0	63	29	1	NA	NA	[111, 112, 1, 2, 59, 29]	NA	-1	48.19203201650526	49.47396798349474	38.233	39.233	S. Schroeder	0
0-20000-0-37686	5	48	AMM00037686	3	STEPANAVAN	-1	-1	0	43.833	40.783	NA	1973-01-01	1976-12-31	1	0	63	NMS	-1	Gyumri	NA	NA	0	63	29	1	NA	NA	[111, 112, 1, 2, 59, 29]	NA	-1	43.17266279410671	44.49333720589329	40.283	41.283	S. Schroeder	0
0-20001-0-37789	5	49	AMM00037789	3	YEREVAN AERO	-1	-1	0	44.502	40.217	NA	1949-01-01	2021-12-31	1	0	63	NMS	-1	Yerevan	NA	NA	0	63	29	1	NA	NA	[111, 112, 1, 2, 59, 29]	NA	-1	43.84721075954333	45.156789240456675	39.717	40.717	S. Schroeder	0
0-20000-0-66152	5	50	AOM00066152	3	DUNDO	-1	-1	0	20.817	-7.4	NA	1952-01-01	1975-12-31	1	0	63	NMS	-1	Tshikapa	NA	NA	0	63	29	1	NA	NA	[111, 112, 1, 2, 59, 29]	NA	-1	20.312800605113445	21.321199394886555	-7.9	-6.9	S. Schroeder	0
0-20000-0-66160	5	51	AOM00066160	3	LUANDA	-1	-1	0	13.233	-8.85	NA	1948-01-01	1993-12-31	1	0	63	NMS	-1	Luanda	NA	NA	0	63	29	1	NA	NA	[111, 112, 1, 2, 59, 29]	NA	-1	12.726975525541633	13.739024474458368	-9.35	-8.35	S. Schroeder	0
0-20000-0-66285	5	52	AOM00066285	3	LUENA (LUSO)	-1	-1	0	19.917	-11.783	NA	1952-01-01	1975-12-31	1	0	63	NMS	-1	Luena	NA	NA	0	63	29	1	NA	NA	[111, 112, 1, 2, 59, 29]	NA	-1	19.406237217304593	20.42776278269541	-12.283	-11.283	S. Schroeder	0
0-20000-0-66318	5	53	AOM00066318	3	HUAMBO (NOVA LISBOA)	-1	-1	0	15.75	-12.8	NA	1952-01-01	1973-12-31	1	0	63	NMS	-1	Huambo	NA	NA	0	63	29	1	NA	NA	[111, 112, 1, 2, 59, 29]	NA	-1	15.237258030995603	16.262741969004395	-13.3	-12.3	S. Schroeder	0
0-20000-0-66390	5	54	AOM00066390	3	LUBANGO (SA DA BANDEIRA)	-1	-1	0	13.567	-14.933	NA	1973-01-01	1974-12-31	1	0	63	NMS	-1	Lubango	NA	NA	0	63	29	1	NA	NA	[111, 112, 1, 2, 59, 29]	NA	-1	13.049523697789272	14.084476302210728	-15.433	-14.433	S. Schroeder	0
0-20000-0-66422	5	55	AOM00066422	3	MOCAMEDES	-1	-1	0	12.167	-15.217	NA	1954-01-01	1970-12-31	1	0	63	NMS	-1	Namibe	NA	NA	0	63	29	1	NA	NA	[111, 112, 1, 2, 59, 29]	NA	-1	11.648832347177828	12.685167652822171	-15.717	-14.717	S. Schroeder	0
0-20000-0-66305	5	56	AOXUAE05971	3	MONBACA (BENGUELA)	-1	-1	0	13.53	-12.37	NA	1952-01-01	1952-12-31	1	0	63	NMS	-1	Catumbela	NA	NA	0	63	29	1	NA	NA	[111, 112, 1, 2, 59, 29]	NA	-1	13.018116407198946	14.041883592801053	-12.87	-11.87	S. Schroeder	0
0-20000-0-91765	5	57	AQM00091765	3	PAGO PAGO/INT.AIRP. AMERICAN SAMOA	-1	-1	0	-170.719	-14.338	NA	1966-01-01	2021-12-31	1	0	63	NMS	-1	Apia	NA	NA	0	63	29	1	NA	NA	[111, 112, 1, 2, 59, 29]	NA	-1	-171.2350748531347	-170.20292514686528	-14.838	-13.838	S. Schroeder	0
0-20000-0-91765	5	58	AQW00061704	3	PAGO PAGO/INT.AIRP. AMERICAN SAMOA	-1	-1	0	-170.783	-14.367	NA	1962-01-01	1962-12-31	1	0	63	NMS	-1	Apia	NA	NA	0	63	29	1	NA	NA	[111, 112, 1, 2, 59, 29]	NA	-1	-171.29914169374797	-170.266858306252	-14.867	-13.867	S. Schroeder	0
0-20000-0-87047	5	59	ARM00087047	3	SALTA AERO	-1	-1	0	-65.483	-24.85	NA	1965-01-01	2014-12-31	1	0	63	NMS	-1	Salta	NA	NA	0	63	29	1	NA	NA	[111, 112, 1, 2, 59, 29]	NA	-1	-66.03401817075793	-64.93198182924208	-25.35	-24.35	S. Schroeder	0
0-20000-0-87155	5	60	ARM00087155	3	RESISTENCIA AERO	-1	-1	0	-59.05	-27.45	NA	1961-01-01	2021-12-31	1	0	63	NMS	-1	Resistencia	NA	NA	0	63	29	1	NA	NA	[111, 112, 1, 2, 59, 29]	NA	-1	-59.613435230395595	-58.4865647696044	-27.95	-26.95	S. Schroeder	0
0-20000-0-87155	5	61	ARM00087157	3	RESISTENCIA AERO	-1	-1	0	-58.983	-27.467	NA	1957-01-01	1961-12-31	1	0	63	NMS	-1	Resistencia	NA	NA	0	63	29	1	NA	NA	[111, 112, 1, 2, 59, 29]	NA	-1	-59.54652210883952	-58.419477891160476	-27.967	-26.967	S. Schroeder	0
0-20000-0-87344	5	62	ARM00087344	3	CORDOBA AERO	-1	-1	0	-64.217	-31.317	NA	1959-01-01	2021-12-31	1	0	63	NMS	-1	Cordoba	NA	NA	0	63	29	1	NA	NA	[111, 112, 1, 2, 59, 29]	NA	-1	-64.80227130937614	-63.63172869062386	-31.817	-30.817	S. Schroeder	0
0-20000-0-87418	5	63	ARM00087418	3	MENDOZA AERO	-1	-1	0	-68.783	-32.833	NA	1974-01-01	2021-12-31	1	0	63	NMS	-1	Mendoza	NA	NA	0	63	29	1	NA	NA	[111, 112, 1, 2, 59, 29]	NA	-1	-69.37805783340389	-68.18794216659612	-33.333	-32.333	S. Schroeder	0
0-20000-0-87418	5	64	ARM00087420	3	MENDOZA AERO	-1	-1	0	-68.85	-32.883	NA	1965-01-01	1973-12-31	1	0	63	NMS	-1	Mendoza	NA	NA	0	63	29	1	NA	NA	[111, 112, 1, 2, 59, 29]	NA	-1	-69.44539332939219	-68.2546066706078	-33.383	-32.383	S. Schroeder	0
0-20000-0-87576	5	65	ARM00087576	3	EZEIZA AERO	-1	-1	0	-58.533	-34.817	NA	1957-01-01	2021-12-31	1	0	63	NMS	-1	San Vicente	NA	NA	0	63	29	1	NA	NA	[111, 112, 1, 2, 59, 29]	NA	-1	-59.14202835408227	-57.92397164591773	-35.317	-34.317	S. Schroeder	0
0-20000-0-87576	5	66	ARM00087585	3	EZEIZA AERO	-1	-1	0	-58.48	-34.58	NA	1957-01-01	1957-12-31	1	0	63	NMS	-1	San Vicente	NA	NA	0	63	29	1	NA	NA	[111, 112, 1, 2, 59, 29]	NA	-1	-59.08728656434617	-57.87271343565382	-35.08	-34.08	S. Schroeder	0
0-20000-0-87596	5	67	ARM00087596	3	PUNTA INDIO B.A.	-1	-1	0	-57.283	-35.367	NA	1975-01-01	1978-12-31	1	0	63	NMS	-1	La Plata	NA	NA	0	63	29	1	NA	NA	[111, 112, 1, 2, 59, 29]	NA	-1	-57.896149880268865	-56.66985011973114	-35.867	-34.867	S. Schroeder	0
0-20000-0-87623	5	68	ARM00087623	3	SANTA ROSA AERO	-1	-1	0	-64.267	-36.567	NA	1965-01-01	2021-12-31	1	0	63	NMS	-1	Santa Rosa	NA	NA	0	63	29	1	NA	NA	[111, 112, 1, 2, 59, 29]	NA	-1	-64.88954038737154	-63.64445961262845	-37.067	-36.067	S. Schroeder	0
0-20000-0-87715	5	69	ARM00087715	3	NEUQUEN AERO	-1	-1	0	-68.133	-38.95	NA	1957-01-01	2021-12-31	1	0	63	NMS	-1	Neuquen	NA	NA	0	63	29	1	NA	NA	[111, 112, 1, 2, 59, 29]	NA	-1	-68.77592569159056	-67.49007430840943	-39.45	-38.45	S. Schroeder	0
0-20000-0-87750	5	70	ARM00087748	3	BAHIA BLANCA AERO	-1	-1	0	-62.167	-38.733	NA	1964-01-01	1993-12-31	1	0	63	NMS	-1	Bahia Blanca	NA	NA	0	63	29	1	NA	NA	[111, 112, 1, 2, 59, 29]	NA	-1	-62.80796798349474	-61.52603201650526	-39.233	-38.233	S. Schroeder	0
0-20000-0-87828	5	71	ARM00087827	3	PUERTO MADRYN AERO	-1	-1	0	-65.3	-43.233	NA	1973-01-01	1975-12-31	1	0	63	NMS	-1	Trelew	NA	NA	0	63	29	1	NA	NA	[111, 112, 1, 2, 59, 29]	NA	-1	-65.98627186564822	-64.61372813435177	-43.733	-42.733	S. Schroeder	0
0-20000-0-87860	5	72	ARM00087860	3	COMODORO RIVADAVIA AERO	-1	-1	0	-67.5	-45.783	NA	1958-01-01	2021-12-31	1	0	63	NMS	-1	Comodoro Rivadavia	NA	NA	0	63	29	1	NA	NA	[111, 112, 1, 2, 59, 29]	NA	-1	-68.21697150611637	-66.78302849388363	-46.283	-45.283	S. Schroeder	0
0-20000-0-87925	5	73	ARM00087926	3	RIO GALLEGOS AERO	-1	-1	0	-69.217	-51.633	NA	1967-01-01	1977-12-31	1	0	63	NMS	-1	Rio Gallegos	NA	NA	0	63	29	1	NA	NA	[111, 112, 1, 2, 59, 29]	NA	-1	-70.02254692880943	-68.41145307119056	-52.133	-51.133	S. Schroeder	0
0-20000-0-87934	5	74	ARM00087934	3	RIO GRANDE B.A.	-1	-1	0	-67.75	-53.8	NA	1977-01-01	1984-12-31	1	0	63	NMS	-1	Ushuaia	NA	NA	0	63	29	1	NA	NA	[111, 112, 1, 2, 59, 29]	NA	-1	-68.59658855715853	-66.90341144284147	-54.3	-53.3	S. Schroeder	0
0-20000-0-87938	5	75	ARM00087938	3	PUERTO WILLIAMS	-1	-1	0	-68.317	-54.8	NA	1957-01-01	1967-12-31	1	0	63	NMS	-1	Ushuaia	NA	NA	0	63	29	1	NA	NA	[111, 112, 1, 2, 59, 29]	NA	-1	-69.18440452603757	-67.44959547396242	-55.3	-54.3	S. Schroeder	0
0-20000-0-88986	5	76	ARM00088946	3	SOUTH THULE IS.	-1	-1	0	-27.267	-59.45	NA	1980-01-01	1981-12-31	1	0	63	NMS	-1	Ushuaia	NA	NA	0	63	29	1	NA	NA	[111, 112, 1, 2, 59, 29]	NA	-1	-28.250690252521206	-26.283309747478793	-59.95	-58.95	S. Schroeder	0
0-20000-0-94120	5	77	ASM00094120	3	DARWIN AIRPORT	-1	-1	0	130.893	-12.424	NA	1943-01-01	2021-12-31	1	0	63	NMS	-1	Darwin	NA	NA	0	63	29	1	NA	NA	[111, 112, 1, 2, 59, 29]	NA	-1	130.38101035161085	131.40498964838915	-12.924	-11.924	S. Schroeder	0
0-20000-0-94150	5	78	ASM00094150	3	GOVE AIRPORT	-1	-1	0	136.82	-12.274	NA	1985-01-01	2021-12-31	1	0	63	NMS	-1	Katherine	NA	NA	0	63	29	1	NA	NA	[111, 112, 1, 2, 59, 29]	NA	-1	136.30830372009646	137.33169627990353	-12.774	-11.774	S. Schroeder	0
0-20000-0-94170	5	79	ASM00094170	3	WEIPA AERO	-1	-1	0	141.921	-12.678	NA	1993-01-01	2021-12-31	1	0	63	NMS	-1	Daru	NA	NA	0	63	29	1	NA	NA	[111, 112, 1, 2, 59, 29]	NA	-1	141.40850479648628	142.4334952035137	-13.178	-12.178	S. Schroeder	0
0-20000-0-94174	5	80	ASM00094175	3	HORN ISLAND	-1	-1	0	142.217	-10.583	NA	1951-01-01	1993-12-31	1	0	63	NMS	-1	Daru	NA	NA	0	63	29	1	NA	NA	[111, 112, 1, 2, 59, 29]	NA	-1	141.70834776720167	142.72565223279835	-11.083	-10.083	S. Schroeder	0
0-20000-0-94203	5	81	ASM00094203	3	BROOME AIRPORT	-1	-1	0	122.235	-17.948	NA	1950-01-01	2021-12-31	1	0	63	NMS	-1	Broome	NA	NA	0	63	29	1	NA	NA	[111, 112, 1, 2, 59, 29]	NA	-1	121.70942365743632	122.76057634256368	-18.448	-17.448	S. Schroeder	0
0-20000-0-95205	5	82	ASM00094205	3	CURTIN AERO	-1	-1	0	123.633	-17.317	NA	1972-01-01	1981-12-31	1	0	63	NMS	-1	Broome	NA	NA	0	63	29	1	NA	NA	[111, 112, 1, 2, 59, 29]	NA	-1	123.1092601969491	124.1567398030509	-17.817	-16.817	S. Schroeder	0
0-20000-0-94212	5	83	ASM00094212	3	HALLS CREEK AIRPORT	-1	-1	0	127.664	-18.229	NA	1950-01-01	2016-12-31	1	0	63	NMS	-1	Broome	NA	NA	0	63	29	1	NA	NA	[111, 112, 1, 2, 59, 29]	NA	-1	127.13758105620732	128.19041894379268	-18.729	-17.729	S. Schroeder	0
0-20000-0-94234	5	84	ASM00094234	3	DALY WATERS AWS	-1	-1	0	133.383	-16.267	NA	1948-01-01	1970-12-31	1	0	63	NMS	-1	Katherine	NA	NA	0	63	29	1	NA	NA	[111, 112, 1, 2, 59, 29]	NA	-1	132.8621486458547	133.90385135414533	-16.767	-15.767	S. Schroeder	0
0-20000-0-94238	5	85	ASM00094238	3	TENNANT CREEK AIRPORT	-1	-1	0	134.183	-19.642	NA	1969-01-01	2012-12-31	1	0	63	NMS	-1	Alice Springs	NA	NA	0	63	29	1	NA	NA	[111, 112, 1, 2, 59, 29]	NA	-1	133.65210809039658	134.7138919096034	-20.142	-19.142	S. Schroeder	0
0-20000-0-94260	5	86	ASM00094259	3	BURKETOWN AIRPORT	-1	-1	0	139.533	-17.733	NA	1987-01-01	1987-12-31	1	0	63	NMS	-1	Mount Isa	NA	NA	0	63	29	1	NA	NA	[111, 112, 1, 2, 59, 29]	NA	-1	139.00805801838177	140.0579419816182	-18.233	-17.233	S. Schroeder	0
0-20000-0-94266	5	87	ASM00094266	3	NORMANTON AIRPORT	-1	-1	0	141.067	-17.683	NA	1950-01-01	1951-12-31	1	0	63	NMS	-1	Mount Isa	NA	NA	0	63	29	1	NA	NA	[111, 112, 1, 2, 59, 29]	NA	-1	140.5422042663122	141.5917957336878	-18.183	-17.183	S. Schroeder	0
0-20000-0-94287	5	88	ASM00094287	3	MOORE REEF	-1	-1	0	145.746	-16.874	NA	1947-01-01	2014-12-31	1	0	63	NMS	-1	Cairns	NA	NA	0	63	29	1	NA	NA	[111, 112, 1, 2, 59, 29]	NA	-1	145.22350415128193	146.2684958487181	-17.374	-16.374	S. Schroeder	0
0-20000-0-94294	5	89	ASM00094294	3	TOWNSVILLE AERO	-1	-1	0	146.766	-19.248	NA	1943-01-01	2020-12-31	1	0	63	NMS	-1	Townsville	NA	NA	0	63	29	1	NA	NA	[111, 112, 1, 2, 59, 29]	NA	-1	146.23639538156232	147.29560461843766	-19.748	-18.748	S. Schroeder	0
0-20000-0-94299	5	90	ASM00094299	3	WILLIS ISLAND	-1	-1	0	149.965	-16.283	NA	1947-01-01	2021-12-31	1	0	63	NMS	-1	Innisfail	NA	NA	0	63	29	1	NA	NA	[111, 112, 1, 2, 59, 29]	NA	-1	149.4441061807015	150.4858938192985	-16.783	-15.783000000000001	S. Schroeder	0
0-20000-0-94300	5	91	ASM00094300	3	CARNARVON AIRPORT	-1	-1	0	113.67	-24.888	NA	1950-01-01	2012-12-31	1	0	63	NMS	-1	Geraldton	NA	NA	0	63	29	1	NA	NA	[111, 112, 1, 2, 59, 29]	NA	-1	113.11881240764448	114.22118759235552	-25.388	-24.388	S. Schroeder	0
0-20000-0-94302	5	92	ASM00094302	3	LEARMONTH AIRPORT	-1	-1	0	114.097	-22.241	NA	1975-01-01	2021-12-31	1	0	63	NMS	-1	Karratha	NA	NA	0	63	29	1	NA	NA	[111, 112, 1, 2, 59, 29]	NA	-1	113.55680983590116	114.63719016409883	-22.741	-21.741	S. Schroeder	0
0-20000-0-95305	5	93	ASM00094305	3	THEVENARD ISLAND	-1	-1	0	115.117	-21.633	NA	1950-01-01	1975-12-31	1	0	63	NMS	-1	Karratha	NA	NA	0	63	29	1	NA	NA	[111, 112, 1, 2, 59, 29]	NA	-1	114.57911359865287	115.65488640134714	-22.133	-21.133	S. Schroeder	0
0-20000-0-94312	5	94	ASM00094312	3	PORT HEDLAND AIRPORT	-1	-1	0	118.632	-20.372	NA	1950-01-01	2021-12-31	1	0	63	NMS	-1	Port Hedland	NA	NA	0	63	29	1	NA	NA	[111, 112, 1, 2, 59, 29]	NA	-1	118.09863948490899	119.16536051509102	-20.872	-19.872	S. Schroeder	0
0-20000-0-94326	5	95	ASM00094326	3	ALICE SPRINGS AIRPORT	-1	-1	0	133.889	-23.795	NA	1946-01-01	2021-12-31	1	0	63	NMS	-1	Alice Springs	NA	NA	0	63	29	1	NA	NA	[111, 112, 1, 2, 59, 29]	NA	-1	133.34254885503165	134.43545114496837	-24.295	-23.295	S. Schroeder	0
0-20000-0-94332	5	96	ASM00094332	3	MOUNT ISA AERO	-1	-1	0	139.488	-20.678	NA	1975-01-01	2021-12-31	1	0	63	NMS	-1	Mount Isa	NA	NA	0	63	29	1	NA	NA	[111, 112, 1, 2, 59, 29]	NA	-1	138.9535719793475	140.0224280206525	-21.178	-20.178	S. Schroeder	0
0-20000-0-94335	5	97	ASM00094335	3	CLONCURRY AIRPORT	-1	-1	0	140.5	-20.667	NA	1943-01-01	1975-12-31	1	0	63	NMS	-1	Mount Isa	NA	NA	0	63	29	1	NA	NA	[111, 112, 1, 2, 59, 29]	NA	-1	139.96561069205103	141.03438930794897	-21.167	-20.167	S. Schroeder	0
0-20000-0-94346	5	98	ASM00094346	3	LONGREACH AERO	-1	-1	0	144.277	-23.437	NA	1966-01-01	2017-12-31	1	0	63	NMS	-1	Townsville	NA	NA	0	63	29	1	NA	NA	[111, 112, 1, 2, 59, 29]	NA	-1	143.73203966466053	144.82196033533944	-23.937	-22.937	S. Schroeder	0
0-20000-0-94367	5	99	ASM00094367	3	MACKAY AERO	-1	-1	0	149.217	-21.117	NA	1959-01-01	2016-12-31	1	0	63	NMS	-1	Mackay	NA	NA	0	63	29	1	NA	NA	[111, 112, 1, 2, 59, 29]	NA	-1	148.68100623980249	149.75299376019754	-21.617	-20.617	S. Schroeder	0
0-20000-0-94374	5	100	ASM00094374	3	ROCKHAMPTON AERO	-1	-1	0	150.477	-23.375	NA	1943-01-01	2021-12-31	1	0	63	NMS	-1	Rockhampton	NA	NA	0	63	29	1	NA	NA	[111, 112, 1, 2, 59, 29]	NA	-1	149.93229486587407	151.02170513412594	-23.875	-22.875	S. Schroeder	0
0-20000-0-94380	5	101	ASM00094380	3	RUNDLE ISLAND	-1	-1	0	151.25	-23.85	NA	1957-01-01	1993-12-31	1	0	63	NMS	-1	Gladstone	NA	NA	0	63	29	1	NA	NA	[111, 112, 1, 2, 59, 29]	NA	-1	150.7033172033006	151.7966827966994	-24.35	-23.35	S. Schroeder	0
0-20000-0-94403	5	102	ASM00094403	3	GERALDTON AIRPORT	-1	-1	0	114.699	-28.804	NA	1950-01-01	2021-12-31	1	0	63	NMS	-1	Geraldton	NA	NA	0	63	29	1	NA	NA	[111, 112, 1, 2, 59, 29]	NA	-1	114.12840159718104	115.26959840281896	-29.304	-28.304	S. Schroeder	0
0-20000-0-94430	5	103	ASM00094430	3	MEEKATHARRA AIRPORT	-1	-1	0	118.537	-26.614	NA	1951-01-01	2021-12-31	1	0	63	NMS	-1	Geraldton	NA	NA	0	63	29	1	NA	NA	[111, 112, 1, 2, 59, 29]	NA	-1	117.97774391025797	119.09625608974204	-27.114	-26.114	S. Schroeder	0
0-20000-0-94461	5	104	ASM00094461	3	GILES METEOROLOGICAL OFFICE	-1	-1	0	128.301	-25.034	NA	1956-01-01	2021-12-31	1	0	63	NMS	-1	Alice Springs	NA	NA	0	63	29	1	NA	NA	[111, 112, 1, 2, 59, 29]	NA	-1	127.7491582418339	128.85284175816608	-25.534	-24.534	S. Schroeder	0
0-20000-0-94476	5	105	ASM00094476	3	OODNADATTA AIRPORT	-1	-1	0	135.483	-27.55	NA	1948-01-01	1985-12-31	1	0	63	NMS	-1	Alice Springs	NA	NA	0	63	29	1	NA	NA	[111, 112, 1, 2, 59, 29]	NA	-1	134.919052621595	136.046947378405	-28.05	-27.05	S. Schroeder	0
0-20000-0-94510	5	106	ASM00094510	3	CHARLEVILLE AERO	-1	-1	0	146.256	-26.414	NA	1942-01-01	2021-12-31	1	0	63	NMS	-1	Rockhampton	NA	NA	0	63	29	1	NA	NA	[111, 112, 1, 2, 59, 29]	NA	-1	145.6977169766977	146.8142830233023	-26.914	-25.914	S. Schroeder	0
0-20000-0-94578	5	107	ASM00094568	3	BRISBANE AERO	-1	-1	0	152.717	-27.65	NA	1949-01-01	1955-12-31	1	0	63	NMS	-1	Brisbane	NA	NA	0	63	29	1	NA	NA	[111, 112, 1, 2, 59, 29]	NA	-1	152.152537820666	153.28146217933403	-28.15	-27.15	S. Schroeder	0
0-20000-0-94578	5	108	ASM00094578	3	BRISBANE AERO	-1	-1	0	153.129	-27.392	NA	1943-01-01	2021-12-31	1	0	63	NMS	-1	Brisbane	NA	NA	0	63	29	1	NA	NA	[111, 112, 1, 2, 59, 29]	NA	-1	152.56586060395853	153.69213939604145	-27.892	-26.892	S. Schroeder	0
0-20000-0-94610	5	109	ASM00094610	3	PERTH AIRPORT	-1	-1	0	115.976	-31.927	NA	1948-01-01	2021-12-31	1	0	63	NMS	-1	Perth	NA	NA	0	63	29	1	NA	NA	[111, 112, 1, 2, 59, 29]	NA	-1	115.38687934255881	116.56512065744118	-32.427	-31.427	S. Schroeder	0
0-20000-0-94637	5	110	ASM00094637	3	KALGOORLIE-BOULDER AIRPORT	-1	-1	0	121.453	-30.785	NA	1950-01-01	2021-12-31	1	0	63	NMS	-1	Perth	NA	NA	0	63	29	1	NA	NA	[111, 112, 1, 2, 59, 29]	NA	-1	120.87099145779186	122.03500854220815	-31.285	-30.285	S. Schroeder	0
0-20000-0-94638	5	111	ASM00094638	3	ESPERANCE	-1	-1	0	121.892	-33.83	NA	1969-01-01	2021-12-31	1	0	63	NMS	-1	Albany	NA	NA	0	63	29	1	NA	NA	[111, 112, 1, 2, 59, 29]	NA	-1	121.29009297533132	122.49390702466867	-34.33	-33.33	S. Schroeder	0
0-20000-0-95646	5	112	ASM00094646	3	FORREST	-1	-1	0	128.1	-30.833	NA	1950-01-01	1995-12-31	1	0	63	NMS	-1	Flinders	NA	NA	0	63	29	1	NA	NA	[111, 112, 1, 2, 59, 29]	NA	-1	127.51770062390459	128.6822993760954	-31.333	-30.333	S. Schroeder	0
0-20000-0-94647	5	113	ASM00094647	3	EUCLA	-1	-1	0	128.867	-31.667	NA	1995-01-01	2012-12-31	1	0	63	NMS	-1	Flinders	NA	NA	0	63	29	1	NA	NA	[111, 112, 1, 2, 59, 29]	NA	-1	128.27953436757568	129.4544656324243	-32.167	-31.167	S. Schroeder	0
0-20000-0-94653	5	114	ASM00094653	3	CEDUNA AMO	-1	-1	0	133.697	-32.13	NA	1950-01-01	2021-12-31	1	0	63	NMS	-1	Flinders	NA	NA	0	63	29	1	NA	NA	[111, 112, 1, 2, 59, 29]	NA	-1	133.10657218039506	134.28742781960494	-32.63	-31.630000000000003	S. Schroeder	0
0-20000-0-94659	5	115	ASM00094659	3	WOOMERA AERODROME	-1	-1	0	136.805	-31.156	NA	1949-01-01	2021-12-31	1	0	63	NMS	-1	Port Augusta	NA	NA	0	63	29	1	NA	NA	[111, 112, 1, 2, 59, 29]	NA	-1	136.2207252801801	137.38927471981992	-31.656	-30.656	S. Schroeder	0
0-20000-0-94672	5	116	ASM00094672	3	ADELAIDE AIRPORT	-1	-1	0	138.52	-34.953	NA	1945-01-01	2021-12-31	1	0	63	NMS	-1	Adelaide	NA	NA	0	63	29	1	NA	NA	[111, 112, 1, 2, 59, 29]	NA	-1	137.90996289562196	139.13003710437806	-35.453	-34.453	S. Schroeder	0
0-20000-0-94693	5	117	ASM00094693	3	MILDURA AIRPORT	-1	-1	0	142.087	-34.236	NA	1950-01-01	2013-12-31	1	0	63	NMS	-1	Mildura	NA	NA	0	63	29	1	NA	NA	[111, 112, 1, 2, 59, 29]	NA	-1	141.48220560880435	142.69179439119563	-34.736	-33.736	S. Schroeder	0
0-20000-0-94703	5	118	ASM00094703	3	BOURKE AIRPORT AWS	-1	-1	0	145.967	-30.083	NA	1948-01-01	1948-12-31	1	0	63	NMS	-1	Dubbo	NA	NA	0	63	29	1	NA	NA	[111, 112, 1, 2, 59, 29]	NA	-1	145.38916584555417	146.54483415444585	-30.583	-29.583	S. Schroeder	0
0-20000-0-94711	5	119	ASM00094711	3	COBAR MO	-1	-1	0	145.829	-31.484	NA	1962-01-01	2021-12-31	1	0	63	NMS	-1	Dubbo	NA	NA	0	63	29	1	NA	NA	[111, 112, 1, 2, 59, 29]	NA	-1	145.24268646247512	146.4153135375249	-31.984	-30.984	S. Schroeder	0
0-20000-0-94723	5	120	ASM00094723	3	DUBBO AIRPORT AWS	-1	-1	0	148.95	-32.567	NA	1947-01-01	1950-12-31	1	0	63	NMS	-1	Dubbo	NA	NA	0	63	29	1	NA	NA	[111, 112, 1, 2, 59, 29]	NA	-1	148.35671308906404	149.54328691093593	-33.067	-32.067	S. Schroeder	0
0-20000-0-94750	5	121	ASM00094750	3	NOWRA RAN AIR STATION AWS	-1	-1	0	150.535	-34.947	NA	1950-01-01	2021-12-31	1	0	63	NMS	-1	Kiama	NA	NA	0	63	29	1	NA	NA	[111, 112, 1, 2, 59, 29]	NA	-1	149.9250075422711	151.1449924577289	-35.447	-34.447	S. Schroeder	0
0-20000-0-94767	5	122	ASM00094767	3	SYDNEY AIRPORT AMO	-1	-1	0	151.173	-33.946	NA	1946-01-01	2021-12-31	1	0	63	NMS	-1	Sydney	NA	NA	0	63	29	1	NA	NA	[111, 112, 1, 2, 59, 29]	NA	-1	150.57027391657812	151.7757260834219	-34.446	-33.446	S. Schroeder	0
0-20000-0-94773	5	123	ASM00094773	3	GUYRA HOSPITAL	-1	-1	0	151.65	-30.517	NA	1947-01-01	1949-12-31	1	0	63	NMS	-1	Armidale	NA	NA	0	63	29	1	NA	NA	[111, 112, 1, 2, 59, 29]	NA	-1	151.0696024846448	152.2303975153552	-31.017	-30.017	S. Schroeder	0
0-20000-0-94776	5	124	ASM00094776	3	WILLIAMTOWN RAAF	-1	-1	0	151.836	-32.793	NA	1944-01-01	2021-12-31	1	0	63	NMS	-1	Raymond Terrace	NA	NA	0	63	29	1	NA	NA	[111, 112, 1, 2, 59, 29]	NA	-1	151.24120996531025	152.43079003468978	-33.293	-32.293	S. Schroeder	0
0-20000-0-94791	5	125	ASM00094791	3	DORRIGO (OLD CORAMBA RD)	-1	-1	0	153.119	-30.311	NA	1951-01-01	2013-12-31	1	0	63	NMS	-1	Coffs Harbour	NA	NA	0	63	29	1	NA	NA	[111, 112, 1, 2, 59, 29]	NA	-1	152.53982616825803	153.69817383174197	-30.811	-29.811	S. Schroeder	0
0-20000-0-94802	5	126	ASM00094802	3	ALBANY AIRPORT	-1	-1	0	117.802	-34.941	NA	1965-01-01	2021-12-31	1	0	63	NMS	-1	Albany	NA	NA	0	63	29	1	NA	NA	[111, 112, 1, 2, 59, 29]	NA	-1	117.19205217569726	118.41194782430276	-35.441	-34.441	S. Schroeder	0
0-20000-0-94821	5	127	ASM00094821	3	MOUNT GAMBIER AERO	-1	-1	0	140.774	-37.747	NA	1945-01-01	2021-12-31	1	0	63	NMS	-1	Mount Gambier	NA	NA	0	63	29	1	NA	NA	[111, 112, 1, 2, 59, 29]	NA	-1	140.14166621511734	141.40633378488266	-38.247	-37.247	S. Schroeder	0
0-20000-0-94866	5	128	ASM00094865	3	MELBOURNE AIRPORT	-1	-1	0	144.75	-37.867	NA	1948-01-01	1999-12-31	1	0	63	NMS	-1	Melbourne	NA	NA	0	63	29	1	NA	NA	[111, 112, 1, 2, 59, 29]	NA	-1	144.11663784359658	145.38336215640342	-38.367	-37.367	S. Schroeder	0
0-20000-0-94866	5	129	ASM00094866	3	MELBOURNE AIRPORT	-1	-1	0	144.832	-37.666	NA	1946-01-01	2021-12-31	1	0	63	NMS	-1	Craigieburn	NA	NA	0	63	29	1	NA	NA	[111, 112, 1, 2, 59, 29]	NA	-1	144.20035691579528	145.4636430842047	-38.166	-37.166	S. Schroeder	0
0-20000-0-94907	5	130	ASM00094907	3	BAIRNSDALE AIRPORT	-1	-1	0	147.133	-38.1	NA	1950-01-01	2009-12-31	1	0	63	NMS	-1	Sale	NA	NA	0	63	29	1	NA	NA	[111, 112, 1, 2, 59, 29]	NA	-1	146.4976235253912	147.76837647460883	-38.6	-37.6	S. Schroeder	0
0-20000-0-94910	5	131	ASM00094910	3	WAGGA WAGGA AMO	-1	-1	0	147.457	-35.158	NA	1946-01-01	2021-12-31	1	0	63	NMS	-1	Wagga Wagga	NA	NA	0	63	29	1	NA	NA	[111, 112, 1, 2, 59, 29]	NA	-1	146.845429496344	148.068570503656	-35.658	-34.658	S. Schroeder	0
0-20000-0-94926	5	132	ASM00094926	3	MOUNT GININI AWS	-1	-1	0	149.183	-35.3	NA	1947-01-01	2005-12-31	1	0	63	NMS	-1	Canberra	NA	NA	0	63	29	1	NA	NA	[111, 112, 1, 2, 59, 29]	NA	-1	148.57035820273774	149.79564179726225	-35.8	-34.8	S. Schroeder	0
0-20000-0-95966	5	133	ASM00094968	3	SCOTTSDALE ( WEST MINSTONE ROAD)	-1	-1	0	147.2	-41.533	NA	1938-01-01	2003-12-31	1	0	63	NMS	-1	Launceston	NA	NA	0	63	29	1	NA	NA	[111, 112, 1, 2, 59, 29]	NA	-1	146.53206332284103	147.86793667715895	-42.033	-41.033	S. Schroeder	0
0-20000-0-94975	5	134	ASM00094970	3	HOBART AIRPORT	-1	-1	0	147.333	-42.883	NA	1949-01-01	1953-12-31	1	0	63	NMS	-1	Hobart	NA	NA	0	63	29	1	NA	NA	[111, 112, 1, 2, 59, 29]	NA	-1	146.65063422630544	148.01536577369455	-43.383	-42.383	S. Schroeder	0
0-20000-0-94974	5	135	ASM00094974	3	STRAHAN AERODROME	-1	-1	0	145.05	-42.2	NA	1948-01-01	1958-12-31	1	0	63	NMS	-1	Burnie	NA	NA	0	63	29	1	NA	NA	[111, 112, 1, 2, 59, 29]	NA	-1	144.3750581833506	145.72494181664942	-42.7	-41.7	S. Schroeder	0
0-20000-0-94975	5	136	ASM00094975	3	HOBART AIRPORT	-1	-1	0	147.503	-42.834	NA	1953-01-01	2021-12-31	1	0	63	NMS	-1	Hobart	NA	NA	0	63	29	1	NA	NA	[111, 112, 1, 2, 59, 29]	NA	-1	146.82117550828653	148.18482449171344	-43.334	-42.334	S. Schroeder	0
0-20000-0-94995	5	137	ASM00094995	3	LORD HOWE ISLAND AERO	-1	-1	0	159.079	-31.542	NA	1950-01-01	2021-12-31	1	0	63	NMS	-1	Sawtell	NA	NA	0	63	29	1	NA	NA	[111, 112, 1, 2, 59, 29]	NA	-1	158.49232245476134	159.66567754523868	-32.042	-31.042	S. Schroeder	0
0-20000-0-94998	5	138	ASM00094998	3	MACQUARIE ISLAND	-1	-1	0	158.937	-54.499	NA	1948-01-01	2021-12-31	1	0	63	NMS	-1	Invercargill	NA	NA	0	63	29	1	NA	NA	[111, 112, 1, 2, 59, 29]	NA	-1	158.07599565836284	159.79800434163718	-54.999	-53.999	S. Schroeder	0
0-20000-0-95527	5	139	ASM00095527	3	MOREE AERO	-1	-1	0	149.847	-29.49	NA	1964-01-01	2021-12-31	1	0	63	NMS	-1	Tamworth	NA	NA	0	63	29	1	NA	NA	[111, 112, 1, 2, 59, 29]	NA	-1	149.27257894222754	150.42142105777248	-29.99	-28.99	S. Schroeder	0
0-20000-0-95611	5	140	ASM00095607	3	CAPE NATURALISTE	-1	-1	0	115.467	-33.6	NA	1942-01-01	1944-12-31	1	0	63	NMS	-1	Busselton	NA	NA	0	63	29	1	NA	NA	[111, 112, 1, 2, 59, 29]	NA	-1	114.86670314651391	116.06729685348608	-34.1	-33.1	S. Schroeder	0
0-20300-0-ASXUA942005	3	141	ASXUA942005	3	TALGARNO	-1	-1	0	121.5	-19.28	NA	1960-01-01	1961-12-31	1	0	63	NMS	-1	Broome	NA	NA	0	63	29	1	NA	NA	[111, 112, 1, 2, 59, 29]	NA	-1	120.97029199692344	122.02970800307656	-19.78	-18.78	S. Schroeder	0
0-20300-0-ASXUA946505	3	142	ASXUA946505	3	MARALINGA	-1	-1	0	131.583	-30.01	NA	1955-01-01	1965-12-31	1	0	63	NMS	-1	Flinders	NA	NA	0	63	29	1	NA	NA	[111, 112, 1, 2, 59, 29]	NA	-1	131.00559153851066	132.16040846148934	-30.51	-29.51	S. Schroeder	0
0-20000-0-11010	5	143	AUM00011010	3	LINZ/HOERSCHING-FLUGHAFEN	-1	-1	0	14.188	48.235	NA	1987-01-01	2021-12-31	1	0	63	NMS	-1	Traun	NA	NA	0	63	29	1	NA	NA	[111, 112, 1, 2, 59, 29]	NA	-1	13.437335993257896	14.938664006742105	47.735	48.735	S. Schroeder	0
0-20001-0-11035	5	144	AUM00011035	3	WIEN/HOHE WARTE (11035-1)	-1	-1	0	16.356	48.249	NA	1910-01-01	2021-12-31	1	0	63	NMS	-1	Vienna	NA	NA	0	63	29	1	NA	NA	[111, 112, 1, 2, 59, 29]	NA	-1	15.605130516103388	17.106869483896617	47.749	48.749	S. Schroeder	0
0-20000-0-11120	5	145	AUM00011120	3	INNSBRUCK-FLUGHAFEN	-1	-1	0	11.344	47.26	NA	1998-01-01	2019-12-31	1	0	63	NMS	-1	Innsbruck	NA	NA	0	63	29	1	NA	NA	[111, 112, 1, 2, 59, 29]	NA	-1	10.6072677069612	12.0807322930388	46.76	47.76	S. Schroeder	0
0-20000-0-11240	5	146	AUM00011240	3	GRAZ-THALERHOF-FLUGHAFEN	-1	-1	0	15.439	46.993	NA	1987-01-01	2019-12-31	1	0	63	NMS	-1	Graz	NA	NA	0	63	29	1	NA	NA	[111, 112, 1, 2, 59, 29]	NA	-1	14.705956441083718	16.172043558916283	46.493	47.493	S. Schroeder	0
0-20000-0-88967	5	147	AYM00088967	3	GENERAL BELGRANO	-1	-1	0	-38.8	-77.967	NA	1970-01-01	1975-12-31	1	0	63	NMS	-1	Ushuaia	NA	NA	0	63	29	1	NA	NA	[111, 112, 1, 2, 59, 29]	NA	-1	-41.19836877680383	-36.40163122319616	-78.467	-77.467	S. Schroeder	0
0-20000-0-89001	5	148	AYM00089001	3	SANAE	-1	-1	0	-2.367	-70.317	NA	1957-01-01	1992-12-31	1	0	63	NMS	-1	Ushuaia	NA	NA	0	63	29	1	NA	NA	[111, 112, 1, 2, 59, 29]	NA	-1	-3.8514904726105854	-0.8825095273894148	-70.817	-69.817	S. Schroeder	0
0-20000-0-89002	5	149	AYM00089002	3	NEUMAYER	-1	-1	0	-8.25	-70.667	NA	1984-01-01	2021-12-31	1	0	63	NMS	-1	Ushuaia	NA	NA	0	63	29	1	NA	NA	[111, 112, 1, 2, 59, 29]	NA	-1	-9.760309699384925	-6.7396903006150755	-71.167	-70.167	S. Schroeder	0
0-20000-0-89009	5	150	AYM00089009	3	AMUNDSEN-SCOTT	-1	-1	0	0.0	-90.0	NA	1961-01-01	2021-12-31	1	0	63	NMS	-1	Ushuaia	NA	NA	0	63	29	1	NA	NA	[111, 112, 1, 2, 59, 29]	NA	-1	-8165619676597325.0	8165619676597325.0	-90.0	-89.5	S. Schroeder	0
0-20000-0-89022	5	151	AYM00089022	3	HALLEY	-1	-1	0	-26.218	-75.445	NA	1957-01-01	2021-12-31	1	0	63	NMS	-1	Ushuaia	NA	NA	0	63	29	1	NA	NA	[111, 112, 1, 2, 59, 29]	NA	-1	-28.207580617466167	-24.228419382533833	-75.945	-74.945	S. Schroeder	0
0-20000-0-89050	5	152	AYM00089050	3	BASE ARTURO PRAT	-1	-1	0	-58.883	-62.183	NA	1970-01-01	1999-12-31	1	0	63	NMS	-1	Ushuaia	NA	NA	0	63	29	1	NA	NA	[111, 112, 1, 2, 59, 29]	NA	-1	-59.954468949890995	-57.81153105010901	-62.683	-61.683	S. Schroeder	0
0-20000-0-88963	5	153	AYM00089051	3	JOINVILLE ISLAND	-1	-1	0	-56.283	-63.467	NA	1969-01-01	1972-12-31	1	0	63	NMS	-1	Ushuaia	NA	NA	0	63	29	1	NA	NA	[111, 112, 1, 2, 59, 29]	NA	-1	-57.402286418253595	-55.16371358174641	-63.967	-62.967	S. Schroeder	0
0-20000-0-89055	5	154	AYM00089055	3	BASE MARAMBIO	-1	-1	0	-56.717	-64.233	NA	1982-01-01	2021-12-31	1	0	63	NMS	-1	Ushuaia	NA	NA	0	63	29	1	NA	NA	[111, 112, 1, 2, 59, 29]	NA	-1	-57.8671855181415	-55.5668144818585	-64.733	-63.733000000000004	S. Schroeder	0
0-20001-0-89062	5	155	AYM00089062	3	ROTHERA (89062-1)	-1	-1	0	-68.13	-67.566	NA	2002-01-01	2021-12-31	1	0	63	NMS	-1	Ushuaia	NA	NA	0	63	29	1	NA	NA	[111, 112, 1, 2, 59, 29]	NA	-1	-69.44020748679449	-66.8197925132055	-68.066	-67.066	S. Schroeder	0
0-20000-0-89063	5	156	AYM00089063	3	PALMER STATION	-1	-1	0	-64.267	-65.25	NA	1954-01-01	1982-12-31	1	0	63	NMS	-1	Ushuaia	NA	NA	0	63	29	1	NA	NA	[111, 112, 1, 2, 59, 29]	NA	-1	-65.46128728193692	-63.07271271806307	-65.75	-64.75	S. Schroeder	0
0-20000-0-89324	5	157	AYM00089125	3	BYRD STATION	-1	-1	0	-119.533	-80.017	NA	1957-01-01	1979-12-31	1	0	63	NMS	-1	Ushuaia	NA	NA	0	63	29	1	NA	NA	[111, 112, 1, 2, 59, 29]	NA	-1	-122.41723868609323	-116.64876131390677	-80.517	-79.517	S. Schroeder	0
0-20000-0-89512	5	158	AYM00089512	3	NOVOLAZAREVSKAJA	-1	-1	0	11.832	-70.768	NA	1969-01-01	2021-12-31	1	0	63	NMS	-1	Ushuaia	NA	NA	0	63	29	1	NA	NA	[111, 112, 1, 2, 59, 29]	NA	-1	10.314061156699019	13.349938843300983	-71.268	-70.268	S. Schroeder	0
0-20000-0-89522	5	159	AYM00089522	3	BASE ROI BAUDOUIN	-1	-1	0	24.317	-70.433	NA	1958-01-01	1959-12-31	1	0	63	NMS	-1	Bredasdorp	NA	NA	0	63	29	1	NA	NA	[111, 112, 1, 2, 59, 29]	NA	-1	22.82405681993264	25.80994318006736	-70.933	-69.933	S. Schroeder	0
0-20000-0-89532	5	160	AYM00089532	3	SYOWA	-1	-1	0	39.581	-69.005	NA	1959-01-01	2021-12-31	1	0	63	NMS	-1	Port Elizabeth	NA	NA	0	63	29	1	NA	NA	[111, 112, 1, 2, 59, 29]	NA	-1	38.185468684100364	40.97653131589964	-69.505	-68.505	S. Schroeder	0
0-20000-0-89542	5	161	AYM00089542	3	MOLODEZNAJA	-1	-1	0	45.85	-67.667	NA	1969-01-01	1998-12-31	1	0	63	NMS	-1	Port Elizabeth	NA	NA	0	63	29	1	NA	NA	[111, 112, 1, 2, 59, 29]	NA	-1	44.534172364214015	47.16582763578599	-68.167	-67.167	S. Schroeder	0
0-20000-0-89557	5	162	AYM00089557	3	SOVIETSKAVA	-1	-1	0	87.583	-78.4	NA	1958-01-01	1958-12-31	1	0	63	NMS	-1	Hobart	NA	NA	0	63	29	1	NA	NA	[111, 112, 1, 2, 59, 29]	NA	-1	85.09640178399276	90.06959821600724	-78.9	-77.9	S. Schroeder	0
0-20000-0-89564	5	163	AYM00089564	3	MAWSON	-1	-1	0	62.875	-67.602	NA	1954-01-01	2021-12-31	1	0	63	NMS	-1	Port Alfred	NA	NA	0	63	29	1	NA	NA	[111, 112, 1, 2, 59, 29]	NA	-1	61.5627952740856	64.1872047259144	-68.102	-67.102	S. Schroeder	0
0-20000-0-89571	5	164	AYM00089571	3	DAVIS	-1	-1	0	77.967	-68.574	NA	1957-01-01	2021-12-31	1	0	63	NMS	-1	Albany	NA	NA	0	63	29	1	NA	NA	[111, 112, 1, 2, 59, 29]	NA	-1	76.5982591531059	79.3357408468941	-69.074	-68.074	S. Schroeder	0
0-20000-0-89592	5	165	AYM00089592	3	MIRNYJ (89592-0)	-1	-1	0	93.015	-66.552	NA	1957-01-01	2021-12-31	1	0	63	NMS	-1	Albany	NA	NA	0	63	29	1	NA	NA	[111, 112, 1, 2, 59, 29]	NA	-1	91.75845531053034	94.27154468946966	-67.052	-66.052	S. Schroeder	0
0-20000-0-89593	5	166	AYM00089593	3	PIONERSKAVA	-1	-1	0	95.05	-69.73	NA	1958-01-01	1958-12-31	1	0	63	NMS	-1	Albany	NA	NA	0	63	29	1	NA	NA	[111, 112, 1, 2, 59, 29]	NA	-1	93.60676750043483	96.49323249956517	-70.23	-69.23	S. Schroeder	0
0-20000-0-89601	5	167	AYM00089601	3	OAZIC BANGERA	-1	-1	0	100.73	-66.27	NA	1957-01-01	1958-12-31	1	0	63	NMS	-1	Albany	NA	NA	0	63	29	1	NA	NA	[111, 112, 1, 2, 59, 29]	NA	-1	99.48753913248711	101.9724608675129	-66.77	-65.77	S. Schroeder	0
0-20000-0-89606	5	168	AYM00089606	3	VOSTOK	-1	-1	0	106.867	-78.45	NA	1958-01-01	1991-12-31	1	0	63	NMS	-1	Hobart	NA	NA	0	63	29	1	NA	NA	[111, 112, 1, 2, 59, 29]	NA	-1	104.3697844455478	109.36421555445222	-78.95	-77.95	S. Schroeder	0
0-20000-0-89611	5	169	AYM00089611	3	CASEY	-1	-1	0	110.523	-66.282	NA	1957-01-01	2021-12-31	1	0	63	NMS	-1	Hobart	NA	NA	0	63	29	1	NA	NA	[111, 112, 1, 2, 59, 29]	NA	-1	109.27994686677404	111.76605313322595	-66.782	-65.782	S. Schroeder	0
0-20000-0-89625	5	170	AYM00089625	3	CONCORDIA	-1	-1	0	123.412	-75.102	NA	2006-01-01	2021-12-31	1	0	63	NMS	-1	Hobart	NA	NA	0	63	29	1	NA	NA	[111, 112, 1, 2, 59, 29]	NA	-1	121.46722431786596	125.35677568213406	-75.602	-74.602	S. Schroeder	0
0-20000-0-89642	5	171	AYM00089642	3	DUMONT D'URVILLE	-1	-1	0	140.001	-66.663	NA	1951-01-01	2021-12-31	1	0	63	NMS	-1	Hobart	NA	NA	0	63	29	1	NA	NA	[111, 112, 1, 2, 59, 29]	NA	-1	138.7388152688459	141.2631847311541	-67.163	-66.163	S. Schroeder	0
0-20000-0-89657	5	172	AYM00089657	3	LENINGRADSKAJA	-1	-1	0	159.4	-69.5	NA	1983-01-01	1991-12-31	1	0	63	NMS	-1	Invercargill	NA	NA	0	63	29	1	NA	NA	[111, 112, 1, 2, 59, 29]	NA	-1	157.97227452430664	160.82772547569337	-70.0	-69.0	S. Schroeder	0
0-20000-0-89662	5	173	AYM00089662	3	MARIO ZUCHELLI STATION (BAIA TERRA NOVA)	-1	-1	0	164.092	-74.696	NA	1987-01-01	2021-12-31	1	0	63	NMS	-1	Invercargill	NA	NA	0	63	29	1	NA	NA	[111, 112, 1, 2, 59, 29]	NA	-1	162.19763285317546	165.98636714682456	-75.196	-74.196	S. Schroeder	0
0-20000-0-89664	5	174	AYM00089664	3	MCMURDO	-1	-1	0	166.667	-77.85	NA	1956-01-01	2021-12-31	1	0	63	NMS	-1	Invercargill	NA	NA	0	63	29	1	NA	NA	[111, 112, 1, 2, 59, 29]	NA	-1	164.29138438095205	169.04261561904795	-78.35	-77.35	S. Schroeder	0
0-20000-0-89671	5	175	AYM00089671	3	ADARE HALLETT	-1	-1	0	170.217	-72.3	NA	1957-01-01	1973-12-31	1	0	63	NMS	-1	Invercargill	NA	NA	0	63	29	1	NA	NA	[111, 112, 1, 2, 59, 29]	NA	-1	168.57244200858298	171.86155799141704	-72.8	-71.8	S. Schroeder	0
0-20300-0-AYW00057401	3	176	AYW00057401	3	ELLSWORTH IGY	-1	-1	0	-41.117	-77.733	NA	1957-01-01	1962-12-31	1	0	63	NMS	-1	Ushuaia	NA	NA	0	63	29	1	NA	NA	[111, 112, 1, 2, 59, 29]	NA	-1	-43.47029984019872	-38.763700159801274	-78.233	-77.233	S. Schroeder	0
0-20300-0-AYW00067401	3	177	AYW00067401	3	LITTLE ROCKFORD	-1	-1	0	-147.5	-79.25	NA	1960-01-01	1962-12-31	1	0	63	NMS	-1	Ushuaia	NA	NA	0	63	29	1	NA	NA	[111, 112, 1, 2, 59, 29]	NA	-1	-150.18061967078916	-144.81938032921084	-79.75	-78.75	S. Schroeder	0
0-20300-0-AYW00067402	3	178	AYW00067402	3	LITTLE ROCKFORD	-1	-1	0	-147.5	-76.267	NA	1962-01-01	1965-12-31	1	0	63	NMS	-1	Invercargill	NA	NA	0	63	29	1	NA	NA	[111, 112, 1, 2, 59, 29]	NA	-1	-149.6061705504907	-145.3938294495093	-76.767	-75.767	S. Schroeder	0
0-20300-0-AYXUA891755	3	179	AYXUA891755	3	LITTLE AMERICA	-1	-1	0	-162.25	-78.2	NA	1956-01-01	1958-12-31	1	0	63	NMS	-1	Invercargill	NA	NA	0	63	29	1	NA	NA	[111, 112, 1, 2, 59, 29]	NA	-1	-164.6950349798774	-159.8049650201226	-78.7	-77.7	S. Schroeder	0
0-20300-0-AYXUAE05498	3	180	AYXUAE05498	3	LITTLE AMERICA I	-1	-1	0	-163.93	-78.57	NA	1929-01-01	1935-12-31	1	0	63	NMS	-1	Invercargill	NA	NA	0	63	29	1	NA	NA	[111, 112, 1, 2, 59, 29]	NA	-1	-166.45307882851574	-161.40692117148427	-79.07	-78.07	S. Schroeder	0
0-20300-0-AYXUAE05532	3	181	AYXUAE05532	3	LITTLE AMERICA	-1	-1	0	-163.8	-78.5	NA	1940-01-01	1940-12-31	1	0	63	NMS	-1	Invercargill	NA	NA	0	63	29	1	NA	NA	[111, 112, 1, 2, 59, 29]	NA	-1	-166.30792586812734	-161.29207413187268	-79.0	-78.0	S. Schroeder	0
0-20000-0-41150	5	182	BAM00040427	3	DAMMAM-A.W.S.	-1	-1	0	50.617	26.267	NA	1928-01-01	1974-12-31	1	0	63	NMS	-1	Manama	NA	NA	0	63	29	1	NA	NA	[111, 112, 1, 2, 59, 29]	NA	-1	50.05942569858651	51.174574301413486	25.767	26.767	S. Schroeder	0
0-20000-0-0-52-130-78954	5	183	BBM00078954	3	GRANTLEY ADAMS	-1	-1	0	-59.483	13.067	NA	1965-01-01	2021-12-31	1	0	63	NMS	-1	Bridgetown	NA	NA	0	63	29	1	NA	NA	[111, 112, 1, 2, 59, 29]	NA	-1	-59.996290978218354	-58.96970902178164	12.567	13.567	S. Schroeder	0
0-20000-0-68032	5	184	BCM00068032	3	MAUN	-1	-1	0	23.417	-19.983	NA	1957-01-01	2012-12-31	1	0	63	NMS	-1	Maun	NA	NA	0	63	29	1	NA	NA	[111, 112, 1, 2, 59, 29]	NA	-1	22.88496854555927	23.949031454440732	-20.483	-19.483	S. Schroeder	0
0-20000-0-68040	5	185	BCM00068040	3	LETLHAKANE	-1	-1	0	25.6	-21.417	NA	1997-01-01	2006-12-31	1	0	63	NMS	-1	Letlhakane	NA	NA	0	63	29	1	NA	NA	[111, 112, 1, 2, 59, 29]	NA	-1	25.062912793031312	26.13708720696869	-21.917	-20.917	S. Schroeder	0
0-20000-0-68054	5	186	BCM00068054	3	FRANCISTOWN	-1	-1	0	27.5	-21.217	NA	1988-01-01	1992-12-31	1	0	63	NMS	-1	Francistown	NA	NA	0	63	29	1	NA	NA	[111, 112, 1, 2, 59, 29]	NA	-1	26.963643886045745	28.036356113954255	-21.717	-20.717	S. Schroeder	0
0-20000-0-68240	5	187	BCM00068240	3	SERETSE KHAMA INTERNATIONAL AIRPORT	-1	-1	0	25.917	-24.55	NA	1985-01-01	2011-12-31	1	0	63	NMS	-1	Mogoditshane	NA	NA	0	63	29	1	NA	NA	[111, 112, 1, 2, 59, 29]	NA	-1	25.367307245236777	26.466692754763226	-25.05	-24.05	S. Schroeder	0
0-20000-0-68240	5	188	BCM00068244	3	SERETSE KHAMA INTERNATIONAL AIRPORT	-1	-1	0	25.917	-24.667	NA	1973-01-01	1984-12-31	1	0	63	NMS	-1	Gaborone	NA	NA	0	63	29	1	NA	NA	[111, 112, 1, 2, 59, 29]	NA	-1	25.366792886130145	26.467207113869858	-25.167	-24.167	S. Schroeder	0
0-20000-0-68328	5	189	BCM00068328	3	TSABONG	-1	-1	0	22.45	-26.05	NA	1989-01-01	2004-12-31	1	0	63	NMS	-1	Vryburg	NA	NA	0	63	29	1	NA	NA	[111, 112, 1, 2, 59, 29]	NA	-1	21.893461940266555	23.006538059733444	-26.55	-25.55	S. Schroeder	0
0-20000-0-78016	5	190	BDM00078016	3	L F WADE INTERNATIONAL AIRPORT	-1	-1	0	-64.677	32.367	NA	1946-01-01	2021-12-31	1	0	63	NMS	-1	Nantucket	NA	NA	0	63	29	1	NA	NA	[111, 112, 1, 2, 59, 29]	NA	-1	-65.2689706992073	-64.08502930079271	31.866999999999997	32.867	S. Schroeder	0
0-20000-0-06400	5	191	BEM00006400	3	ZEEBRUGGE	-1	-1	0	2.65	51.083	NA	1999-01-01	2002-12-31	1	0	63	NMS	-1	Koksijde	NA	NA	0	63	29	1	NA	NA	[111, 112, 1, 2, 59, 29]	NA	-1	1.8540674564906847	3.445932543509315	50.583	51.583	S. Schroeder	0
0-20000-0-06458	5	192	BEM00006447	3	BEAUVECHAIN	-1	-1	0	4.358	50.797	NA	1949-01-01	2015-12-31	1	0	63	NMS	-1	Brussels	NA	NA	0	63	29	1	NA	NA	[111, 112, 1, 2, 59, 29]	NA	-1	3.56694822303084	5.149051776969159	50.297	51.297	S. Schroeder	0
0-20000-0-06458	5	193	BEM00006458	3	BEAUVECHAIN	-1	-1	0	4.763	50.746	NA	2005-01-01	2021-12-31	1	0	63	NMS	-1	Grez-Doiceau	NA	NA	0	63	29	1	NA	NA	[111, 112, 1, 2, 59, 29]	NA	-1	3.9728102248036006	5.553189775196399	50.246	51.246	S. Schroeder	0
0-20000-0-06476	5	194	BEM00006476	3	BUZENOL	-1	-1	0	5.4	50.033	NA	1964-01-01	2006-12-31	1	0	63	NMS	-1	Marche-en-Famenne	NA	NA	0	63	29	1	NA	NA	[111, 112, 1, 2, 59, 29]	NA	-1	4.621603665629237	6.178396334370763	49.533	50.533	S. Schroeder	0
0-20000-0-06496	5	195	BEM00006496	3	BIERSET	-1	-1	0	6.181	50.482	NA	1999-01-01	2021-12-31	1	0	63	NMS	-1	Monschau	NA	NA	0	63	29	1	NA	NA	[111, 112, 1, 2, 59, 29]	NA	-1	5.395232576299531	6.966767423700469	49.982	50.982	S. Schroeder	0
0-20000-0-78062	5	196	BFM00078063	3	FREEPORT, GRAND BAHAMA	-1	-1	0	-78.367	26.617	NA	1951-01-01	1970-12-31	1	0	63	NMS	-1	Freeport	NA	NA	0	63	29	1	NA	NA	[111, 112, 1, 2, 59, 29]	NA	-1	-78.92627076346801	-77.807729236532	26.117	27.117	S. Schroeder	0
0-20000-0-78073	5	197	BFM00078073	3	NASSAU AIRPORT NEW PROVIDENCE	-1	-1	0	-77.467	25.05	NA	1977-01-01	2020-12-31	1	0	63	NMS	-1	Nassau	NA	NA	0	63	29	1	NA	NA	[111, 112, 1, 2, 59, 29]	NA	-1	-78.01891375998159	-76.91508624001841	24.55	25.55	S. Schroeder	0
0-20000-0-78077	5	198	BFM00078076	3	NORTH ELEUTHERA, ELEUTHERA	-1	-1	0	-76.3	25.267	NA	1952-01-01	1970-12-31	1	0	63	NMS	-1	Nassau	NA	NA	0	63	29	1	NA	NA	[111, 112, 1, 2, 59, 29]	NA	-1	-76.85289640633938	-75.74710359366061	24.767	25.767	S. Schroeder	0
0-20000-0-78108	5	199	BFM00078107	3	ABRAHAM'S BAY,  MAYAGUANA	-1	-1	0	-73.03	22.37	NA	1955-01-01	1957-12-31	1	0	63	NMS	-1	Port-de-Paix	NA	NA	0	63	29	1	NA	NA	[111, 112, 1, 2, 59, 29]	NA	-1	-73.57068934125705	-72.48931065874295	21.87	22.87	S. Schroeder	0
0-20000-0-41859	5	200	BGM00041859	3	RAJARHAT, KURIGRAM	-1	-1	0	89.233	25.733	NA	1929-01-01	2021-12-31	1	0	63	NMS	-1	Rangpur	NA	NA	0	63	29	1	NA	NA	[111, 112, 1, 2, 59, 29]	NA	-1	88.67795453257173	89.78804546742828	25.233	26.233	S. Schroeder	0
0-20000-0-41883	5	201	BGM00041883	3	BOGRA	-1	-1	0	89.367	24.85	NA	1949-01-01	2021-12-31	1	0	63	NMS	-1	Jaipur Hat	NA	NA	0	63	29	1	NA	NA	[111, 112, 1, 2, 59, 29]	NA	-1	88.81598182924208	89.91801817075793	24.35	25.35	S. Schroeder	0
0-20000-0-41891	5	202	BGM00041891	3	CHERRAPUNJI	-1	-1	0	91.883	24.9	NA	1953-01-01	2021-12-31	1	0	63	NMS	-1	Chhatak	NA	NA	0	63	29	1	NA	NA	[111, 112, 1, 2, 59, 29]	NA	-1	91.3317588340566	92.43424116594339	24.4	25.4	S. Schroeder	0
0-20000-0-41907	5	203	BGM00041907	3	RAJSHAHI	-1	-1	0	89.05	24.133	NA	1976-01-01	2021-12-31	1	0	63	NMS	-1	Ishurdi	NA	NA	0	63	29	1	NA	NA	[111, 112, 1, 2, 59, 29]	NA	-1	88.50211414294411	89.59788585705589	23.633	24.633	S. Schroeder	0
0-20000-0-41923	5	204	BGM00041923	3	DHAKA	-1	-1	0	90.383	23.767	NA	1938-01-01	2021-12-31	1	0	63	NMS	-1	Dhaka	NA	NA	0	63	29	1	NA	NA	[111, 112, 1, 2, 59, 29]	NA	-1	89.83666651809716	90.92933348190283	23.267	24.267	S. Schroeder	0
0-20000-0-41936	5	205	BGM00041936	3	SATKHIRA	-1	-1	0	89.167	23.183	NA	1982-01-01	2021-12-31	1	0	63	NMS	-1	Jhikargachha	NA	NA	0	63	29	1	NA	NA	[111, 112, 1, 2, 59, 29]	NA	-1	88.62307961682475	89.71092038317525	22.683	23.683	S. Schroeder	0
0-20000-0-41943	5	206	BGM00041943	3	COMILLA	-1	-1	0	91.417	23.033	NA	1982-01-01	2021-12-31	1	0	63	NMS	-1	Feni	NA	NA	0	63	29	1	NA	NA	[111, 112, 1, 2, 59, 29]	NA	-1	90.8736868920306	91.9603131079694	22.533	23.533	S. Schroeder	0
0-20000-0-41950	5	207	BGM00041950	3	MADARIPUR	-1	-1	0	90.367	22.75	NA	1977-01-01	2021-12-31	1	0	63	NMS	-1	Barisal	NA	NA	0	63	29	1	NA	NA	[111, 112, 1, 2, 59, 29]	NA	-1	89.8248188319469	90.90918116805311	22.25	23.25	S. Schroeder	0
0-20000-0-41977	5	208	BGM00041977	3	CHITTAGONG (AMBAGAN)	-1	-1	0	91.817	22.35	NA	1928-01-01	2021-12-31	1	0	63	NMS	-1	Patiya	NA	NA	0	63	29	1	NA	NA	[111, 112, 1, 2, 59, 29]	NA	-1	91.27638829050913	92.35761170949085	21.85	22.85	S. Schroeder	0
0-20000-0-41992	5	209	BGM00041992	3	KUTUBDIA	-1	-1	0	91.933	21.433	NA	1951-01-01	2021-12-31	1	0	63	NMS	-1	Teknaf	NA	NA	0	63	29	1	NA	NA	[111, 112, 1, 2, 59, 29]	NA	-1	91.3958539365886	92.47014606341142	20.933	21.933	S. Schroeder	0
0-20000-0-41856	5	210	BGXUAC03368	3	SAIDPUR	-1	-1	0	89.43	25.88	NA	1944-01-01	1946-12-31	1	0	63	NMS	-1	Lalmanir Hat	NA	NA	0	63	29	1	NA	NA	[111, 112, 1, 2, 59, 29]	NA	-1	88.87426549591842	89.98573450408159	25.38	26.38	S. Schroeder	0
0-20000-0-41977	5	211	BGXUAE05433	3	CHITTAGONG (AMBAGAN)	-1	-1	0	91.82	22.25	NA	1938-01-01	1942-12-31	1	0	63	NMS	-1	Patiya	NA	NA	0	63	29	1	NA	NA	[111, 112, 1, 2, 59, 29]	NA	-1	91.27977512833894	92.36022487166105	21.75	22.75	S. Schroeder	0
0-20000-0-41923	5	212	BGXUAE05797	3	DHAKA	-1	-1	0	90.05	23.62	NA	1928-01-01	1935-12-31	1	0	63	NMS	-1	Dohar	NA	NA	0	63	29	1	NA	NA	[111, 112, 1, 2, 59, 29]	NA	-1	89.50428128237073	90.59571871762927	23.12	24.12	S. Schroeder	0
0-20000-0-78583	5	213	BHM00078583	3	BELIZE/PHILLIP GOLDSTON INTL. AIRPORT	-1	-1	0	-88.3	17.533	NA	1980-01-01	2021-12-31	1	0	63	NMS	-1	Belize	NA	NA	0	63	29	1	NA	NA	[111, 112, 1, 2, 59, 29]	NA	-1	-88.8243598728007	-87.7756401271993	17.033	18.033	S. Schroeder	0
0-20000-0-85041	5	214	BLM00085041	3	BRASILEIA	-1	-1	0	-68.783	-11.033	NA	2002-01-01	2003-12-31	1	0	63	NMS	-1	Cobija	NA	NA	0	63	29	1	NA	NA	[111, 112, 1, 2, 59, 29]	NA	-1	-69.29241546358719	-68.27358453641281	-11.533	-10.533	S. Schroeder	0
0-20000-0-85154	5	215	BLM00085154	3	TRINIDAD	-1	-1	0	-64.917	-14.817	NA	1944-01-01	2003-12-31	1	0	63	NMS	-1	Trinidad	NA	NA	0	63	29	1	NA	NA	[111, 112, 1, 2, 59, 29]	NA	-1	-65.4341981020815	-64.39980189791851	-15.317	-14.317	S. Schroeder	0
0-20000-0-85201	5	216	BLM00085201	3	LA PAZ/ALTO	-1	-1	0	-68.183	-16.517	NA	1945-01-01	2003-12-31	1	0	63	NMS	-1	La Paz	NA	NA	0	63	29	1	NA	NA	[111, 112, 1, 2, 59, 29]	NA	-1	-68.70452031486887	-67.66147968513114	-17.017	-16.017	S. Schroeder	0
0-20000-0-85245	5	217	BLM00085245	3	VIRU-VIRU	-1	-1	0	-63.183	-17.8	NA	1944-01-01	2004-12-31	1	0	63	NMS	-1	El Carmen	NA	NA	0	63	29	1	NA	NA	[111, 112, 1, 2, 59, 29]	NA	-1	-63.70813870888913	-62.65786129111087	-18.3	-17.3	S. Schroeder	0
0-20000-0-85268	5	218	BLM00085268	3	ROBORE	-1	-1	0	-59.767	-18.317	NA	2002-01-01	2003-12-31	1	0	63	NMS	-1	Puerto Suárez	NA	NA	0	63	29	1	NA	NA	[111, 112, 1, 2, 59, 29]	NA	-1	-60.29368598185123	-59.24031401814877	-18.817	-17.817	S. Schroeder	0
0-20000-0-85223	5	219	BLXUAE04835	3	COCHABAMBA	-1	-1	0	-66.17	-17.38	NA	1944-01-01	1946-12-31	1	0	63	NMS	-1	Cochabamba	NA	NA	0	63	29	1	NA	NA	[111, 112, 1, 2, 59, 29]	NA	-1	-66.69391973614519	-65.64608026385481	-17.88	-16.88	S. Schroeder	0
0-20000-0-85033	5	220	BLXUAE04836	3	GUAJARA-MIRIM (AERO)	-1	-1	0	-65.37	-10.82	NA	1944-01-01	1946-12-31	1	0	63	NMS	-1	Guajará-Mirim	NA	NA	0	63	29	1	NA	NA	[111, 112, 1, 2, 59, 29]	NA	-1	-65.8790500016644	-64.86094999833561	-11.32	-10.32	S. Schroeder	0
0-20000-0-85141	5	221	BLXUAE04838	3	REYES	-1	-1	0	-67.53	-14.45	NA	1946-01-01	1946-12-31	1	0	63	NMS	-1	Rurrenabaque	NA	NA	0	63	29	1	NA	NA	[111, 112, 1, 2, 59, 29]	NA	-1	-68.04633382318816	-67.01366617681184	-14.95	-13.95	S. Schroeder	0
0-20000-0-85365	5	222	BLXUAE04841	3	YACUIBA	-1	-1	0	-63.68	-22.03	NA	1944-01-01	1946-12-31	1	0	63	NMS	-1	Yacuiba	NA	NA	0	63	29	1	NA	NA	[111, 112, 1, 2, 59, 29]	NA	-1	-64.21938155016329	-63.1406184498367	-22.53	-21.53	S. Schroeder	0
0-20000-0-48008	5	223	BMM00048008	3	MYITKYINA	-1	-1	0	97.4	25.367	NA	1973-01-01	1998-12-31	1	0	63	NMS	-1	Myitkyina	NA	NA	0	63	29	1	NA	NA	[111, 112, 1, 2, 59, 29]	NA	-1	96.84664690775132	97.95335309224869	24.867	25.867	S. Schroeder	0
0-20000-0-48042	5	224	BMM00048042	3	MANDALAY	-1	-1	0	96.1	21.983	NA	1928-01-01	1998-12-31	1	0	63	NMS	-1	Mandalay	NA	NA	0	63	29	1	NA	NA	[111, 112, 1, 2, 59, 29]	NA	-1	95.56079724293193	96.63920275706806	21.483	22.483	S. Schroeder	0
0-20000-0-48053	5	225	BMM00048053	3	Kyaukse	-1	-1	0	95.9	20.883	NA	1962-01-01	1998-12-31	1	0	63	NMS	-1	Meiktila	NA	NA	0	63	29	1	NA	NA	[111, 112, 1, 2, 59, 29]	NA	-1	95.36484587510796	96.43515412489205	20.383	21.383	S. Schroeder	0
0-20000-0-48060	5	226	BMM00048060	3	KENGTUNG	-1	-1	0	99.617	21.3	NA	1983-01-01	1984-12-31	1	0	63	NMS	-1	Mae Sai	NA	NA	0	63	29	1	NA	NA	[111, 112, 1, 2, 59, 29]	NA	-1	99.08034151788063	100.15365848211938	20.8	21.8	S. Schroeder	0
0-20000-0-48062	5	227	BMM00048062	3	SITTWE	-1	-1	0	92.883	20.133	NA	1926-01-01	1985-12-31	1	0	63	NMS	-1	Akyab	NA	NA	0	63	29	1	NA	NA	[111, 112, 1, 2, 59, 29]	NA	-1	92.35045974695214	93.41554025304785	19.633	20.633	S. Schroeder	0
0-20000-0-48080	5	228	BMM00048080	3	Thandwe	-1	-1	0	94.35	18.467	NA	1933-01-01	1993-12-31	1	0	63	NMS	-1	Pyay	NA	NA	0	63	29	1	NA	NA	[111, 112, 1, 2, 59, 29]	NA	-1	93.82285534617652	94.87714465382346	17.967	18.967	S. Schroeder	0
0-20000-0-48094	5	229	BMM00048094	3	PATHEIN	-1	-1	0	94.767	16.767	NA	1973-01-01	2002-12-31	1	0	63	NMS	-1	Pathein	NA	NA	0	63	29	1	NA	NA	[111, 112, 1, 2, 59, 29]	NA	-1	94.2447990490859	95.2892009509141	16.267	17.267	S. Schroeder	0
0-20000-0-48097	5	230	BMM00048096	3	YANGON	-1	-1	0	96.183	16.9	NA	1981-01-01	1983-12-31	1	0	63	NMS	-1	Rangoon	NA	NA	0	63	29	1	NA	NA	[111, 112, 1, 2, 59, 29]	NA	-1	95.66043216826039	96.70556783173963	16.4	17.4	S. Schroeder	0
0-20000-0-48097	5	231	BMM00048097	3	YANGON	-1	-1	0	96.167	16.767	NA	1928-01-01	2021-12-31	1	0	63	NMS	-1	Rangoon	NA	NA	0	63	29	1	NA	NA	[111, 112, 1, 2, 59, 29]	NA	-1	95.6447990490859	96.6892009509141	16.267	17.267	S. Schroeder	0
0-20000-0-48108	5	232	BMM00048108	3	DAWEI	-1	-1	0	98.217	14.1	NA	1935-01-01	2002-12-31	1	0	63	NMS	-1	Dawei	NA	NA	0	63	29	1	NA	NA	[111, 112, 1, 2, 59, 29]	NA	-1	97.7014680616409	98.7325319383591	13.6	14.6	S. Schroeder	0
0-20000-0-48109	5	233	BMM00048109	3	COCO ISLAND	-1	-1	0	93.367	14.117	NA	1973-01-01	1985-12-31	1	0	63	NMS	-1	Labutta	NA	NA	0	63	29	1	NA	NA	[111, 112, 1, 2, 59, 29]	NA	-1	92.85142961483278	93.88257038516723	13.617	14.617	S. Schroeder	0
0-20000-0-48110	5	234	BMM00048110	3	Myeik	-1	-1	0	98.6	12.433	NA	1941-01-01	1998-12-31	1	0	63	NMS	-1	Mergui	NA	NA	0	63	29	1	NA	NA	[111, 112, 1, 2, 59, 29]	NA	-1	98.08799262718622	99.11200737281376	11.933	12.933	S. Schroeder	0
0-20000-0-48112	5	235	BMM00048112	3	RANONG	-1	-1	0	98.583	9.967	NA	1932-01-01	1993-12-31	1	0	63	NMS	-1	Ranong	NA	NA	0	63	29	1	NA	NA	[111, 112, 1, 2, 59, 29]	NA	-1	98.07533816648973	99.09066183351027	9.467	10.467	S. Schroeder	0
0-20000-0-65306	5	236	BNM00065306	3	KANDI	-1	-1	0	2.933	11.133	NA	1940-01-01	2019-12-31	1	0	63	NMS	-1	Kandi	NA	NA	0	63	29	1	NA	NA	[111, 112, 1, 2, 59, 29]	NA	-1	2.4234103464954098	3.44258965350459	10.633	11.633	S. Schroeder	0
0-20000-0-65330	5	237	BNM00065330	3	PARAKOU	-1	-1	0	2.617	9.35	NA	1973-01-01	2021-12-31	1	0	63	NMS	-1	Parakou	NA	NA	0	63	29	1	NA	NA	[111, 112, 1, 2, 59, 29]	NA	-1	2.110267714331302	3.123732285668698	8.85	9.85	S. Schroeder	0
0-20000-0-65344	5	238	BNM00065344	3	COTONOU	-1	-1	0	2.383	6.35	NA	1940-01-01	2021-12-31	1	0	63	NMS	-1	Cotonou	NA	NA	0	63	29	1	NA	NA	[111, 112, 1, 2, 59, 29]	NA	-1	1.8799134714504024	2.8860865285495976	5.85	6.85	S. Schroeder	0
0-20000-0-65330	5	239	BNXUAAW5331	3	PARAKOU	-1	-1	0	2.6	8.867	NA	1942-01-01	1957-12-31	1	0	63	NMS	-1	Tchaourou	NA	NA	0	63	29	1	NA	NA	[111, 112, 1, 2, 59, 29]	NA	-1	2.0939521250306967	3.1060478749693035	8.367	9.367	S. Schroeder	0
0-20000-0-26850	5	240	BOM00026850	3	MINSK	-1	-1	0	27.633	53.933	NA	1939-01-01	1998-12-31	1	0	63	NMS	-1	Minsk	NA	NA	0	63	29	1	NA	NA	[111, 112, 1, 2, 59, 29]	NA	-1	26.783715534483825	28.482284465516173	53.433	54.433	S. Schroeder	0
0-20001-0-33008	5	241	BOM00033008	3	BREST (33008-1)	-1	-1	0	23.683	52.117	NA	1951-01-01	2021-12-31	1	0	63	NMS	-1	Brest	NA	NA	0	63	29	1	NA	NA	[111, 112, 1, 2, 59, 29]	NA	-1	22.868735449260175	24.497264550739825	51.617	52.617	S. Schroeder	0
0-20000-0-33036	5	242	BOM00033036	3	VASILEVICHI	-1	-1	0	29.25	52.05	NA	1957-01-01	1969-12-31	1	0	63	NMS	-1	Mazyr	NA	NA	0	63	29	1	NA	NA	[111, 112, 1, 2, 59, 29]	NA	-1	28.436956931378322	30.063043068621678	51.55	52.55	S. Schroeder	0
0-20001-0-33041	5	243	BOM00033041	3	GOMEL (33041-1)	-1	-1	0	30.963	52.402	NA	1970-01-01	2021-12-31	1	0	63	NMS	-1	Gomel	NA	NA	0	63	29	1	NA	NA	[111, 112, 1, 2, 59, 29]	NA	-1	30.143485736054892	31.78251426394511	51.902	52.902	S. Schroeder	0
0-20000-0-91517	5	244	BPM00091517	3	HONIARA	-1	-1	0	159.967	-9.417	NA	1959-01-01	2011-12-31	1	0	63	NMS	-1	Honiara	NA	NA	0	63	29	1	NA	NA	[111, 112, 1, 2, 59, 29]	NA	-1	159.46016978285704	160.473830217143	-9.917	-8.917	S. Schroeder	0
0-20000-0-91541	5	245	BPM00091541	3	SANTA CRUZ (91541-0)	-1	-1	0	165.8	-10.7	NA	1992-01-01	1993-12-31	1	0	63	NMS	-1	Luganville	NA	NA	0	63	29	1	NA	NA	[111, 112, 1, 2, 59, 29]	NA	-1	165.2911525661392	166.30884743386082	-11.2	-10.2	S. Schroeder	0
0-20000-0-81729	5	246	BRM00081729	3	MANACAPURU	-1	-1	0	-60.628	-3.294	NA	2014-01-01	2015-12-31	1	0	63	NMS	-1	Manacapuru	NA	NA	0	63	29	1	NA	NA	[111, 112, 1, 2, 59, 29]	NA	-1	-61.12882744746083	-60.12717255253917	-3.794	-2.794	S. Schroeder	0
0-20000-0-82022	5	247	BRM00082022	3	BOA VISTA (AERO)	-1	-1	0	-60.7	2.833	NA	1977-01-01	2021-12-31	1	0	63	NMS	-1	Boa Vista	NA	NA	0	63	29	1	NA	NA	[111, 112, 1, 2, 59, 29]	NA	-1	-61.20061182964142	-60.19938817035859	2.333	3.333	S. Schroeder	0
0-20000-0-82026	5	248	BRM00082026	3	TIRIOS	-1	-1	0	-55.947	2.224	NA	2006-01-01	2021-12-31	1	0	63	NMS	-1	Lelydorp	NA	NA	0	63	29	1	NA	NA	[111, 112, 1, 2, 59, 29]	NA	-1	-56.447376909458434	-55.44662309054157	1.7240000000000002	2.724	S. Schroeder	0
0-20000-0-82099	5	249	BRM00082099	3	MACAPA (AERO)	-1	-1	0	-51.067	0.05	NA	2005-01-01	2021-12-31	1	0	63	NMS	-1	Macapá	NA	NA	0	63	29	1	NA	NA	[111, 112, 1, 2, 59, 29]	NA	-1	-51.56700019038595	-50.56699980961405	-0.45	0.55	S. Schroeder	0
0-20000-0-82107	5	250	BRM00082107	3	SAO GABRIEL DA CACHOEIRA (AERO)	-1	-1	0	-66.967	-0.117	NA	2008-01-01	2021-12-31	1	0	63	NMS	-1	São Gabriel da Cachoeira	NA	NA	0	63	29	1	NA	NA	[111, 112, 1, 2, 59, 29]	NA	-1	-67.46700104247877	-66.46699895752123	-0.617	0.383	S. Schroeder	0
0-20000-0-82193	5	251	BRM00082193	3	BELEM (AERO)	-1	-1	0	-48.483	-1.383	NA	1943-01-01	2021-12-31	1	0	63	NMS	-1	Belém	NA	NA	0	63	29	1	NA	NA	[111, 112, 1, 2, 59, 29]	NA	-1	-48.98314569496658	-47.98285430503341	-1.883	-0.883	S. Schroeder	0
0-20000-0-82244	5	252	BRM00082244	3	SANTAREM (AERO)	-1	-1	0	-54.717	-2.433	NA	1973-01-01	2021-12-31	1	0	63	NMS	-1	Santarém	NA	NA	0	63	29	1	NA	NA	[111, 112, 1, 2, 59, 29]	NA	-1	-55.217451133808304	-54.216548866191694	-2.933	-1.9329999999999998	S. Schroeder	0
0-20000-0-82281	5	253	BRM00082281	3	SAO LUIZ (AERO)	-1	-1	0	-44.233	-2.6	NA	1971-01-01	2021-12-31	1	0	63	NMS	-1	São Luís	NA	NA	0	63	29	1	NA	NA	[111, 112, 1, 2, 59, 29]	NA	-1	-44.733515245513935	-43.73248475448606	-3.1	-2.1	S. Schroeder	0
0-20000-0-82287	5	254	BRM00082287	3	PARNAIBA (AERO)	-1	-1	0	-41.783	-3.083	NA	1973-01-01	1979-12-31	1	0	63	NMS	-1	Parnaíba	NA	NA	0	63	29	1	NA	NA	[111, 112, 1, 2, 59, 29]	NA	-1	-42.28372471295745	-41.28227528704255	-3.583	-2.583	S. Schroeder	0
0-20000-0-82332	5	255	BRM00082332	3	MANAUS (AERO)	-1	-1	0	-59.983	-3.15	NA	1967-01-01	2021-12-31	1	0	63	NMS	-1	Manaus	NA	NA	0	63	29	1	NA	NA	[111, 112, 1, 2, 59, 29]	NA	-1	-60.48375659441516	-59.48224340558483	-3.65	-2.65	S. Schroeder	0
0-20000-0-82397	5	256	BRM00082397	3	FORTALEZA (82397-0)	-1	-1	0	-38.6	-3.767	NA	1973-01-01	2019-12-31	1	0	63	NMS	-1	Caucaia	NA	NA	0	63	29	1	NA	NA	[111, 112, 1, 2, 59, 29]	NA	-1	-39.10108260208173	-38.09891739791827	-4.2669999999999995	-3.267	S. Schroeder	0
0-20000-0-82400	5	257	BRM00082400	3	FERNANDO DE NORONHA	-1	-1	0	-32.417	-3.85	NA	1958-01-01	2021-12-31	1	0	63	NMS	-1	São Miguel	NA	NA	0	63	29	1	NA	NA	[111, 112, 1, 2, 59, 29]	NA	-1	-32.918130925473996	-31.915869074526007	-4.35	-3.35	S. Schroeder	0
0-20000-0-82411	5	258	BRM00082411	3	TABATINGA (AERO)	-1	-1	0	-69.933	-4.25	NA	2006-01-01	2021-12-31	1	0	63	NMS	-1	Tabatinga	NA	NA	0	63	29	1	NA	NA	[111, 112, 1, 2, 59, 29]	NA	-1	-70.43437869861626	-69.43162130138376	-4.75	-3.75	S. Schroeder	0
0-20000-0-82532	5	259	BRM00082532	3	MANICORE (AERO)	-1	-1	0	-61.283	-5.817	NA	2006-01-01	2021-12-31	1	0	63	NMS	-1	Manicoré	NA	NA	0	63	29	1	NA	NA	[111, 112, 1, 2, 59, 29]	NA	-1	-61.78558798584944	-60.78041201415056	-6.317	-5.317	S. Schroeder	0
0-20000-0-82571	5	260	BRM00082571	3	BARRA DO CORDA (81825-0)	-1	-1	0	-45.267	-5.5	NA	1977-01-01	1979-12-31	1	0	63	NMS	-1	Barra do Corda	NA	NA	0	63	29	1	NA	NA	[111, 112, 1, 2, 59, 29]	NA	-1	-45.76931254732557	-44.76468745267444	-6.0	-5.0	S. Schroeder	0
0-20000-0-82579	5	261	BRM00082579	3	TERESINA (82578-0)	-1	-1	0	-42.817	-5.05	NA	1973-01-01	1978-12-31	1	0	63	NMS	-1	Teresina	NA	NA	0	63	29	1	NA	NA	[111, 112, 1, 2, 59, 29]	NA	-1	-43.318948432784964	-42.315051567215036	-5.55	-4.55	S. Schroeder	0
0-20000-0-82586	5	262	BRM00082586	3	Quixada	-1	-1	0	-39.3	-5.2	NA	1974-01-01	1979-12-31	1	0	63	NMS	-1	Quixeramobim	NA	NA	0	63	29	1	NA	NA	[111, 112, 1, 2, 59, 29]	NA	-1	-39.80206630477882	-38.797933695221175	-5.7	-4.7	S. Schroeder	0
0-20000-0-82599	5	263	BRM00082599	3	NATAL (AERO)	-1	-1	0	-35.25	-5.917	NA	1943-01-01	2021-12-31	1	0	63	NMS	-1	Parnamirim	NA	NA	0	63	29	1	NA	NA	[111, 112, 1, 2, 59, 29]	NA	-1	-35.752678131262115	-34.747321868737885	-6.417	-5.417	S. Schroeder	0
0-20000-0-82640	5	264	BRM00082640	3	JACAREACANGA	-1	-1	0	-57.733	-6.267	NA	1973-01-01	1975-12-31	1	0	63	NMS	-1	Borba	NA	NA	0	63	29	1	NA	NA	[111, 112, 1, 2, 59, 29]	NA	-1	-58.23600596717323	-57.22999403282677	-6.767	-5.767	S. Schroeder	0
0-20000-0-82678	5	265	BRM00082678	3	FLORIANO (82678-0)	-1	-1	0	-43.017	-6.767	NA	1971-01-01	2019-12-31	1	0	63	NMS	-1	Floriano	NA	NA	0	63	29	1	NA	NA	[111, 112, 1, 2, 59, 29]	NA	-1	-43.520507666422915	-42.51349233357709	-7.267	-6.267	S. Schroeder	0
0-20000-0-82705	5	266	BRM00082705	3	CRUZEIRO DO SUL (AERO)	-1	-1	0	-72.767	-7.583	NA	2004-01-01	2021-12-31	1	0	63	NMS	-1	Cruzeiro do Sul	NA	NA	0	63	29	1	NA	NA	[111, 112, 1, 2, 59, 29]	NA	-1	-73.27141120823157	-72.26258879176842	-8.083	-7.083	S. Schroeder	0
0-20000-0-82765	5	267	BRM00082765	3	CAROLINA (82765-0)	-1	-1	0	-47.467	-7.333	NA	1970-01-01	2020-12-31	1	0	63	NMS	-1	Carolina	NA	NA	0	63	29	1	NA	NA	[111, 112, 1, 2, 59, 29]	NA	-1	-47.97112317601181	-46.96287682398819	-7.833	-6.833	S. Schroeder	0
0-20000-0-82784	5	268	BRM00082784	3	BARBALHA (81911-0)	-1	-1	0	-39.3	-7.317	NA	1974-01-01	1979-12-31	1	0	63	NMS	-1	Barbalha	NA	NA	0	63	29	1	NA	NA	[111, 112, 1, 2, 59, 29]	NA	-1	-39.80410507985364	-38.79589492014635	-7.817	-6.817	S. Schroeder	0
0-20000-0-82791	5	269	BRM00082791	3	PATOS (81913-0)	-1	-1	0	-37.267	-7.017	NA	1976-01-01	1979-12-31	1	0	63	NMS	-1	Patos	NA	NA	0	63	29	1	NA	NA	[111, 112, 1, 2, 59, 29]	NA	-1	-37.77077328782447	-36.76322671217554	-7.517	-6.517	S. Schroeder	0
0-20000-0-82824	5	270	BRM00082824	3	PORTO VELHO (AERO)	-1	-1	0	-63.917	-8.767	NA	1977-01-01	2021-12-31	1	0	63	NMS	-1	Pôrto Velho	NA	NA	0	63	29	1	NA	NA	[111, 112, 1, 2, 59, 29]	NA	-1	-64.42291089542223	-63.41108910457777	-9.267	-8.267	S. Schroeder	0
0-20000-0-82900	5	271	BRM00082900	3	RECIFE (82900-0)	-1	-1	0	-34.917	-8.05	NA	1952-01-01	2019-12-31	1	0	63	NMS	-1	Recife	NA	NA	0	63	29	1	NA	NA	[111, 112, 1, 2, 59, 29]	NA	-1	-35.421975911310206	-34.4120240886898	-8.55	-7.550000000000001	S. Schroeder	0
0-20000-0-82917	5	272	BRM00082917	3	RIO BRANCO (AERO)	-1	-1	0	-67.8	-10.0	NA	2004-01-01	2021-12-31	1	0	63	NMS	-1	Rio Branco	NA	NA	0	63	29	1	NA	NA	[111, 112, 1, 2, 59, 29]	NA	-1	-68.30771330594287	-67.29228669405713	-10.5	-9.5	S. Schroeder	0
0-20000-0-82930	5	273	BRM00082930	3	CACHIMBO (AERO)	-1	-1	0	-54.967	-9.333	NA	1973-01-01	1986-12-31	1	0	63	NMS	-1	Alta Floresta	NA	NA	0	63	29	1	NA	NA	[111, 112, 1, 2, 59, 29]	NA	-1	-55.473707553599986	-54.46029244640001	-9.833	-8.833	S. Schroeder	0
0-20000-0-82965	5	274	BRM00082965	3	ALTA FLORESTA (AERO)	-1	-1	0	-56.1	-9.867	NA	1987-01-01	2021-12-31	1	0	63	NMS	-1	Alta Floresta	NA	NA	0	63	29	1	NA	NA	[111, 112, 1, 2, 59, 29]	NA	-1	-56.60750694796799	-55.59249305203201	-10.367	-9.367	S. Schroeder	0
0-20000-0-82975	5	275	BRM00082975	3	BOM JESUS DO PIAUI (82975-0)	-1	-1	0	-44.117	-9.1	NA	1977-01-01	1979-12-31	1	0	63	NMS	-1	Bom Jesus	NA	NA	0	63	29	1	NA	NA	[111, 112, 1, 2, 59, 29]	NA	-1	-44.623373312365615	-43.61062668763438	-9.6	-8.6	S. Schroeder	0
0-20000-0-82983	5	276	BRM00082983	3	PETROLINA (82983-0)	-1	-1	0	-40.483	-9.383	NA	1970-01-01	2020-12-31	1	0	63	NMS	-1	Petrolina	NA	NA	0	63	29	1	NA	NA	[111, 112, 1, 2, 59, 29]	NA	-1	-40.98978042924005	-39.976219570759945	-9.883	-8.883	S. Schroeder	0
0-20000-0-82993	5	277	BRM00082993	3	PORTO DE PEDRAS	-1	-1	0	-35.783	-9.517	NA	1973-01-01	1979-12-31	1	0	63	NMS	-1	Satuba	NA	NA	0	63	29	1	NA	NA	[111, 112, 1, 2, 59, 29]	NA	-1	-36.2899777438093	-35.2760222561907	-10.017	-9.017	S. Schroeder	0
0-20000-0-83063	5	278	BRM00083063	3	PAMAS (AERO)	-1	-1	0	-48.4	-10.7	NA	1973-01-01	1979-12-31	1	0	63	NMS	-1	Porto Nacional	NA	NA	0	63	29	1	NA	NA	[111, 112, 1, 2, 59, 29]	NA	-1	-48.90884743386079	-47.891152566139205	-11.2	-10.2	S. Schroeder	0
0-20000-0-83096	5	279	BRM00083096	3	Itabaiana	-1	-1	0	-37.05	-10.917	NA	1974-01-01	1979-12-31	1	0	63	NMS	-1	Aracaju	NA	NA	0	63	29	1	NA	NA	[111, 112, 1, 2, 59, 29]	NA	-1	-37.55921549496953	-36.540784505030466	-11.417	-10.417	S. Schroeder	0
0-20000-0-83182	5	280	BRM00083182	3	IRECE (86635-0)	-1	-1	0	-41.867	-11.3	NA	1975-01-01	1979-12-31	1	0	63	NMS	-1	Irecê	NA	NA	0	63	29	1	NA	NA	[111, 112, 1, 2, 59, 29]	NA	-1	-42.3768842808867	-41.357115719113295	-11.8	-10.8	S. Schroeder	0
0-20000-0-83208	5	281	BRM00083208	3	VILHENA (AERO)	-1	-1	0	-60.1	-12.7	NA	1967-01-01	2021-12-31	1	0	63	NMS	-1	Vilhena	NA	NA	0	63	29	1	NA	NA	[111, 112, 1, 2, 59, 29]	NA	-1	-60.612539512929594	-59.58746048707041	-13.2	-12.2	S. Schroeder	0
0-20000-0-83229	5	282	BRM00083229	3	SALVADOR (83229-0)	-1	-1	0	-38.517	-13.017	NA	1970-01-01	2018-12-31	1	0	63	NMS	-1	Salvador	NA	NA	0	63	29	1	NA	NA	[111, 112, 1, 2, 59, 29]	NA	-1	-39.03018722979574	-38.00381277020426	-13.517	-12.517	S. Schroeder	0
0-20000-0-83236	5	283	BRM00083236	3	BARREIRAS (86652-0)	-1	-1	0	-45.0	-12.15	NA	1973-01-01	1979-12-31	1	0	63	NMS	-1	Barreiras	NA	NA	0	63	29	1	NA	NA	[111, 112, 1, 2, 59, 29]	NA	-1	-45.51145666103786	-44.48854333896214	-12.65	-11.65	S. Schroeder	0
0-20000-0-83288	5	284	BRM00083288	3	BOM JESUS DA LAPA (83288-0)	-1	-1	0	-43.417	-13.267	NA	1970-01-01	2019-12-31	1	0	63	NMS	-1	Bom Jesus da Lapa	NA	NA	0	63	29	1	NA	NA	[111, 112, 1, 2, 59, 29]	NA	-1	-43.9307103062316	-42.9032896937684	-13.767	-12.767	S. Schroeder	0
0-20000-0-83344	5	285	BRM00083344	3	VICTORIA DA CONQUISTA (AERO)	-1	-1	0	-40.883	-14.95	NA	1976-01-01	1977-12-31	1	0	63	NMS	-1	Vitória da Conquista	NA	NA	0	63	29	1	NA	NA	[111, 112, 1, 2, 59, 29]	NA	-1	-41.400517276324564	-40.36548272367544	-15.45	-14.45	S. Schroeder	0
0-20000-0-83362	5	286	BRM00083361	3	CUIABA (AERO)	-1	-1	0	-56.1	-15.6	NA	1991-01-01	1993-12-31	1	0	63	NMS	-1	Cuiabá	NA	NA	0	63	29	1	NA	NA	[111, 112, 1, 2, 59, 29]	NA	-1	-56.61912316491121	-55.580876835088795	-16.1	-15.1	S. Schroeder	0
0-20000-0-83362	5	287	BRM00083362	3	CUIABA (AERO)	-1	-1	0	-56.1	-15.65	NA	1974-01-01	2021-12-31	1	0	63	NMS	-1	Várzea Grande	NA	NA	0	63	29	1	NA	NA	[111, 112, 1, 2, 59, 29]	NA	-1	-56.61924987905971	-55.580750120940294	-16.15	-15.15	S. Schroeder	0
0-20000-0-83378	5	288	BRM00083378	3	BRASILIA (AERO)	-1	-1	0	-47.933	-15.867	NA	1966-01-01	2021-12-31	1	0	63	NMS	-1	Brasília	NA	NA	0	63	29	1	NA	NA	[111, 112, 1, 2, 59, 29]	NA	-1	-48.45280512673547	-47.41319487326453	-16.367	-15.367	S. Schroeder	0
0-20000-0-83498	5	289	BRM00083498	3	CARAVELAS (83498-0)	-1	-1	0	-39.25	-17.733	NA	1975-01-01	2016-12-31	1	0	63	NMS	-1	Caravelas	NA	NA	0	63	29	1	NA	NA	[111, 112, 1, 2, 59, 29]	NA	-1	-39.774941981618205	-38.725058018381795	-18.233	-17.233	S. Schroeder	0
0-20000-0-83525	5	290	BRM00083525	3	UBERLANDIA (AERO)	-1	-1	0	-48.217	-18.883	NA	2006-01-01	2021-12-31	1	0	63	NMS	-1	Uberlândia	NA	NA	0	63	29	1	NA	NA	[111, 112, 1, 2, 59, 29]	NA	-1	-48.7454398811579	-47.6885601188421	-19.383	-18.383	S. Schroeder	0
0-20000-0-83554	5	291	BRM00083554	3	CORUMBA (AERO)	-1	-1	0	-57.667	-19.0	NA	2002-01-01	2021-12-31	1	0	63	NMS	-1	Corumbá	NA	NA	0	63	29	1	NA	NA	[111, 112, 1, 2, 59, 29]	NA	-1	-58.19581034059334	-57.13818965940666	-19.5	-18.5	S. Schroeder	0
0-20000-0-83566	5	292	BRM00083566	3	CONFINS (AERO)	-1	-1	0	-43.967	-19.617	NA	1973-01-01	2021-12-31	1	0	63	NMS	-1	Vespasiano	NA	NA	0	63	29	1	NA	NA	[111, 112, 1, 2, 59, 29]	NA	-1	-44.49780929643622	-43.436190703563774	-20.117	-19.117	S. Schroeder	0
0-20000-0-83576	5	293	BRM00083576	3	USINA JUNQUEIRA	-1	-1	0	-47.967	-19.783	NA	1973-01-01	1973-12-31	1	0	63	NMS	-1	Uberaba	NA	NA	0	63	29	1	NA	NA	[111, 112, 1, 2, 59, 29]	NA	-1	-48.498360225274354	-47.435639774725644	-20.283	-19.283	S. Schroeder	0
0-20000-0-83612	5	294	BRM00083612	3	CAMPO GRANDE (AERO)	-1	-1	0	-54.667	-20.467	NA	1966-01-01	2021-12-31	1	0	63	NMS	-1	Campo Grande	NA	NA	0	63	29	1	NA	NA	[111, 112, 1, 2, 59, 29]	NA	-1	-55.20068984449765	-54.13331015550235	-20.967	-19.967	S. Schroeder	0
0-20000-0-83649	5	295	BRM00083649	3	VITORIA (AERO)	-1	-1	0	-40.283	-20.267	NA	1973-01-01	2021-12-31	1	0	63	NMS	-1	Vila Velha	NA	NA	0	63	29	1	NA	NA	[111, 112, 1, 2, 59, 29]	NA	-1	-40.815998695643025	-39.75000130435698	-20.767	-19.767	S. Schroeder	0
0-20000-0-83650	5	296	BRM00083650	3	TRINDADE (ILHA)	-1	-1	0	-29.317	-20.5	NA	1967-01-01	2019-12-31	1	0	63	NMS	-1	Caravelas	NA	NA	0	63	29	1	NA	NA	[111, 112, 1, 2, 59, 29]	NA	-1	-29.850804681871903	-28.783195318128097	-21.0	-20.0	S. Schroeder	0
0-20000-0-83746	5	297	BRM00083746	3	GALEAO	-1	-1	0	-43.25	-22.817	NA	1961-01-01	2021-12-31	1	0	63	NMS	-1	Duque de Caxias	NA	NA	0	63	29	1	NA	NA	[111, 112, 1, 2, 59, 29]	NA	-1	-43.79244753224346	-42.70755246775654	-23.317	-22.317	S. Schroeder	0
0-20000-0-83768	5	298	BRM00083768	3	LONDRINA (AERO)	-1	-1	0	-51.133	-23.333	NA	1973-01-01	2021-12-31	1	0	63	NMS	-1	Londrina	NA	NA	0	63	29	1	NA	NA	[111, 112, 1, 2, 59, 29]	NA	-1	-51.67753275377749	-50.588467246222514	-23.833	-22.833	S. Schroeder	0
0-20000-0-83779	5	299	BRM00083779	3	MARTE (AERO)	-1	-1	0	-46.633	-23.5	NA	2000-01-01	2021-12-31	1	0	63	NMS	-1	São Paulo	NA	NA	0	63	29	1	NA	NA	[111, 112, 1, 2, 59, 29]	NA	-1	-47.17822055202899	-46.087779447971016	-24.0	-23.0	S. Schroeder	0
0-20000-0-83779	5	300	BRM00083780	3	MARTE (AERO)	-1	-1	0	-46.65	-23.617	NA	1955-01-01	2000-12-31	1	0	63	NMS	-1	São Caetano do Sul	NA	NA	0	63	29	1	NA	NA	[111, 112, 1, 2, 59, 29]	NA	-1	-47.19570622321261	-46.10429377678739	-24.117	-23.117	S. Schroeder	0
0-20000-0-83827	5	301	BRM00083827	3	FOZ DO IGUACU (AERO)	-1	-1	0	-54.583	-25.517	NA	1974-01-01	2021-12-31	1	0	63	NMS	-1	Foz do Iguaçu	NA	NA	0	63	29	1	NA	NA	[111, 112, 1, 2, 59, 29]	NA	-1	-55.13704270537638	-54.028957294623616	-26.017	-25.017	S. Schroeder	0
0-20000-0-83840	5	302	BRM00083840	3	CURITIBA (AERO)	-1	-1	0	-49.167	-25.517	NA	1965-01-01	2021-12-31	1	0	63	NMS	-1	São José dos Pinhais	NA	NA	0	63	29	1	NA	NA	[111, 112, 1, 2, 59, 29]	NA	-1	-49.721042705376384	-48.61295729462362	-26.017	-25.017	S. Schroeder	0
0-20000-0-83899	5	303	BRM00083899	3	FLORIANOPOLIS (AERO)	-1	-1	0	-48.55	-27.667	NA	1973-01-01	2021-12-31	1	0	63	NMS	-1	Florianópolis	NA	NA	0	63	29	1	NA	NA	[111, 112, 1, 2, 59, 29]	NA	-1	-49.11454996007271	-47.98545003992729	-28.167	-27.167	S. Schroeder	0
0-20000-0-83928	5	304	BRM00083928	3	URUGUAIANA (AERO)	-1	-1	0	-57.033	-29.783	NA	1973-01-01	2021-12-31	1	0	63	NMS	-1	Uruguaiana	NA	NA	0	63	29	1	NA	NA	[111, 112, 1, 2, 59, 29]	NA	-1	-57.60909469464353	-56.45690530535647	-30.283	-29.283	S. Schroeder	0
0-20000-0-83937	5	305	BRM00083937	3	SANTA MARIA (AERO)	-1	-1	0	-53.7	-29.717	NA	2006-01-01	2021-12-31	1	0	63	NMS	-1	Santa Maria	NA	NA	0	63	29	1	NA	NA	[111, 112, 1, 2, 59, 29]	NA	-1	-54.27571553308303	-53.124284466916976	-30.217	-29.217	S. Schroeder	0
0-20000-0-83971	5	306	BRM00083971	3	PORTO ALEGRE (AERO)	-1	-1	0	-51.183	-30.0	NA	1950-01-01	2021-12-31	1	0	63	NMS	-1	Porto Alegre	NA	NA	0	63	29	1	NA	NA	[111, 112, 1, 2, 59, 29]	NA	-1	-51.76035026918962	-50.60564973081038	-30.5	-29.5	S. Schroeder	0
0-20000-0-83981	5	307	BRM00083981	3	BAGE (86992-0)	-1	-1	0	-54.117	-31.35	NA	1973-01-01	1979-12-31	1	0	63	NMS	-1	Bagé	NA	NA	0	63	29	1	NA	NA	[111, 112, 1, 2, 59, 29]	NA	-1	-54.70247657061262	-53.53152342938738	-31.85	-30.85	S. Schroeder	0
0-20000-0-15614	5	308	BUM00015614	3	SOFIA (OBSERV.)	-1	-1	0	23.383	42.65	NA	1955-01-01	2021-12-31	1	0	63	NMS	-1	Sofia	NA	NA	0	63	29	1	NA	NA	[111, 112, 1, 2, 59, 29]	NA	-1	22.703196004368024	24.062803995631974	42.15	43.15	S. Schroeder	0
0-20000-0-15730	5	309	BUM00015730	3	KURDJALI	-1	-1	0	25.367	41.65	NA	1966-01-01	1991-12-31	1	0	63	NMS	-1	Haskovo	NA	NA	0	63	29	1	NA	NA	[111, 112, 1, 2, 59, 29]	NA	-1	24.697851614458347	26.036148385541654	41.15	42.15	S. Schroeder	0
0-20000-0-96315	5	310	BXM00096315	3	BRUNEI AIRPORT	-1	-1	0	114.933	4.933	NA	1981-01-01	2021-12-31	1	0	63	NMS	-1	Limbang	NA	NA	0	63	29	1	NA	NA	[111, 112, 1, 2, 59, 29]	NA	-1	114.43114108160398	115.43485891839603	4.433	5.433	S. Schroeder	0
0-20000-0-96323	5	311	BXM00096323	3	MIRI	-1	-1	0	114.2	4.583	NA	1999-01-01	2021-12-31	1	0	63	NMS	-1	Miri	NA	NA	0	63	29	1	NA	NA	[111, 112, 1, 2, 59, 29]	NA	-1	113.6983961870569	114.7016038129431	4.083	5.083	S. Schroeder	0
0-20001-0-71043	5	312	CAM00071043	3	NORMAN WELLS UA, NWT	-1	-1	0	-126.75	65.283	NA	1951-01-01	2021-12-31	1	0	63	NMS	-1	Whitehorse	NA	NA	0	63	29	1	NA	NA	[111, 112, 1, 2, 59, 29]	NA	-1	-127.94578143079664	-125.55421856920336	64.783	65.783	S. Schroeder	0
0-20000-0-71467	5	313	CAM00071051	3	SACHS HARBOUR CLIMATE, NWT	-1	-1	0	-125.27	72.0	NA	1955-01-01	1986-12-31	1	0	63	NMS	-1	Yellowknife	NA	NA	0	63	29	1	NA	NA	[111, 112, 1, 2, 59, 29]	NA	-1	-126.8880339887499	-123.6519660112501	71.5	72.5	S. Schroeder	0
0-20000-0-71069	5	314	CAM00071069	3	SLAVE LAKE RCS, AB	-1	-1	0	-114.783	55.283	NA	1973-01-01	1994-12-31	1	0	63	NMS	-1	Spruce Grove	NA	NA	0	63	29	1	NA	NA	[111, 112, 1, 2, 59, 29]	NA	-1	-115.66092700117782	-113.90507299882218	54.783	55.783	S. Schroeder	0
0-20000-0-71989	5	315	CAM00071072	3	MOULD BAY CS, NWT	-1	-1	0	-119.35	76.25	NA	1948-01-01	1997-12-31	1	0	63	NMS	-1	Yellowknife	NA	NA	0	63	29	1	NA	NA	[111, 112, 1, 2, 59, 29]	NA	-1	-121.45361664761262	-117.24638335238737	75.75	76.75	S. Schroeder	0
0-20000-0-71074	5	316	CAM00071074	3	ISACHSEN (AUT), NU	-1	-1	0	-103.5	78.8	NA	1948-01-01	1978-12-31	1	0	63	NMS	-1	Yellowknife	NA	NA	0	63	29	1	NA	NA	[111, 112, 1, 2, 59, 29]	NA	-1	-106.07420995235671	-100.92579004764329	78.3	79.3	S. Schroeder	0
0-20001-0-71081	5	317	CAM00071081	3	HALL BEACH UA, NU	-1	-1	0	-81.217	68.767	NA	1957-01-01	2021-12-31	1	0	63	NMS	-1	Nuuk	NA	NA	0	63	29	1	NA	NA	[111, 112, 1, 2, 59, 29]	NA	-1	-82.59759957715234	-79.83640042284766	68.267	69.267	S. Schroeder	0
0-20001-0-71082	5	318	CAM00071082	3	ALERT UA, NU	-1	-1	0	-62.333	82.5	NA	1950-01-01	2021-12-31	1	0	63	NMS	-1	Nuuk	NA	NA	0	63	29	1	NA	NA	[111, 112, 1, 2, 59, 29]	NA	-1	-66.16364878777019	-58.502351212229804	82.0	83.0	S. Schroeder	0
0-20000-0-71090	5	319	CAM00071090	3	CLYDE RIVER A, NU	-1	-1	0	-68.55	70.45	NA	1950-01-01	1970-12-31	1	0	63	NMS	-1	Nuuk	NA	NA	0	63	29	1	NA	NA	[111, 112, 1, 2, 59, 29]	NA	-1	-70.04419054870374	-67.05580945129626	69.95	70.95	S. Schroeder	0
0-20001-0-71109	5	320	CAM00071109	3	PORT HARDY UA, BC	-1	-1	0	-127.376	50.685	NA	1951-01-01	2021-12-31	1	0	63	NMS	-1	Campbell River	NA	NA	0	63	29	1	NA	NA	[111, 112, 1, 2, 59, 29]	NA	-1	-128.16516203770956	-126.58683796229046	50.185	51.185	S. Schroeder	0
0-20000-0-0-124-0-73033	5	321	CAM00071115	3	Vernon UA, BC	-1	-1	0	-119.283	50.233	NA	1972-01-01	1993-12-31	1	0	63	NMS	-1	Vernon	NA	NA	0	63	29	1	NA	NA	[111, 112, 1, 2, 59, 29]	NA	-1	-120.06465659114006	-118.50134340885994	49.733	50.733	S. Schroeder	0
0-20000-0-71119	5	322	CAM00071119	3	STONY PLAIN UA, ALTA	-1	-1	0	-114.108	53.547	NA	1946-01-01	2021-12-31	1	0	63	NMS	-1	Spruce Grove	NA	NA	0	63	29	1	NA	NA	[111, 112, 1, 2, 59, 29]	NA	-1	-114.9495196659604	-113.26648033403961	53.047	54.047	S. Schroeder	0
0-20000-0-71120	5	323	CAM00071120	3	DUPRE AGCM, ALTA	-1	-1	0	-110.283	54.417	NA	1973-01-01	2019-12-31	1	0	63	NMS	-1	Grand Centre	NA	NA	0	63	29	1	NA	NA	[111, 112, 1, 2, 59, 29]	NA	-1	-111.14228120146342	-109.42371879853658	53.917	54.917	S. Schroeder	0
0-20000-0-71119	5	324	CAM00071121	3	STONY PLAIN UA, ALTA	-1	-1	0	-113.467	53.667	NA	1985-01-01	1999-12-31	1	0	63	NMS	-1	Edmonton	NA	NA	0	63	29	1	NA	NA	[111, 112, 1, 2, 59, 29]	NA	-1	-114.31091424298083	-112.62308575701917	53.167	54.167	S. Schroeder	0
0-20000-0-71119	5	325	CAM00071123	3	STONY PLAIN UA, ALTA	-1	-1	0	-113.583	53.317	NA	1973-01-01	1985-12-31	1	0	63	NMS	-1	Leduc	NA	NA	0	63	29	1	NA	NA	[111, 112, 1, 2, 59, 29]	NA	-1	-114.41997805323784	-112.74602194676216	52.817	53.817	S. Schroeder	0
0-20000-0-71023	5	326	CAM00071124	3	CFB - COLD LAKE, ALTA	-1	-1	0	-110.05	54.75	NA	1968-01-01	2010-12-31	1	0	63	NMS	-1	Grand Centre	NA	NA	0	63	29	1	NA	NA	[111, 112, 1, 2, 59, 29]	NA	-1	-110.91633313182034	-109.18366686817966	54.25	55.25	S. Schroeder	0
0-20000-0-71129	5	327	CAM00071129	3	KINDERSLEY A, SASK	-1	-1	0	-109.183	51.517	NA	1991-01-01	1998-12-31	1	0	63	NMS	-1	North Battleford	NA	NA	0	63	29	1	NA	NA	[111, 112, 1, 2, 59, 29]	NA	-1	-109.98649371314919	-108.37950628685083	51.017	52.017	S. Schroeder	0
0-20000-0-71145	5	328	CAM00071145	3	ISLAND LAKE A, MAN	-1	-1	0	-94.65	53.85	NA	1984-01-01	1996-12-31	1	0	63	NMS	-1	Thompson	NA	NA	0	63	29	1	NA	NA	[111, 112, 1, 2, 59, 29]	NA	-1	-95.49759951081701	-93.802400489183	53.35	54.35	S. Schroeder	0
0-20000-0-71197	5	329	CAM00071197	3	WRECKHOUSE, NFLD	-1	-1	0	-59.15	47.567	NA	1994-01-01	1997-12-31	1	0	63	NMS	-1	New Waterford	NA	NA	0	63	29	1	NA	NA	[111, 112, 1, 2, 59, 29]	NA	-1	-59.89103979645056	-58.408960203549434	47.067	48.067	S. Schroeder	0
0-20001-0-71203	5	330	CAM00071203	3	KELOWNA UA, BC	-1	-1	0	-119.4	49.941	NA	1994-01-01	2017-12-31	1	0	63	NMS	-1	Kelowna	NA	NA	0	63	29	1	NA	NA	[111, 112, 1, 2, 59, 29]	NA	-1	-120.17690890179809	-118.62309109820193	49.441	50.441	S. Schroeder	0
0-20000-0-71450	5	331	CAM00071450	3	OUTLOOK PFRA, SASK	-1	-1	0	-106.583	51.133	NA	1988-01-01	1989-12-31	1	0	63	NMS	-1	Moose Jaw	NA	NA	0	63	29	1	NA	NA	[111, 112, 1, 2, 59, 29]	NA	-1	-107.3797940606699	-105.7862059393301	50.633	51.633	S. Schroeder	0
0-20000-0-71524	5	332	CAM00071524	3	MONTREAL/PIERRE ELLIOTT TRUDEAU INT'L A, QUE	-1	-1	0	-73.433	45.817	NA	1996-01-01	1996-12-31	1	0	63	NMS	-1	Joliette	NA	NA	0	63	29	1	NA	NA	[111, 112, 1, 2, 59, 29]	NA	-1	-74.15040914921833	-72.71559085078168	45.317	46.317	S. Schroeder	0
0-20001-0-71569	5	333	CAM00071569	3	BRATT'S LAKE UA, SASK	-1	-1	0	-104.7	50.2	NA	2004-01-01	2011-12-31	1	0	63	NMS	-1	Regina	NA	NA	0	63	29	1	NA	NA	[111, 112, 1, 2, 59, 29]	NA	-1	-105.48111611244497	-103.91888388755504	49.7	50.7	S. Schroeder	0
0-20000-0-71600	5	334	CAM00071600	3	SABLE ISLAND, NS	-1	-1	0	-60.009	43.932	NA	1954-01-01	2019-12-31	1	0	63	NMS	-1	Sydney	NA	NA	0	63	29	1	NA	NA	[111, 112, 1, 2, 59, 29]	NA	-1	-60.70328656109406	-59.31471343890594	43.432	44.432	S. Schroeder	0
0-20001-0-71603	5	335	CAM00071603	3	YARMOUTH UA, NS	-1	-1	0	-66.1	43.867	NA	1988-01-01	2021-12-31	1	0	63	NMS	-1	Saint John	NA	NA	0	63	29	1	NA	NA	[111, 112, 1, 2, 59, 29]	NA	-1	-66.79352902184489	-65.4064709781551	43.367	44.367	S. Schroeder	0
0-20000-0-71621	5	336	CAM00071621	3	COBOURG (AUT), ONT	-1	-1	0	-77.533	44.117	NA	1999-01-01	2001-12-31	1	0	63	NMS	-1	Belleville	NA	NA	0	63	29	1	NA	NA	[111, 112, 1, 2, 59, 29]	NA	-1	-78.22945663857524	-76.83654336142476	43.617	44.617	S. Schroeder	0
0-20000-0-71625	5	337	CAM00071625	3	PETAWAWA A, ONT	-1	-1	0	-77.317	45.95	NA	1986-01-01	2005-12-31	1	0	63	NMS	-1	Petawawa	NA	NA	0	63	29	1	NA	NA	[111, 112, 1, 2, 59, 29]	NA	-1	-78.03612868821287	-76.59787131178712	45.45	46.45	S. Schroeder	0
0-20000-0-71627	5	338	CAM00071627	3	L'ASSOMPTION, QUE	-1	-1	0	-73.733	45.467	NA	1973-01-01	1995-12-31	1	0	63	NMS	-1	Montreal	NA	NA	0	63	29	1	NA	NA	[111, 112, 1, 2, 59, 29]	NA	-1	-74.4459413606973	-73.0200586393027	44.967	45.967	S. Schroeder	0
0-20001-0-71701	5	339	CAM00071701	3	GAGETOWN A, NB	-1	-1	0	-66.433	45.833	NA	1971-01-01	2021-12-31	1	0	63	NMS	-1	Fredericton	NA	NA	0	63	29	1	NA	NA	[111, 112, 1, 2, 59, 29]	NA	-1	-67.150615371312	-65.71538462868801	45.333	46.333	S. Schroeder	0
0-20000-0-71716	5	340	CAM00071716	3	VALCARTIER A, QUE	-1	-1	0	-71.483	46.9	NA	1977-01-01	2006-12-31	1	0	63	NMS	-1	Quebec	NA	NA	0	63	29	1	NA	NA	[111, 112, 1, 2, 59, 29]	NA	-1	-72.21477109858395	-70.75122890141606	46.4	47.4	S. Schroeder	0
0-20000-0-71722	5	341	CAM00071722	3	MANIWAKI UA, QUE	-1	-1	0	-76.006	46.302	NA	1954-01-01	2021-12-31	1	0	63	NMS	-1	Buckingham	NA	NA	0	63	29	1	NA	NA	[111, 112, 1, 2, 59, 29]	NA	-1	-76.72973859398127	-75.28226140601873	45.802	46.802	S. Schroeder	0
0-20000-0-71802	5	342	CAM00071801	3	ST JOHN'S WEST UA, NFLD	-1	-1	0	-52.75	47.667	NA	1950-01-01	2009-12-31	1	0	63	NMS	-1	Bay Roberts	NA	NA	0	63	29	1	NA	NA	[111, 112, 1, 2, 59, 29]	NA	-1	-53.49245840584783	-52.00754159415217	47.167	48.167	S. Schroeder	0
0-20000-0-71802	5	343	CAM00071802	3	ST JOHN'S WEST UA, NFLD	-1	-1	0	-52.783	47.517	NA	2009-01-01	2021-12-31	1	0	63	NMS	-1	Bay Roberts	NA	NA	0	63	29	1	NA	NA	[111, 112, 1, 2, 59, 29]	NA	-1	-53.52333336732397	-52.04266663267603	47.017	48.017	S. Schroeder	0
0-20000-0-71811	5	344	CAM00071811	3	SEPT-ILES UA, QUE	-1	-1	0	-66.25	50.217	NA	1954-01-01	2021-12-31	1	0	63	NMS	-1	Sept-Îles	NA	NA	0	63	29	1	NA	NA	[111, 112, 1, 2, 59, 29]	NA	-1	-67.03139441511549	-65.46860558488451	49.717	50.717	S. Schroeder	0
0-20001-0-71815	5	345	CAM00071815	3	STEPHENVILLE UA, NFLD	-1	-1	0	-58.567	48.567	NA	1946-01-01	2021-12-31	1	0	63	NMS	-1	Corner Brook	NA	NA	0	63	29	1	NA	NA	[111, 112, 1, 2, 59, 29]	NA	-1	-59.32257943819626	-57.81142056180374	48.067	49.067	S. Schroeder	0
0-20001-0-71816	5	346	CAM00071816	3	GOOSE UA, NFLD	-1	-1	0	-60.367	53.3	NA	1946-01-01	2021-12-31	1	0	63	NMS	-1	Corner Brook	NA	NA	0	63	29	1	NA	NA	[111, 112, 1, 2, 59, 29]	NA	-1	-61.203644847577806	-59.53035515242219	52.8	53.8	S. Schroeder	0
0-20001-0-71823	5	347	CAM00071823	3	LA GRANDE IV UA, QUE	-1	-1	0	-73.679	53.757	NA	1985-01-01	2021-12-31	1	0	63	NMS	-1	Dolbeau	NA	NA	0	63	29	1	NA	NA	[111, 112, 1, 2, 59, 29]	NA	-1	-74.52472157837579	-72.83327842162421	53.257	54.257	S. Schroeder	0
0-20001-0-71836	5	348	CAM00071836	3	MOOSONEE UA, ONT	-1	-1	0	-80.65	51.267	NA	1954-01-01	2021-12-31	1	0	63	NMS	-1	Timmins	NA	NA	0	63	29	1	NA	NA	[111, 112, 1, 2, 59, 29]	NA	-1	-81.4491151580031	-79.85088484199692	50.767	51.767	S. Schroeder	0
0-20000-0-71843	5	349	CAM00071843	3	WINNIPEG RICHARDSON INT'L A, MAN	-1	-1	0	-97.133	49.8	NA	2000-01-01	2021-12-31	1	0	63	NMS	-1	Winnipeg	NA	NA	0	63	29	1	NA	NA	[111, 112, 1, 2, 59, 29]	NA	-1	-97.90764411612034	-96.35835588387965	49.3	50.3	S. Schroeder	0
0-20001-0-71845	5	350	CAM00071845	3	PICKLE LAKE UA, ONT	-1	-1	0	-90.2	51.45	NA	1992-01-01	2021-12-31	1	0	63	NMS	-1	Thunder Bay	NA	NA	0	63	29	1	NA	NA	[111, 112, 1, 2, 59, 29]	NA	-1	-91.00231406121232	-89.39768593878769	50.95	51.95	S. Schroeder	0
0-20000-0-71851	5	351	CAM00071851	3	CARMAN U OF M CS, MAN	-1	-1	0	-98.284	49.903	NA	1999-01-01	2003-12-31	1	0	63	NMS	-1	Winnipeg	NA	NA	0	63	29	1	NA	NA	[111, 112, 1, 2, 59, 29]	NA	-1	-99.0602967684957	-97.50770323150431	49.403	50.403	S. Schroeder	0
0-20000-0-71852	5	352	CAM00071852	3	WINNIPEG UA, MAN	-1	-1	0	-97.233	49.9	NA	1973-01-01	1997-12-31	1	0	63	NMS	-1	Winnipeg	NA	NA	0	63	29	1	NA	NA	[111, 112, 1, 2, 59, 29]	NA	-1	-98.00924849780037	-96.45675150219964	49.4	50.4	S. Schroeder	0
0-20000-0-71853	5	353	CAM00071853	3	SHILO, MAN	-1	-1	0	-99.633	49.783	NA	1968-01-01	2007-12-31	1	0	63	NMS	-1	Brandon	NA	NA	0	63	29	1	NA	NA	[111, 112, 1, 2, 59, 29]	NA	-1	-100.40737226492907	-98.85862773507093	49.283	50.283	S. Schroeder	0
0-20000-0-71036	5	354	CAM00071855	3	WASAGAMING, MAN	-1	-1	0	-100.05	51.1	NA	1973-01-01	1988-12-31	1	0	63	NMS	-1	Brandon	NA	NA	0	63	29	1	NA	NA	[111, 112, 1, 2, 59, 29]	NA	-1	-100.84622518221319	-99.2537748177868	50.6	51.6	S. Schroeder	0
0-20000-0-71861	5	355	CAM00071861	3	BROADVIEW, SASK	-1	-1	0	-102.683	50.383	NA	1980-01-01	1990-12-31	1	0	63	NMS	-1	Yorkton	NA	NA	0	63	29	1	NA	NA	[111, 112, 1, 2, 59, 29]	NA	-1	-103.46712605482789	-101.89887394517213	49.883	50.883	S. Schroeder	0
0-20001-0-71569	5	356	CAM00071863	3	BRATT'S LAKE UA, SASK	-1	-1	0	-104.667	50.433	NA	1973-01-01	1994-12-31	1	0	63	NMS	-1	Regina	NA	NA	0	63	29	1	NA	NA	[111, 112, 1, 2, 59, 29]	NA	-1	-105.45195387812255	-103.88204612187745	49.933	50.933	S. Schroeder	0
0-20000-0-71866	5	357	CAM00071866	3	SASKATOON RCS, SASK	-1	-1	0	-106.717	52.167	NA	1994-01-01	1998-12-31	1	0	63	NMS	-1	Saskatoon	NA	NA	0	63	29	1	NA	NA	[111, 112, 1, 2, 59, 29]	NA	-1	-107.53217922596176	-105.90182077403824	51.667	52.667	S. Schroeder	0
0-20001-0-71867	5	358	CAM00071867	3	THE PAS UA, MAN	-1	-1	0	-101.1	53.967	NA	1954-01-01	2021-12-31	1	0	63	NMS	-1	Thompson	NA	NA	0	63	29	1	NA	NA	[111, 112, 1, 2, 59, 29]	NA	-1	-101.94997713927707	-100.25002286072292	53.467	54.467	S. Schroeder	0
0-20000-0-71869	5	359	CAM00071869	3	Prince Albert Glass Field	-1	-1	0	-105.667	53.217	NA	1973-01-01	1993-12-31	1	0	63	NMS	-1	Prince Albert	NA	NA	0	63	29	1	NA	NA	[111, 112, 1, 2, 59, 29]	NA	-1	-106.50202287635344	-104.83197712364657	52.717	53.717	S. Schroeder	0
0-20000-0-71267	5	360	CAM00071874	3	BULLHORN COULEE RESERVOIR, ALTA	-1	-1	0	-112.8	49.633	NA	1973-01-01	1994-12-31	1	0	63	NMS	-1	Lethbridge	NA	NA	0	63	29	1	NA	NA	[111, 112, 1, 2, 59, 29]	NA	-1	-113.57198476071915	-112.02801523928085	49.133	50.133	S. Schroeder	0
0-20000-0-71876	5	361	CAM00071876	3	NORTH BATTLEFORD, SASK	-1	-1	0	-108.25	52.767	NA	1998-01-01	2002-12-31	1	0	63	NMS	-1	North Battleford	NA	NA	0	63	29	1	NA	NA	[111, 112, 1, 2, 59, 29]	NA	-1	-109.07636735559564	-107.42363264440436	52.267	53.267	S. Schroeder	0
0-20000-0-71877	5	362	CAM00071877	3	BEISEKER AGCM, ALTA	-1	-1	0	-114.017	51.117	NA	1965-01-01	1995-12-31	1	0	63	NMS	-1	Calgary	NA	NA	0	63	29	1	NA	NA	[111, 112, 1, 2, 59, 29]	NA	-1	-114.81351810633065	-113.22048189366934	50.617	51.617	S. Schroeder	0
0-20000-0-71892	5	363	CAM00071892	3	SECHELT, BC	-1	-1	0	-123.167	49.2	NA	1973-01-01	1996-12-31	1	0	63	NMS	-1	Vancouver	NA	NA	0	63	29	1	NA	NA	[111, 112, 1, 2, 59, 29]	NA	-1	-123.93220390839646	-122.40179609160354	48.7	49.7	S. Schroeder	0
0-20000-0-71893	5	364	CAM00071893	3	PORT ALBERNI (AUT), BC	-1	-1	0	-124.9	49.717	NA	2009-01-01	2010-12-31	1	0	63	NMS	-1	Courtenay	NA	NA	0	63	29	1	NA	NA	[111, 112, 1, 2, 59, 29]	NA	-1	-125.67331929311075	-124.12668070688926	49.217	50.217	S. Schroeder	0
0-20000-0-71908	5	365	CAM00071896	3	PRINCE GEORGE UA, BC	-1	-1	0	-122.667	53.883	NA	1954-01-01	1998-12-31	1	0	63	NMS	-1	Prince George	NA	NA	0	63	29	1	NA	NA	[111, 112, 1, 2, 59, 29]	NA	-1	-123.5152684181185	-121.81873158188151	53.383	54.383	S. Schroeder	0
0-20001-0-71906	5	366	CAM00071906	3	KUUJJUAQ, UA, QUE	-1	-1	0	-68.417	58.117	NA	1947-01-01	2021-12-31	1	0	63	NMS	-1	Sept-Îles	NA	NA	0	63	29	1	NA	NA	[111, 112, 1, 2, 59, 29]	NA	-1	-69.36363547638692	-67.47036452361309	57.617	58.617	S. Schroeder	0
0-20001-0-71907	5	367	CAM00071907	3	INUKJUAK UA, QUE	-1	-1	0	-78.083	58.467	NA	1950-01-01	2021-12-31	1	0	63	NMS	-1	Amos	NA	NA	0	63	29	1	NA	NA	[111, 112, 1, 2, 59, 29]	NA	-1	-79.0390420224228	-77.12695797757719	57.967	58.967	S. Schroeder	0
0-20000-0-71908	5	368	CAM00071908	3	PRINCE GEORGE UA, BC	-1	-1	0	-122.79	53.9	NA	2000-01-01	2021-12-31	1	0	63	NMS	-1	Prince George	NA	NA	0	63	29	1	NA	NA	[111, 112, 1, 2, 59, 29]	NA	-1	-123.6386135288514	-121.94138647114862	53.4	54.4	S. Schroeder	0
0-20001-0-71909	5	369	CAM00071909	3	IQALUIT UA, NU	-1	-1	0	-68.55	63.75	NA	1946-01-01	2021-12-31	1	0	63	NMS	-1	Nuuk	NA	NA	0	63	29	1	NA	NA	[111, 112, 1, 2, 59, 29]	NA	-1	-69.6804833495797	-67.41951665042029	63.25	64.25	S. Schroeder	0
0-20001-0-71913	5	370	CAM00071913	3	CHURCHILL A UA, MAN	-1	-1	0	-94.067	58.733	NA	1950-01-01	2021-12-31	1	0	63	NMS	-1	Thompson	NA	NA	0	63	29	1	NA	NA	[111, 112, 1, 2, 59, 29]	NA	-1	-95.03034121980036	-93.10365878019962	58.233	59.233	S. Schroeder	0
0-20001-0-71915	5	371	CAM00071915	3	CORAL HARBOUR UA, NU	-1	-1	0	-83.367	64.2	NA	1950-01-01	2017-12-31	1	0	63	NMS	-1	Thompson	NA	NA	0	63	29	1	NA	NA	[111, 112, 1, 2, 59, 29]	NA	-1	-84.5158149645581	-82.2181850354419	63.7	64.7	S. Schroeder	0
0-20001-0-71917	5	372	CAM00071917	3	EUREKA UA, NU	-1	-1	0	-85.933	79.983	NA	1948-01-01	2021-12-31	1	0	63	NMS	-1	Nuuk	NA	NA	0	63	29	1	NA	NA	[111, 112, 1, 2, 59, 29]	NA	-1	-88.80754835648449	-83.05845164351553	79.483	80.483	S. Schroeder	0
0-20001-0-71924	5	373	CAM00071924	3	RESOLUTE UA, NU	-1	-1	0	-94.968	74.704	NA	1948-01-01	2021-12-31	1	0	63	NMS	-1	Yellowknife	NA	NA	0	63	29	1	NA	NA	[111, 112, 1, 2, 59, 29]	NA	-1	-96.86333425577088	-93.07266574422913	74.204	75.204	S. Schroeder	0
0-20001-0-71925	5	374	CAM00071925	3	CAMBRIDGE BAY UA, NU	-1	-1	0	-105.067	69.133	NA	1962-01-01	2021-12-31	1	0	63	NMS	-1	Yellowknife	NA	NA	0	63	29	1	NA	NA	[111, 112, 1, 2, 59, 29]	NA	-1	-106.47070626787155	-103.66329373212844	68.633	69.633	S. Schroeder	0
0-20001-0-71926	5	375	CAM00071926	3	BAKER LAKE UA, NU	-1	-1	0	-96.0	64.317	NA	1949-01-01	2021-12-31	1	0	63	NMS	-1	Yellowknife	NA	NA	0	63	29	1	NA	NA	[111, 112, 1, 2, 59, 29]	NA	-1	-97.15369073244109	-94.84630926755891	63.81699999999999	64.817	S. Schroeder	0
0-20000-0-71928	5	376	CAM00071928	3	LEEDALE AGDM, ALTA	-1	-1	0	-114.917	52.433	NA	1969-01-01	1980-12-31	1	0	63	NMS	-1	Sylvan Lake	NA	NA	0	63	29	1	NA	NA	[111, 112, 1, 2, 59, 29]	NA	-1	-115.73709059696235	-114.09690940303766	51.933	52.933	S. Schroeder	0
0-20000-0-71585	5	377	CAM00071932	3	MILDRED LAKE, ALTA	-1	-1	0	-111.217	56.65	NA	1973-01-01	1995-12-31	1	0	63	NMS	-1	Grand Centre	NA	NA	0	63	29	1	NA	NA	[111, 112, 1, 2, 59, 29]	NA	-1	-112.12650103060298	-110.30749896939702	56.15	57.15	S. Schroeder	0
0-20001-0-71934	5	378	CAM00071934	3	FORT SMITH UA, NWT	-1	-1	0	-111.929	60.026	NA	1954-01-01	2021-12-31	1	0	63	NMS	-1	Yellowknife	NA	NA	0	63	29	1	NA	NA	[111, 112, 1, 2, 59, 29]	NA	-1	-112.92978670107028	-110.92821329892972	59.526	60.526	S. Schroeder	0
0-20000-0-71938	5	379	CAM00071938	3	KUGLUKTUK A, NU	-1	-1	0	-115.083	67.817	NA	1932-01-01	1970-12-31	1	0	63	NMS	-1	Yellowknife	NA	NA	0	63	29	1	NA	NA	[111, 112, 1, 2, 59, 29]	NA	-1	-116.4072715765071	-113.7587284234929	67.317	68.317	S. Schroeder	0
0-20001-0-71945	5	380	CAM00071945	3	FORT NELSON UA, BC	-1	-1	0	-122.6	58.833	NA	1954-01-01	2021-12-31	1	0	63	NMS	-1	Fort Saint John	NA	NA	0	63	29	1	NA	NA	[111, 112, 1, 2, 59, 29]	NA	-1	-123.56611959810152	-121.63388040189847	58.333	59.333	S. Schroeder	0
0-20001-0-71957	5	381	CAM00071957	3	INUVIK UA, NWT	-1	-1	0	-133.517	68.317	NA	1960-01-01	2021-12-31	1	0	63	NMS	-1	Fairbanks	NA	NA	0	63	29	1	NA	NA	[111, 112, 1, 2, 59, 29]	NA	-1	-134.87028595841366	-132.16371404158633	67.817	68.817	S. Schroeder	0
0-20001-0-71964	5	382	CAM00071964	3	WHITEHORSE UA, YT	-1	-1	0	-135.097	60.733	NA	1954-01-01	2021-12-31	1	0	63	NMS	-1	Whitehorse	NA	NA	0	63	29	1	NA	NA	[111, 112, 1, 2, 59, 29]	NA	-1	-136.11974566986294	-134.07425433013708	60.233	61.233	S. Schroeder	0
0-20000-0-71968	5	383	CAM00071968	3	AKLAVIK	-1	-1	0	-135.0	68.23	NA	1950-01-01	1960-12-31	1	0	63	NMS	-1	Fairbanks	NA	NA	0	63	29	1	NA	NA	[111, 112, 1, 2, 59, 29]	NA	-1	-136.34813902526992	-133.65186097473008	67.73	68.73	S. Schroeder	0
0-20000-0-71807	5	384	CAM00072807	3	MARTICOT ISLAND, NFLD	-1	-1	0	-54.0	47.3	NA	1946-01-01	1970-12-31	1	0	63	NMS	-1	Bay Roberts	NA	NA	0	63	29	1	NA	NA	[111, 112, 1, 2, 59, 29]	NA	-1	-54.73728949422379	-53.26271050577621	46.8	47.8	S. Schroeder	0
0-20000-0-72826	5	385	CAM00072826	3	NITCHEQUON	-1	-1	0	-70.9	53.2	NA	1954-01-01	1977-12-31	1	0	63	NMS	-1	Sept-Îles	NA	NA	0	63	29	1	NA	NA	[111, 112, 1, 2, 59, 29]	NA	-1	-71.73469165695481	-70.0653083430452	52.7	53.7	S. Schroeder	0
0-20000-0-71208	5	386	CAM00072848	3	BIG TROUT LAKE READAC, ONT	-1	-1	0	-89.867	53.833	NA	1954-01-01	1977-12-31	1	0	63	NMS	-1	Kenora	NA	NA	0	63	29	1	NA	NA	[111, 112, 1, 2, 59, 29]	NA	-1	-90.71425544337748	-89.01974455662253	53.333	54.333	S. Schroeder	0
0-20000-0-71592	5	387	CAM00072918	3	ARCTIC BAY CS, NU	-1	-1	0	-85.3	73.0	NA	1942-01-01	1957-12-31	1	0	63	NMS	-1	Nuuk	NA	NA	0	63	29	1	NA	NA	[111, 112, 1, 2, 59, 29]	NA	-1	-87.01015180991664	-83.58984819008336	72.5	73.5	S. Schroeder	0
0-20000-0-71512	5	388	CAXUAC03491	3	PORT-MENIER, QUE	-1	-1	0	-64.17	50.28	NA	1946-01-01	1949-12-31	1	0	63	NMS	-1	Sept-Îles	NA	NA	0	63	29	1	NA	NA	[111, 112, 1, 2, 59, 29]	NA	-1	-64.95242810480417	-63.38757189519583	49.78	50.78	S. Schroeder	0
0-20300-0-CAXUAE04875	3	389	CAXUAE04875	3	CAPE HOPES ADVANCE STATION	-1	-1	0	-69.55	61.08	NA	1932-01-01	1933-12-31	1	0	63	NMS	-1	Nuuk	NA	NA	0	63	29	1	NA	NA	[111, 112, 1, 2, 59, 29]	NA	-1	-70.58393809021337	-68.51606190978663	60.58	61.58	S. Schroeder	0
0-20300-0-CAXUAE04876	3	390	CAXUAE04876	3	CHESTERFIELD INLET	-1	-1	0	-90.7	63.5	NA	1932-01-01	1933-12-31	1	0	63	NMS	-1	Thompson	NA	NA	0	63	29	1	NA	NA	[111, 112, 1, 2, 59, 29]	NA	-1	-91.82057922587117	-89.57942077412883	63.0	64.0	S. Schroeder	0
0-20000-0-71271	5	391	CAXUAE04878	3	DAPP AGDM, ALTA	-1	-1	0	-113.33	54.62	NA	1933-01-01	1933-12-31	1	0	63	NMS	-1	Edmonton	NA	NA	0	63	29	1	NA	NA	[111, 112, 1, 2, 59, 29]	NA	-1	-114.19356292374812	-112.46643707625188	54.12	55.12	S. Schroeder	0
0-20000-0-64700	5	392	CDM00064700	3	NDJAMENA	-1	-1	0	15.033	12.133	NA	1950-01-01	2021-12-31	1	0	63	NMS	-1	Kousséri	NA	NA	0	63	29	1	NA	NA	[111, 112, 1, 2, 59, 29]	NA	-1	14.521575985768537	15.544424014231462	11.633	12.633	S. Schroeder	0
0-20000-0-64750	5	393	CDM00064750	3	SARH	-1	-1	0	18.383	9.15	NA	1961-01-01	2018-12-31	1	0	63	NMS	-1	Sarh	NA	NA	0	63	29	1	NA	NA	[111, 112, 1, 2, 59, 29]	NA	-1	17.876555704918363	18.889444295081635	8.65	9.65	S. Schroeder	0
0-20000-0-64753	5	394	CDM00064753	3	FAYA	-1	-1	0	19.167	18.0	NA	1973-01-01	1977-12-31	1	0	63	NMS	-1	Faya	NA	NA	0	63	29	1	NA	NA	[111, 112, 1, 2, 59, 29]	NA	-1	18.64126888788087	19.692731112119134	17.5	18.5	S. Schroeder	0
0-20000-0-64756	5	395	CDM00064756	3	ABECHE	-1	-1	0	20.85	13.85	NA	1973-01-01	1979-12-31	1	0	63	NMS	-1	Abéché	NA	NA	0	63	29	1	NA	NA	[111, 112, 1, 2, 59, 29]	NA	-1	20.335027562848314	21.36497243715169	13.35	14.35	S. Schroeder	0
0-20000-0-43413	5	396	CEM00043413	3	MANNAR	-1	-1	0	79.917	8.983	NA	1938-01-01	2021-12-31	1	0	63	NMS	-1	Vavuniya	NA	NA	0	63	29	1	NA	NA	[111, 112, 1, 2, 59, 29]	NA	-1	79.41079120340224	80.42320879659776	8.483	9.483	S. Schroeder	0
0-20000-0-43418	5	397	CEM00043418	3	TRINCOMALEE	-1	-1	0	81.25	8.583	NA	1973-01-01	2021-12-31	1	0	63	NMS	-1	Trincomalee	NA	NA	0	63	29	1	NA	NA	[111, 112, 1, 2, 59, 29]	NA	-1	80.7443369303928	81.7556630696072	8.083	9.083	S. Schroeder	0
0-20000-0-43421	5	398	CEM00043421	3	VAVUNIYA	-1	-1	0	80.417	8.333	NA	2008-01-01	2009-12-31	1	0	63	NMS	-1	Anuradhapura	NA	NA	0	63	29	1	NA	NA	[111, 112, 1, 2, 59, 29]	NA	-1	79.91166491562106	80.92233508437894	7.833	8.833	S. Schroeder	0
0-20000-0-43424	5	399	CEM00043424	3	PUTTALAM	-1	-1	0	79.833	8.033	NA	1994-01-01	2011-12-31	1	0	63	NMS	-1	Anuradhapura	NA	NA	0	63	29	1	NA	NA	[111, 112, 1, 2, 59, 29]	NA	-1	79.32804525606885	80.33795474393115	7.5329999999999995	8.533	S. Schroeder	0
0-20000-0-43466	5	400	CEM00043466	3	COLOMBO	-1	-1	0	79.867	6.9	NA	1939-01-01	2021-12-31	1	0	63	NMS	-1	Colombo	NA	NA	0	63	29	1	NA	NA	[111, 112, 1, 2, 59, 29]	NA	-1	79.36335225157012	80.37064774842989	6.4	7.4	S. Schroeder	0
0-20000-0-43475	5	401	CEM00043475	3	POTTUVIL	-1	-1	0	81.833	6.883	NA	2010-01-01	2011-12-31	1	0	63	NMS	-1	Amparai	NA	NA	0	63	29	1	NA	NA	[111, 112, 1, 2, 59, 29]	NA	-1	81.32937031241072	82.33662968758928	6.383	7.383	S. Schroeder	0
0-20000-0-43497	5	402	CEM00043497	3	HAMBANTOTA	-1	-1	0	81.133	6.117	NA	1973-01-01	2021-12-31	1	0	63	NMS	-1	Hambantota	NA	NA	0	63	29	1	NA	NA	[111, 112, 1, 2, 59, 29]	NA	-1	80.63013688407113	81.63586311592886	5.617	6.617	S. Schroeder	0
0-20000-0-64400	5	403	CFM00064400	3	POINTE-NOIRE	-1	-1	0	11.9	-4.817	NA	1947-01-01	2021-12-31	1	0	63	NMS	-1	Loandjili	NA	NA	0	63	29	1	NA	NA	[111, 112, 1, 2, 59, 29]	NA	-1	11.3982277341708	12.401772265829202	-5.317	-4.317	S. Schroeder	0
0-20000-0-64401	5	404	CFM00064401	3	DOLISIE	-1	-1	0	12.667	-4.217	NA	1949-01-01	1994-12-31	1	0	63	NMS	-1	Loubomo	NA	NA	0	63	29	1	NA	NA	[111, 112, 1, 2, 59, 29]	NA	-1	12.16564267688097	13.16835732311903	-4.717	-3.7169999999999996	S. Schroeder	0
0-20000-0-64450	5	405	CFM00064450	3	KINSHASA/N'DJILI	-1	-1	0	15.25	-4.25	NA	1973-01-01	2021-12-31	1	0	63	NMS	-1	Brazzaville	NA	NA	0	63	29	1	NA	NA	[111, 112, 1, 2, 59, 29]	NA	-1	14.748621301383745	15.751378698616255	-4.75	-3.75	S. Schroeder	0
0-20000-0-64453	5	406	CFM00064453	3	DJAMBALA	-1	-1	0	14.767	-2.533	NA	1973-01-01	1986-12-31	1	0	63	NMS	-1	Gamboma	NA	NA	0	63	29	1	NA	NA	[111, 112, 1, 2, 59, 29]	NA	-1	14.26651098865978	15.267489011340219	-3.033	-2.033	S. Schroeder	0
0-20000-0-64458	5	407	CFM00064458	3	OUESSO	-1	-1	0	16.05	1.617	NA	1963-01-01	2021-12-31	1	0	63	NMS	-1	Ouésso	NA	NA	0	63	29	1	NA	NA	[111, 112, 1, 2, 59, 29]	NA	-1	15.549800813943149	16.550199186056854	1.117	2.117	S. Schroeder	0
0-20000-0-64459	5	408	CFM00064459	3	IMPFONDO	-1	-1	0	18.067	1.617	NA	1973-01-01	1982-12-31	1	0	63	NMS	-1	Impfondo	NA	NA	0	63	29	1	NA	NA	[111, 112, 1, 2, 59, 29]	NA	-1	17.566800813943146	18.567199186056854	1.117	2.117	S. Schroeder	0
0-20000-0-64210	5	409	CGM00064210	3	BRAZZAVILLE /MAYA-MAYA	-1	-1	0	15.433	-4.383	NA	1967-01-01	1990-12-31	1	0	63	NMS	-1	Kinshasa	NA	NA	0	63	29	1	NA	NA	[111, 112, 1, 2, 59, 29]	NA	-1	14.931533446689288	15.934466553310711	-4.883	-3.883	S. Schroeder	0
0-20000-0-64220	5	410	CGM00064220	3	KINSHASA/N'DJILI	-1	-1	0	15.25	-4.367	NA	1980-01-01	1983-12-31	1	0	63	NMS	-1	Kinshasa	NA	NA	0	63	29	1	NA	NA	[111, 112, 1, 2, 59, 29]	NA	-1	14.74854416028668	15.75145583971332	-4.867	-3.867	S. Schroeder	0
