	primary_id	primary_id_scheme	record_number	secondary_id	secondary_id_scheme	station_name	station_abbreviation	alternative_name	station_crs	longitude	latitude	local_gravity	start_date	end_date	station_type	platform_type	platform_sub_type	operating_institute	operating_territory	city	contact	role	observing_frequency	reporting_time	telecommunication_method	station_automation	measuring_system_model	measuring_system_id	observed_variables	comment	optional_data	bbox_min_longitude	bbox_max_longitude	bbox_min_latitude	bbox_max_latitude	metadata_contact	metadata_contact_role	distance_km	distance_km_minusLat	city_dist_km	elevation	file	inventory
0	0-20000-0-92003	0	1	 2:80437	3	DARU W.O.			0	143.2	-9.083333333333334		19631001.0	19631124.0	1	0	63	NMS	175	Daru									[38, 85, 117]							L.Haimberger	0	3.3		3.3	9.0	era5.conv._2:80437	OSCAR
1	0-20300-0-99009	0	2	10494	3	OCEAN WEATHER SHIP D			0	-41.0	44.0		19710501.0	19711121.0	1	0	63	NMS	37										[36, 38, 39, 85, 104, 105, 106, 107, 117]							L.Haimberger	0	8.0			-999.0	era5.conv._10494	IGRA2
2	0-20300-0-99014	0	3	10828	3	OCEAN WEATHER SHIP I			0	-19.0	59.0		19710401.0	19710503.0	1	0	63	NMS	108										[36, 38, 39, 85, 104, 105, 106, 107, 117]							L.Haimberger	0	12.5			-999.0	era5.conv._10828	IGRA2
3	0-20000-0-62722	0	4	62722	3	AROMA			0	36.15	15.833333333333334		19740701.0	19740726.0	1	0	63	NMS	195	Wagar									[104, 105, 106, 107, 117]							L.Haimberger	0	6.5		39.0	-999.0	era5.conv._62722	OSCAR
4	0-20500-0-30404	0	5	 2:30404	3	CAPE TI NAK TEAM 6			0	43.83	6.67		19650701.0	19650909.0	1	0	63	NMS	68	Xuddur									[38, 85, 104, 105, 106, 107, 117]							L.Haimberger	0	0.0		282.5	453.2376	era5.conv._2:30404	WBAN
5	0-20700-0-63013	0	6	63013	3	AGORDAT                  			0	37.88333333333333	15.55		19570901.0	19570916.0	1	0	63	NMS	66	Barentu									[104, 105, 106, 107, 117]							L.Haimberger	0	0.4		57.3	-999.0	era5.conv._63013	WMO
6	0-20000-0-47938	0	7	42203	3	IEJIMA (US BASE)			0	127.78333333333332	26.716666666666665		19590601.0	19590827.0	1	0	63	NMS	113	Nago									[104, 105, 106, 107, 117]							L.Haimberger	0	5.0		28.8	7.1	era5.conv._42203	OSCAR
7	0-20000-0-89866	0	8	 2:87602	3	MARBLE POINT			0	163.7538888888889	-77.4388888888889		19571201.0	19581231.0	1	0	63	NMS	9										[104, 105, 106, 107]							L.Haimberger	0	2.8			84.0	era5.conv._2:87602	OSCAR
8	0-20000-0-62378	0	9	  C:6122	3	HELWAN			0	31.349166666666665	29.86277777777778		19480701.0	19481106.0	1	0	63	NMS	64	Cairo									[36, 85]							L.Haimberger	0	24.2		12.0	74.5	era5.conv._C:6122	OSCAR
9	0-20300-0-32217	0	10	  C:4571	3	USAF-DS3-217			0	155.4	50.017		19540401.0	19540922.0	1	0	63	NMS	190	Petropavlovsk-Kamchatskiy									[38, 39, 85, 104, 105, 106, 107, 117]							L.Haimberger	0	2.4		407.6	25.0	era5.conv._C:4571	IGRA2
10	0-20000-0-76903	0	11	76903	3	TAPACHULA, CHIS			0	-92.29638888888888	14.887222222222222		19620301.0	19630429.0	1	0	63	NMS	156	Tapachula									[104, 105, 106, 107, 117]							L.Haimberger	0	10.5		9.0	118.0	era5.conv._76903	OSCAR
11	0-20000-0-20891	0	12	  C:4554	3	HATANGA			0	102.46638888888889	71.97722222222222		19540401.0	19540922.0	1	0	63	NMS	190										[38, 39, 85, 104, 105, 106, 107, 117]							L.Haimberger	0	0.3			32.8	era5.conv._C:4554	OSCAR
12	0-20600-0-88959	0	13	 6:88957	3	Horseshoe Island (operated by UK)			0	-67.25	-67.8		19560401.0	19580604.0	1	0	63	NMS	10										[38, 104, 105, 106, 107]							L.Haimberger	0	2.6			-999.0	era5.conv._6:88957	SCHROEDER
13	0-20500-0-41610	0	14	 2:41610	3	RONGELAP MARSHALL IS			0	166.85	11.15		19580301.0	19580710.0	1	0	63	NMS	142										[104, 105, 106, 107]							L.Haimberger	0	0.0			2.1336	era5.conv._2:41610	WBAN
14	0-20500-0-30305	0	15	30305	3	MAJI			0	35.67	5.75		19660101.0	19670213.0	1	0	63	NMS	68	Bako									[36, 38, 39, 85, 104, 105, 106, 107, 117]							L.Haimberger	0	0.0		99.4	747.0648	era5.conv._30305	WBAN
15	0-20000-0-41316	0	16	 6:22840	3	SALALAH AIRPORT			0	54.07361111111111	17.034722222222225		19440101.0	19470513.0	1	0	63	NMS	171	Salalah									[104, 105, 106, 107]							L.Haimberger	0	3.3		4.0	23.0	era5.conv._6:22840	OSCAR
16	0-20000-0-17609	0	17	17609	3	LARNACA AIRPORT			0	33.617222222222225	34.873333333333335		19780101.0	19781231.0	1	0	63	NMS	53	Larnaca									[104, 105, 106, 107, 117]							L.Haimberger	0	1.4		4.1	11.69	era5.conv._17609	OSCAR
17	0-20000-0-54471	0	18	54471	3	YINGKOU			0	122.16666666666669	40.66666666666666		19590901.0	19591231.0	1	0	63	NMS	47	Dashiqiao									[36, 38, 39, 85, 104, 105, 106, 107, 117]							L.Haimberger	0	5.4		23.3	5.0	era5.conv._54471	OSCAR
18	0-20000-0-64757	0	19	64757	3	FADA			0	21.55	17.166666666666668		19740701.0	19740730.0	1	0	63	NMS	213	Faya									[104, 105, 106, 107, 117]							L.Haimberger	0	6.5		275.3	-999.0	era5.conv._64757	OSCAR
19	0-20000-0-61612	0	20	61612	3	PODOR			0	-14.92972222222222	16.649722222222223		19740601.0	19740624.0	1	0	63	NMS	150	Dagana									[36, 38, 39, 85, 104, 105, 106, 107, 117]							L.Haimberger	0	6.4		64.7	5.73	era5.conv._61612	OSCAR
20	0-20000-0-25563	0	21	  C:6004	3	ANADYR'			0	177.56666666666666	64.78333333333333		19440601.0	19440707.0	1	0	63	NMS	190	Anadyr									[38, 85, 117]							L.Haimberger	0	0.5		4.9	60.94	era5.conv._C:6004	OSCAR
21	0-20000-0-47058	0	22	 2:43210	3	PYONGYANG			0	125.78333333333332	39.03333333333333		19501001.0	19501031.0	1	0	63	NMS	120	Dandong									[104, 105, 106, 107]							L.Haimberger	0	3.5		173.7	36.0	era5.conv._2:43210	OSCAR
22	0-20000-0-60096	0	23	 1:60096	3	DAKHLA			0	-15.930833333333332	23.711111111111112		19640801.0	19751206.0	1	0	63	NMS	65	Nouadhibou									[104, 105, 106, 107]							L.Haimberger	0	6.3		333.7	8.71	era5.conv._1:60096	OSCAR
23	0-20000-0-41196	0	24	  C:5552	3	SHARJAH INTERNATIONAL AIRPORT			0	55.516666666666666	25.33333333333333		19490601.0	19520126.0	1	0	63	NMS	1	Sharjah									[104, 105, 106, 107]							L.Haimberger	0	11.9		0.9	33.0	era5.conv._C:5552	OSCAR
24	0-20300-0-12863	0	25	 2:12807	3	BURRWOOD			0	-89.3667	28.9833		19420801.0	19440205.0	1	0	63	NMS	231	Estelle									[104, 105, 106, 107]							L.Haimberger	0	3.7		122.3	2.7	era5.conv._2:12807	IGRA2
25	0-20000-0-48855	0	26	 1:48856	3	DA NANG			0	108.35	16.066666666666666		19660401.0	19670731.0	1	0	63	NMS	239	Da Nang									[38, 104, 105, 106, 107]							L.Haimberger	0	11.4		5.2	7.0	era5.conv._1:48856	OSCAR
26	0-20000-0-47186	0	27	 1:47184	3	National Typhoon Center			0	126.67833333333334	33.331388888888895		19590401.0	19590430.0	1	0	63	NMS	121	Fukue									[38, 85, 104, 105, 106, 107, 117]							L.Haimberger	0	25.0		236.4	21.65	era5.conv._1:47184	OSCAR
27	0-20000-0-32509	0	28	 1:32509	3	SEMYACHIK			0	159.98333333333332	54.11666666666667		19650901.0	19671227.0	1	0	63	NMS	190	Yelizovo									[104, 105, 106, 107]							L.Haimberger	0	4.6		143.7	27.0	era5.conv._1:32509	OSCAR
28	0-20000-0-91369	0	29	91369	3	JALUIT ATOLL, MARSHALL IS.			0	169.65	5.916666666666667		19730901.0	19750611.0	1	0	63	NMS	142	Bairiki									[104, 105, 106, 107, 117]							L.Haimberger	0	0.4		628.3	3.0	era5.conv._91369	OSCAR
29	0-20000-0-30739	0	30	30739	3	HORINSK			0	109.785	52.16666666666666		19620801.0	19641231.0	1	0	63	NMS	190	Khilok									[36, 38, 39, 85, 104, 105, 106, 107, 117]							L.Haimberger	0	9.4		97.2	666.09	era5.conv._30739	OSCAR
30	0-20000-0-25551	0	31	  C:4566	3	MARKOVO			0	170.41666666666666	64.68333333333334		19540401.0	19540922.0	1	0	63	NMS	190										[38, 39, 85, 104, 105, 106, 107, 117]							L.Haimberger	0	0.4			26.24	era5.conv._C:4566	OSCAR
31	0-20000-0-72507	0	32	 2:14713	3	PROVIDENCE/GREEN STATE, RI.			0	-71.43333333333334	41.73333333333333		19440601.0	19440621.0	1	0	63	NMS	231	West Warwick									[104, 105, 106, 107]							L.Haimberger	0	3.1		5.2	19.0	era5.conv._2:14713	OSCAR
32	0-20000-0-76491	0	33	 1:76491	3	CIUDAD VICTORIA, TAMPS.			0	-99.17	23.7425		19500401.0	19620830.0	1	0	63	NMS	156	Gonzalez									[104, 105, 106, 107]							L.Haimberger	0	6.3		111.2	336.0	era5.conv._1:76491	OSCAR
33	0-20300-0-89557	0	34	 1:89557	3	SOVIETSKAVA			0	87.583	-78.4		19580301.0	19581231.0	1	0	63	NMS	9										[38, 85, 104, 105, 106, 107, 117]							L.Haimberger	0	0.1			3571.0	era5.conv._1:89557	IGRA2
34	0-20000-0-64705	0	35	64705	3	BOUSSO			0	16.716666666666665	10.483333333333333		19740601.0	19741024.0	1	0	63	NMS	213	Bousso									[36, 38, 39, 85, 104, 105, 106, 107, 117]							L.Haimberger	0	0.5		0.5	336.0	era5.conv._64705	OSCAR
35	0-20000-0-62770	0	36	  C:4947	3	GENINA			0	22.45	13.483333333333333		19470101.0	19550317.0	1	0	63	NMS	195	Adre									[104, 105, 106, 107]							L.Haimberger	0	3.7		27.1	805.0	era5.conv._C:4947	OSCAR
36	0-20000-0-63658	0	37	63658	3	SOROTI			0	33.61666666666667	1.7166666666666668		19730601.0	19781130.0	1	0	63	NMS	229	Soroti									[104, 105, 106, 107, 117]							L.Haimberger	0	0.5		3.8	1123.0	era5.conv._63658	OSCAR
37	0-20300-0-99006	0	38	6:102023	3	OCEAN WEATHER SHIP A			0	-33.0	62.0		19710501.0	19711021.0	1	0	63	NMS	83										[38, 85, 104, 105, 106, 107, 117]							L.Haimberger	0	28.4			-999.0	era5.conv._6:102023	IGRA2
38	0-20000-0-30935	0	39	  C:4560	3	KRASNYJ CHIKOJ			0	108.75	50.36666666666667		19540401.0	19540922.0	1	0	63	NMS	190	Petrovsk-Zabaykalskiy									[38, 39, 85, 104, 105, 106, 107, 117]							L.Haimberger	0	0.4		96.4	770.5	era5.conv._C:4560	OSCAR
39	0-20700-0-62780	0	40	62780	3	ZALINGEI                 			0	23.48333333333333	12.9		19740701.0	19740920.0	1	0	63	NMS	195	Adre									[36, 38, 39, 85, 104, 105, 106, 107, 117]							L.Haimberger	0	1.8		154.2	-999.0	era5.conv._62780	WMO
40	0-20500-0-93117	0	41	93117	3	SAN CLEMENTE IS NAAS			0	-118.58	33.02		19720301.0	19720406.0	1	0	63	NMS	231	Rancho Palos Verdes									[36, 38, 39, 85, 104, 105, 106, 107, 117]							L.Haimberger	0	0.0		82.3	53.0352	era5.conv._93117	WBAN
41	0-20000-0-26063	0	42	  9:3836	3	ST.PETERSBURG (VOEJKOVO) (26063-0)			0	30.3	59.96666666666667		19540101.0	19561231.0	1	0	63	NMS	190	Saint Petersburg									[85, 117]							L.Haimberger	0	4.1		4.7	6.0	era5.conv._9:3836	OSCAR
42	0-20000-0-64971	0	43	64971	3	KRIBI			0	9.9	2.95		19740901.0	19740908.0	1	0	63	NMS	46	Kribi									[104, 105, 106, 107, 117]							L.Haimberger	0	5.5		5.8	16.0	era5.conv._64971	OSCAR
43	0-20700-0-63013	0	44	 1:63013	3	AGORDAT                  			0	37.88333333333333	15.55		19490201.0	19570916.0	1	0	63	NMS	66	Barentu									[38, 104, 105, 106, 107]							L.Haimberger	0	0.4		57.3	-999.0	era5.conv._1:63013	WMO
44	0-20000-0-64920	0	45	64920	3	BAFIA			0	11.25	4.733333333333333		19740601.0	19740603.0	1	0	63	NMS	46	Bafia									[104, 105, 106, 107, 117]							L.Haimberger	0	6.7		9.2	500.0	era5.conv._64920	OSCAR
45	0-20000-0-57845	0	46	57845	3	TONGDAO			0	109.78333333333332	26.166666666666668		19780801.0	19781231.0	1	0	63	NMS	47	Hongjiang									[104, 105, 106, 107, 117]							L.Haimberger	0	1.4		106.5	397.0	era5.conv._57845	OSCAR
46	0-20000-0-72221	0	47	3862	3	VALPARAISO/EGLIN AFB, FL.			0	-86.51666666666667	30.48333333333333		19601001.0	19640929.0	1	0	63	NMS	231	Wright									[104, 105, 106, 107, 117]							L.Haimberger	0	27.2		15.8	29.0	era5.conv._03862	OSCAR
47	0-20300-0-23140	0	48	 2:23140	3	COOLIDGE (AAF)			0	-111.4333	32.9333		19441001.0	19451031.0	1	0	63	NMS	231	Florence									[104, 105, 106, 107]							L.Haimberger	0	0.5		12.0	481.3	era5.conv._2:23140	IGRA2
48	0-20000-0-38232	0	49	38232	3	AKKUDUK			0	54.095	42.97055555555556		19620301.0	19691125.0	1	0	63	NMS	124	Zhanaozen									[36, 38, 39, 85, 104, 105, 106, 107, 117]							L.Haimberger	0	2.0		113.5	78.0	era5.conv._38232	OSCAR
49	0-20000-0-59134	0	50	 1:59137	3	XIAMEN			0	118.08333333333331	24.48333333333333		19600501.0	19610730.0	1	0	63	NMS	47	Xiamen									[38, 85]							L.Haimberger	0	20.3		19.9	139.0	era5.conv._1:59137	OSCAR
50	0-20000-0-48431	0	51	41019	3	NAKHON RATCHASIMA			0	102.08583333333333	14.968055555555557		19680401.0	19680502.0	1	0	63	NMS	216	Nakhon Ratchasima									[36, 38, 39, 85, 104, 105, 106, 107, 117]							L.Haimberger	0	3.8		3.7	187.02	era5.conv._41019	OSCAR
51	0-20000-0-32389	0	52	  C:4621	3	KLJUCHI			0	160.83333333333334	56.31666666666667		19541001.0	19550422.0	1	0	63	NMS	190	Yelizovo									[38, 39, 85, 104, 105, 106, 107, 117]							L.Haimberger	0	0.4		382.7	28.9	era5.conv._C:4621	OSCAR
52	0-20000-0-38462	0	53	  C:4686	3	PSKEM			0	70.36666666666666	41.9		19620701.0	19620805.0	1	0	63	NMS	233	Lenger									[38, 39, 85, 104, 105, 106, 107, 117]							L.Haimberger	0	0.3		51.2	1255.0	era5.conv._C:4686	OSCAR
53	0-20000-0-63674	0	54	 1:63674	3	KASESE			0	30.1	0.1833333333333333		19700301.0	19770516.0	1	0	63	NMS	229	Kasese									[104, 105, 106, 107]							L.Haimberger	0	0.4		13.6	961.0	era5.conv._1:63674	OSCAR
54	0-20000-0-08238	0	55	  1:8238	3	TORTOSA			0	0.4933333333333333	40.82027777777778		19661201.0	19711127.0	1	0	63	NMS	67	Tortosa									[104, 105, 106, 107]							L.Haimberger	0	0.6		2.0	50.0	era5.conv._1:8238	OSCAR
55	0-20000-0-47931	0	56	 2:42202	3	KADENA			0	127.76777777777778	26.35555555555556		19520901.0	19530728.0	1	0	63	NMS	113	Yomitan									[104, 105, 106, 107]							L.Haimberger	0	3.2		2.2	46.59	era5.conv._2:42202	OSCAR
56	0-20000-0-97760	0	57	 1:97760	3	KAIMANA/UTAROM			0	133.69694444444443	-3.6438888888888887		19590301.0	19620718.0	1	0	63	NMS	100	Nabire									[38, 104, 105, 106, 107]							L.Haimberger	0	6.6		195.5	3.0	era5.conv._1:97760	OSCAR
57	0-20000-0-16253	0	58	 2:34114	3	GRAZZANISE			0	14.078888888888889	41.06055555555555		19440301.0	19440512.0	1	0	63	NMS	109	Teano									[104, 105, 106, 107]							L.Haimberger	0	16.3		6.8	10.0	era5.conv._2:34114	OSCAR
58	0-20000-0-41739	0	59	 1:41739	3	PANJGUR			0	64.1	26.966666666666665		19640601.0	19770131.0	1	0	63	NMS	177	Turbat									[38, 85, 104, 105, 106, 107, 117]							L.Haimberger	0	0.4		150.3	981.0	era5.conv._1:41739	OSCAR
59	0-20300-0-70439	0	60	45702	3	AMCHITKA ISLAND			0	179.25	51.3833		19651001.0	19651030.0	1	0	63	NMS	231										[36, 38, 39, 85, 104, 105, 106, 107, 117]							L.Haimberger	0	0.4			67.1	era5.conv._45702	IGRA2
60	0-20000-0-07482	0	61	 2:34021	3	AMBERIEU			0	5.329444444444444	45.97638888888889		19440901.0	19440920.0	1	0	63	NMS	74	Amberieu-En-Bugey									[104, 105, 106, 107]							L.Haimberger	0	0.7		1.6	252.0	era5.conv._2:34021	OSCAR
61	0-20000-0-72408	0	62	6:110052	3	PHILADELPHIA/INT., PA.			0	-75.25	39.88333333333333		19700801.0	19701110.0	1	0	63	NMS	231	Ardmore									[38, 85, 104, 105, 106, 107, 117]							L.Haimberger	0	13.2		5.7	9.0	era5.conv._6:110052	OSCAR
62	0-20000-0-12566	0	63	 1:12566	3	KRAKOW-BALICE			0	19.801944444444445	50.08027777777778		19670301.0	19721231.0	1	0	63	NMS	178	Cracow									[104, 105, 106, 107]							L.Haimberger	0	0.1		8.4	241.5	era5.conv._1:12566	OSCAR
63	0-20000-0-78108	0	64	78107	3	ABRAHAM'S BAY, MAYAGUANA			0	-73.01666666666667	22.383333333333333		19620301.0	19650724.0	1	0	63	NMS	31	Port-De-Paix									[36, 38, 39, 85, 104, 105, 106, 107, 117]							L.Haimberger	0	2.0		268.7	3.0	era5.conv._78107	OSCAR
64	0-20000-0-38527	0	65	38527	3	DAVALY			0	57.38333333333333	40.06666666666667		19781201.0	19781229.0	1	0	63	NMS	220	Baherden									[36, 38, 39, 85, 104, 105, 106, 107, 117]							L.Haimberger	0	0.5		182.1	47.0	era5.conv._38527	OSCAR
65	0-20300-0-99019	0	66	10055	3	OCEAN WEATHER SHIP N			0	-140.0	30.0		19711001.0	19711012.0	1	0	63	NMS	231										[36, 38, 39, 85, 104, 105, 106, 107, 117]							L.Haimberger	0	0.0			-999.0	era5.conv._10055	IGRA2
66	0-20000-0-17124	0	67	 1:17124	3	ESKISEHIR HAVALIMANI			0	30.579722222222223	39.78111111111111		19670501.0	19680222.0	1	0	63	NMS	223	Eskisehir									[104, 105, 106, 107]							L.Haimberger	0	5.3		0.7	786.0	era5.conv._1:17124	OSCAR
67	0-20000-0-71036	0	68	25009	3	DAUPHIN, MAN			0	-100.0525	51.10083333333333		19570901.0	19580212.0	1	0	63	NMS	37	Brandon									[104, 105, 106, 107, 117]							L.Haimberger	0	0.2		141.1	304.5	era5.conv._25009	OSCAR
68	0-20000-0-38457	0	69	  C:4591	3	TASHKENT			0	69.3	41.333333333333336		19540401.0	19540922.0	1	0	63	NMS	233	Tashkent									[38, 39, 85, 104, 105, 106, 107, 117]							L.Haimberger	0	0.4		4.4	477.0	era5.conv._C:4591	OSCAR
69	0-20000-0-15360	0	70	15360	3	SULINA			0	29.72694444444444	45.16222222222222		19730801.0	19740524.0	1	0	63	NMS	188	Kiliya									[104, 105, 106, 107, 117]							L.Haimberger	0	4.7		46.5	2.93	era5.conv._15360	OSCAR
70	0-20000-0-65271	0	71	65271	3	MAKURDI			0	8.533333333333333	7.733333333333333		19631101.0	19770107.0	1	0	63	NMS	163	Makurdi									[104, 105, 106, 107, 117]							L.Haimberger	0	8.2		10.7	112.9	era5.conv._65271	OSCAR
71	0-20000-0-07168	0	72	7160	3	TROYES-BARBEREY			0	4.02	48.32472222222223		19691101.0	19730530.0	1	0	63	NMS	74	Romilly-Sur-Seine									[104, 105, 106, 107, 117]							L.Haimberger	0	27.9		2.1	118.0	era5.conv._07160	OSCAR
72	0-20000-0-07650	0	73	7650	3	MARIGNANE			0	5.216111111111111	43.437777777777775		19620501.0	19651024.0	1	0	63	NMS	74	Vitrolles									[36, 38, 39, 85, 104, 105, 106, 107, 117]							L.Haimberger	0	1.4		2.2	32.0	era5.conv._07650	OSCAR
73	0-20000-0-63402	0	74	 2:30306	3	JIMMA			0	36.833333333333336	7.666666666666667		19661201.0	19670227.0	1	0	63	NMS	68	Jimma									[38, 85, 104, 105, 106, 107, 117]							L.Haimberger	0	0.5		0.5	1725.0	era5.conv._2:30306	OSCAR
74	0-20000-0-38599	0	75	38599	3	KHUDJANT			0	69.73333333333333	40.21666666666667		19740201.0	19780207.0	1	0	63	NMS	217	Gafurov									[104, 105, 106, 107, 117]							L.Haimberger	0	0.5		0.5	427.0	era5.conv._38599	OSCAR
75	0-20000-0-48377	0	76	48377	3	BHUMIBOL DAM			0	99.0025	17.24388888888889		19781201.0	19781223.0	1	0	63	NMS	216	Ban Tak									[104, 105, 106, 107, 117]							L.Haimberger	0	5.3		20.9	144.38	era5.conv._48377	OSCAR
76	0-20000-0-87320	0	77	 1:87320	3	CHAMICAL AERO			0	-66.2961111111111	-30.34777777777777		19630501.0	19680417.0	1	0	63	NMS	10	La Rioja									[38, 85, 104, 105, 106, 107, 117]							L.Haimberger	0	5.8		121.8	-999.0	era5.conv._1:87320	OSCAR
77	0-20000-0-30054	0	78	  C:4596	3	VITIM			0	112.58333333333331	59.45		19540401.0	19540922.0	1	0	63	NMS	190	Lensk									[38, 39, 85, 104, 105, 106, 107, 117]							L.Haimberger	0	0.2		193.0	190.0	era5.conv._C:4596	OSCAR
78	0-20500-0-33703	0	79	  9:4194	3	PESHAWAR			0	71.58	34.02		19400401.0	19410717.0	1	0	63	NMS	177	Peshawar									[38, 85, 117]							L.Haimberger	0	6.0		5.5	354.17760000000004	era5.conv._9:4194	WBAN
79	0-20000-0-37747	0	80	 1:37747	3	EVLAKH AIRPORT			0	47.15	40.61666666666667		19660501.0	19740215.0	1	0	63	NMS	16	Yevlax									[104, 105, 106, 107]							L.Haimberger	0	0.4		1.0	15.0	era5.conv._1:37747	OSCAR
80	0-20000-0-38064	0	81	  C:4675	3	Tasboget AMS			0	65.52638888888889	44.76888888888889		19560701.0	19560821.0	1	0	63	NMS	124	Tasbuget									[38, 39, 85, 104, 105, 106, 107, 117]							L.Haimberger	0	5.7		5.5	130.0	era5.conv._C:4675	OSCAR
81	0-20000-0-47516	0	82	47516	3	OMINATO AB			0	141.13222222222225	41.23277777777778		19770901.0	19781223.0	1	0	63	NMS	113	Mutsu									[104, 105, 106, 107, 117]							L.Haimberger	0	1.5		8.7	10.32	era5.conv._47516	OSCAR
82	0-20000-0-10658	0	83	 2:35107	3	BAD KISSINGEN			0	10.079166666666666	50.22416666666667		19471001.0	19471029.0	1	0	63	NMS	56	Schweinfurt									[104, 105, 106, 107]							L.Haimberger	0	20.4		4.5	281.4	era5.conv._2:35107	OSCAR
83	0-20000-0-71849	0	84	14996	3	WINNIPEG 'A' CS, MAN			0	-97.23333333333332	49.9		19570901.0	19580212.0	1	0	63	NMS	37	Winnipeg									[104, 105, 106, 107, 117]							L.Haimberger	0	0.2		4.9	238.7	era5.conv._14996	OSCAR
84	0-20000-0-41480	0	85	  9:1708	3	ADEN			0	45.03333333333333	12.833333333333334		19440101.0	19481206.0	1	0	63	NMS	243	Aden									[104, 105, 106, 107]							L.Haimberger	0	1.5		4.5	3.0	era5.conv._9:1708	OSCAR
85	0-20700-0-36428	0	86	 1:36421	3	ULKEN NARYN              			0	84.0	49.0		19660601.0	19680430.0	1	0	63	NMS	124	Zyryanovsk									[104, 105, 106, 107]							L.Haimberger	0	22.2		63.1	-999.0	era5.conv._1:36421	WMO
86	0-20000-0-16470	0	87	 2:33118	3	PANTELLERIA			0	11.971111111111112	36.81388888888888		19430801.0	19430820.0	1	0	63	NMS	109	Manzil Tamim									[104, 105, 106, 107]							L.Haimberger	0	2.4		85.9	198.0	era5.conv._2:33118	OSCAR
87	0-20000-0-71731	0	88	4705	3	NORTH BAY A, ONT			0	-79.42277777777778	46.36361111111111		19570901.0	19580212.0	1	0	63	NMS	37	North Bay									[104, 105, 106, 107, 117]							L.Haimberger	0	0.7		8.1	370.3	era5.conv._04705	OSCAR
88	0-20300-0-99019	0	89	6:100551	3	OCEAN WEATHER SHIP N			0	-140.0	30.0		19711001.0	19711012.0	1	0	63	NMS	231										[38, 85, 104, 105, 106, 107, 117]							L.Haimberger	0	0.0			-999.0	era5.conv._6:100551	IGRA2
89	0-20600-0-51706	0	90	  9:1406	3	Tejan, China			0	76.35	39.7		19570301.0	19591103.0	1	0	63	NMS	47	Kashi									[104, 105, 106, 107]							L.Haimberger	0	0.0		41.9	-999.0	era5.conv._9:1406	SCHROEDER
90	0-20300-0-99013	0	91	6:100712	3	OCEAN WEATHER SHIP H			0	-71.0	38.0		19711101.0	19711101.0	1	0	63	NMS	231	Brigantine									[38, 85, 104, 105, 106, 107, 117]							L.Haimberger	0	20.8		322.5	-999.0	era5.conv._6:100712	IGRA2
91	0-20000-0-91601	0	92	 2:40712	3	BUTARITARI			0	172.78333333333333	3.033333333333333		19650401.0	19650413.0	1	0	63	NMS	117	Bairiki									[38, 85, 117]							L.Haimberger	0	5.5		195.4	1.0	era5.conv._2:40712	OSCAR
92	0-20000-0-30710	0	93	30718	3	IRKUTSK (30710-0)			0	104.31666666666666	52.266666666666666		19740301.0	19740426.0	1	0	63	NMS	190	Shelekhov									[104, 105, 106, 107, 117]							L.Haimberger	0	8.2		7.9	469.1	era5.conv._30718	OSCAR
93	0-20000-0-64655	0	94	64655	3	BRIA			0	21.98333333333333	6.533333333333333		19740701.0	19740731.0	1	0	63	NMS	40	Bria									[36, 38, 39, 85, 104, 105, 106, 107, 117]							L.Haimberger	0	4.1		4.1	584.0	era5.conv._64655	OSCAR
94	0-20000-0-42623	0	95	 6:42623	3	IMPHAL/TULIHAL			0	93.9	24.766666666666666		19641101.0	19710404.0	1	0	63	NMS	104	Imphal									[104, 105, 106, 107]							L.Haimberger	0	0.4		7.2	774.0	era5.conv._6:42623	OSCAR
95	0-20000-0-89070	0	96	 1:88938	3	GABRIEL DE CASTILLA			0	-60.67583333333333	-62.977222222222224		19530101.0	19580626.0	1	0	63	NMS	9										[38, 104, 105, 106, 107]							L.Haimberger	0	5.4			12.0	era5.conv._1:88938	OSCAR
96	0-20000-0-07168	0	97	  1:7160	3	TROYES-BARBEREY			0	4.02	48.32472222222223		19691101.0	19720817.0	1	0	63	NMS	74	Romilly-Sur-Seine									[104, 105, 106, 107]							L.Haimberger	0	27.9		2.1	118.0	era5.conv._1:7160	OSCAR
97	0-20300-0-99006	0	98	6:100334	3	OCEAN WEATHER SHIP A			0	-33.0	62.0		19710501.0	19710529.0	1	0	63	NMS	83										[38, 85, 104, 105, 106, 107, 117]							L.Haimberger	0	23.7			-999.0	era5.conv._6:100334	IGRA2
98	0-20000-0-60602	0	99	 1:60600	3	BENI-ABBES			0	-2.1666666666666665	30.133333333333333		19570701.0	19690527.0	1	0	63	NMS	61	Adrar									[38, 85, 104, 105, 106, 107, 117]							L.Haimberger	0	4.9		307.1	505.0	era5.conv._1:60600	OSCAR
99	0-20400-0-4699	0	100	  C:4699	3	Turk			0	71.18	41.05		19531201.0	19540327.0	1	0	63	NMS	233	Pop									[38, 39, 85, 104, 105, 106, 107, 117]							L.Haimberger	0	0.0		20.5	-999.0	era5.conv._C:4699	CHUAN
100	0-894-1-CITY005	0	101	 1:67665	3	LUSAKA CITY AIRPORT			0	28.466666666666665	-15.416666666666666		19700501.0	19711126.0	1	0	63	NMS	247	Lusaka									[104, 105, 106, 107]							L.Haimberger	0	10.8		20.8	1154.0	era5.conv._1:67665	OSCAR
101	0-20000-0-22113	0	102	  C:4630	3	MURMANSK (22113-0)			0	33.04277777777778	68.95583333333333		19541001.0	19550422.0	1	0	63	NMS	190	Murmansk									[38, 39, 85, 104, 105, 106, 107, 117]							L.Haimberger	0	5.8		2.6	50.6	era5.conv._C:4630	OSCAR
102	0-20000-0-30650	0	103	30650	3	ROMANOVKA			0	112.78333333333332	53.2		19620801.0	19641231.0	1	0	63	NMS	190	Chita									[36, 38, 39, 85, 104, 105, 106, 107, 117]							L.Haimberger	0	5.6		140.9	922.7	era5.conv._30650	OSCAR
103	0-20500-0-12962	0	104	 2:12903	3	HONDO WSMO AIRPORT			0	-99.17	29.35		19450301.0	19450621.0	1	0	63	NMS	231	Uvalde									[104, 105, 106, 107]							L.Haimberger	0	0.0		61.8	283.464	era5.conv._2:12903	WBAN
104	0-20000-0-85141	0	105	  C:4838	3	RURRENABAQUE			0	-67.56666666666666	-14.466666666666669		19460601.0	19461231.0	1	0	63	NMS	29	Rurrenabaque									[104, 105, 106, 107]							L.Haimberger	0	4.4		4.4	204.0	era5.conv._C:4838	OSCAR
105	0-20000-0-25551	0	106	  C:4628	3	MARKOVO			0	170.41666666666666	64.68333333333334		19541001.0	19550422.0	1	0	63	NMS	190										[38, 39, 85, 104, 105, 106, 107, 117]							L.Haimberger	0	0.4			26.24	era5.conv._C:4628	OSCAR
106	0-20500-0-31307	0	107	31307	3	ASOSA			0	34.52	10.07		19660201.0	19670227.0	1	0	63	NMS	68	Asosa									[36, 38, 39, 85, 104, 105, 106, 107, 117]							L.Haimberger	0	0.0		1.5	1603.248	era5.conv._31307	WBAN
107	0-20000-0-24343	0	108	  C:4660	3	ZHIGANSK			0	123.4	66.76666666666667		19541101.0	19550422.0	1	0	63	NMS	190										[38, 39, 85, 104, 105, 106, 107, 117]							L.Haimberger	0	0.4			92.36	era5.conv._C:4660	OSCAR
108	0-20000-0-80403	0	109	80403	3	CORO			0	-69.68333333333334	11.416666666666666		19740701.0	19740819.0	1	0	63	NMS	236	Coro									[36, 38, 39, 85, 104, 105, 106, 107, 117]							L.Haimberger	0	2.6		3.7	17.0	era5.conv._80403	OSCAR
109	0-20600-0-54765	0	110	  9:1427	3	Yantai / Chefoo (pibals made by US Navy), China			0	121.4	37.54		19570301.0	19591231.0	1	0	63	NMS	47	Yantai									[104, 105, 106, 107]							L.Haimberger	0	2.9		3.2	-999.0	era5.conv._9:1427	SCHROEDER
110	0-20000-0-48062	0	111	  9:1745	3	SITTWE			0	92.88333333333334	20.133333333333333		19460501.0	19481224.0	1	0	63	NMS	145	Akyab									[104, 105, 106, 107]							L.Haimberger	0	3.9		3.0	5.0	era5.conv._9:1745	OSCAR
111	0-20000-0-91367	0	112	91367	3	AILINGLAPALAP ATOLL, MARSHALL IS.			0	168.83333333333334	7.266666666666667		19740101.0	19750701.0	1	0	63	NMS	142										[104, 105, 106, 107, 117]							L.Haimberger	0	0.5			3.0	era5.conv._91367	OSCAR
112	0-20300-0-38341	0	113	  C:4670	3	TARAZ			0	71.3	42.85		19560701.0	19560821.0	1	0	63	NMS	124	Taraz									[38, 39, 85, 104, 105, 106, 107, 117]							L.Haimberger	0	6.5		5.7	652.0	era5.conv._C:4670	IGRA2
113	0-20000-0-26063	0	114	 1:26065	3	ST.PETERSBURG (VOEJKOVO) (26063-0)			0	30.3	59.96666666666667		19540101.0	19561231.0	1	0	63	NMS	190	Saint Petersburg									[38, 85, 117]							L.Haimberger	0	4.1		4.7	6.0	era5.conv._1:26065	OSCAR
114	0-20300-0-99018	0	115	10525	3	OCEAN WEATHER SHIP M			0	2.0	66.0		19710601.0	19711021.0	1	0	63	NMS	166										[36, 38, 39, 85, 104, 105, 106, 107, 117]							L.Haimberger	0	11.2			7.010400000000001	era5.conv._10525	IGRA2
115	0-20300-0-55690	0	116	55690	3	USAF-DS3-372			0	91.8	28.5		19770401.0	19781231.0	1	0	63	NMS	47	Lasa									[104, 105, 106, 107, 117]							L.Haimberger	0	0.0		144.5	-999.0	era5.conv._55690	IGRA2
116	0-20500-0-81412	0	117	 2:81412	3	PRINCESS CHARLOTTE B			0	144.25	-14.4		19640101.0	19640724.0	1	0	63	NMS	13	Cairns									[38, 85, 104, 105, 106, 107, 117]							L.Haimberger	0	0.0		323.1	262.128	era5.conv._2:81412	WBAN
117	0-20300-0-03138	0	118	3142	3	SHOSHONE			0	-116.2667	35.9667		19571201.0	19580208.0	1	0	63	NMS	231	Pahrump									[104, 105, 106, 107, 117]							L.Haimberger	0	1.3		37.6	481.9	era5.conv._03142	IGRA2
118	0-20000-0-15235	0	119	15300	3	FAGARAS			0	24.935277777777777	45.83638888888889		19730901.0	19781019.0	1	0	63	NMS	188	Fagaras									[104, 105, 106, 107, 117]							L.Haimberger	0	18.5		20.2	429.2	era5.conv._15300	OSCAR
119	0-20000-0-16261	0	120	 2:34123	3	AMENDOLA			0	15.713888888888889	41.53805555555555		19440201.0	19440824.0	1	0	63	NMS	109	San Giovanni Rotondo									[104, 105, 106, 107]							L.Haimberger	0	1.4		16.7	60.0	era5.conv._2:34123	OSCAR
120	0-20000-0-66285	0	121	  C:5974	3	LUENA (LUSO)			0	19.916666666666668	-11.783333333333331		19521101.0	19521231.0	1	0	63	NMS	8	Luena									[104, 105, 106, 107]							L.Haimberger	0	1.9		1.9	1357.0	era5.conv._C:5974	OSCAR
121	0-20000-0-42123	0	122	42123	3	GANGANAGAR			0	73.88333333333334	29.916666666666668		19740201.0	19740627.0	1	0	63	NMS	104	Ganganagar									[104, 105, 106, 107, 117]							L.Haimberger	0	0.5		0.5	177.0	era5.conv._42123	OSCAR
122	0-20000-0-21432	0	123	  C:4642	3	OSTROV KOTEL'NYJ			0	137.86666666666667	76.0		19541001.0	19550422.0	1	0	63	NMS	190										[38, 39, 85, 104, 105, 106, 107, 117]							L.Haimberger	0	0.9			14.9	era5.conv._C:4642	OSCAR
123	0-20000-0-62378	0	124	  C:5982	3	HELWAN			0	31.349166666666665	29.86277777777778		19400201.0	19400227.0	1	0	63	NMS	64	Gizeh									[104, 105, 106, 107]							L.Haimberger	0	15.1		6.4	23.0	era5.conv._C:5982	OSCAR
124	0-20000-0-41506	0	125	41506	3	CHITRAL			0	71.83333333333333	35.85		19730601.0	19781231.0	1	0	63	NMS	177	Chitral									[104, 105, 106, 107, 117]							L.Haimberger	0	0.3		4.0	1500.0	era5.conv._41506	OSCAR
125	0-20300-0-25173	0	126	  C:4743	3	MYS SHMIDTA			0	-179.48	68.92		19400101.0	19400630.0	1	0	63	NMS	190										[38, 39, 85, 117]							L.Haimberger	0	0.4			2.0	era5.conv._C:4743	IGRA2
126	0-20300-0-04876	0	127	 1:71916	3	CHESTERFIELD INLET			0	-90.7	63.5		19620301.0	19701216.0	1	0	63	NMS	37										[38, 85, 104, 105, 106, 107, 117]							L.Haimberger	0	22.3			9.4	era5.conv._1:71916	IGRA2
127	0-20000-0-20353	0	128	  C:4572	3	MYS ZELANIYA			0	68.55	76.95		19540401.0	19540922.0	1	0	63	NMS	190										[38, 39, 85, 104, 105, 106, 107, 117]							L.Haimberger	0	0.8			8.9	era5.conv._C:4572	OSCAR
128	0-20000-0-62375	0	129	  C:5000	3	GIZA - AGRIMET			0	31.216666666666665	30.05		19520201.0	19530320.0	1	0	63	NMS	64	Madinat Sittah Uktubar									[38, 85]							L.Haimberger	0	26.1		7.3	23.0	era5.conv._C:5000	OSCAR
129	0-20000-0-92035	0	130	  9:4129	3	PORT MORESBY W.O.			0	147.21666666666667	-9.383333333333333		19440301.0	19771001.0	1	0	63	NMS	175	Port Moresby									[85, 117]							L.Haimberger	0	5.2		4.3	48.0	era5.conv._9:4129	OSCAR
130	0-20000-0-12295	0	131	 1:12295	3	BIALYSTOK			0	23.172222222222224	53.10833333333333		19731001.0	19740808.0	1	0	63	NMS	178	Bialystok									[104, 105, 106, 107]							L.Haimberger	0	0.9		3.9	150.09	era5.conv._1:12295	OSCAR
131	0-20000-0-84203	0	132	84203	3	GUAYAQUIL AEROPUERTO			0	-79.88388888888889	-2.1580555555555554		19781101.0	19781231.0	1	0	63	NMS	62	Guayaquil									[36, 38, 39, 85, 104, 105, 106, 107, 117]							L.Haimberger	0	1.0		2.9	6.0	era5.conv._84203	OSCAR
132	0-20300-0-99008	0	133	6:108425	3	OCEAN WEATHER SHIP C			0	-35.5	52.75		19710501.0	19711006.0	1	0	63	NMS	83										[38, 85, 104, 105, 106, 107, 117]							L.Haimberger	0	5.6			-999.0	era5.conv._6:108425	IGRA2
133	0-20000-0-40233	0	134	 1:62338	3	GAZA			0	34.45	31.5		19630801.0	19670430.0	1	0	63	NMS	182	Sederot									[104, 105, 106, 107]							L.Haimberger	0	0.0		14.2	-999.0	era5.conv._1:62338	OSCAR
134	0-20000-0-30957	0	135	30954	3	AKSA			0	113.26666666666668	50.266666666666666		19781201.0	19781229.0	1	0	63	NMS	190	Aginskoye									[36, 38, 39, 85, 104, 105, 106, 107, 117]							L.Haimberger	0	1.0		127.9	732.2	era5.conv._30954	OSCAR
135	0-20300-0-67017	0	136	 1:67017	3	VOHEMAR			0	50.0	-13.367		19691201.0	19771106.0	1	0	63	NMS	141	Sambava									[104, 105, 106, 107]							L.Haimberger	0	0.3		100.8	5.0	era5.conv._1:67017	IGRA2
136	0-20000-0-61934	0	137	61934	3	PRINCIPE			0	7.416666666666667	1.65		19740801.0	19740810.0	1	0	63	NMS	207	Bata									[36, 38, 39, 85, 104, 105, 106, 107, 117]							L.Haimberger	0	5.8		262.0	5.0	era5.conv._61934	OSCAR
137	0-20000-0-72636	0	138	14840	3	MUSKEGON/COUNTY, MI.			0	-86.25	43.16666666666666		19570901.0	19590331.0	1	0	63	NMS	231	Norton Shores									[104, 105, 106, 107, 117]							L.Haimberger	0	1.7		2.8	193.0	era5.conv._14840	OSCAR
138	0-20000-0-40179	0	139	  C:5981	3	BET DAGAN			0	34.81666666666667	32.0		19400301.0	19400524.0	1	0	63	NMS	102	Ramla									[104, 105, 106, 107]							L.Haimberger	0	9.3		0.6	49.0	era5.conv._C:5981	OSCAR
139	0-20700-0-36428	0	140	36421	3	ULKEN NARYN              			0	84.0	49.0		19660601.0	19680430.0	1	0	63	NMS	124	Zyryanovsk									[36, 38, 39, 85, 104, 105, 106, 107, 117]							L.Haimberger	0	22.2		63.1	-999.0	era5.conv._36421	WMO
140	0-20000-0-81250	0	141	81250	3	TAFELBERG			0	-56.15	3.783333333333333		19740401.0	19781221.0	1	0	63	NMS	206	Lelydorp									[104, 105, 106, 107, 117]							L.Haimberger	0	0.4		235.4	323.0	era5.conv._81250	OSCAR
141	0-20000-0-07491	0	142	 2:34011	3	CHAMBERY-AIX-LES-BAINS			0	5.878055555555556	45.64138888888889		19440901.0	19440916.0	1	0	63	NMS	74	Voiron									[104, 105, 106, 107]							L.Haimberger	0	29.8		27.2	235.0	era5.conv._2:34011	OSCAR
142	0-20000-0-41780	0	143	  9:4190	3	KARACHI AIRPORT			0	67.13333333333334	24.9		19400101.0	19411129.0	1	0	63	NMS	177	Karachi									[38, 85, 117]							L.Haimberger	0	10.4		5.3	16.0	era5.conv._9:4190	OSCAR
143	0-20000-0-07015	0	144	  1:7015	3	LILLE-LESQUIN			0	3.0975	50.57		19660401.0	19670530.0	1	0	63	NMS	74	Ronchin									[104, 105, 106, 107]							L.Haimberger	0	0.2		3.3	47.0	era5.conv._1:7015	OSCAR
144	0-20000-0-91629	0	145	80707	3	ARORAE			0	176.83333333333334	-2.6666666666666665		19650701.0	19650905.0	1	0	63	NMS	225	Bairiki									[36, 38, 39, 85, 104, 105, 106, 107, 117]							L.Haimberger	0	9.5		606.4	7.0	era5.conv._80707	OSCAR
145	0-20000-0-89070	0	146	88938	3	GABRIEL DE CASTILLA			0	-60.67583333333333	-62.977222222222224		19570901.0	19580211.0	1	0	63	NMS	9										[104, 105, 106, 107, 117]							L.Haimberger	0	5.4			12.0	era5.conv._88938	OSCAR
146	0-20500-0-23105	0	147	 2:23105	3	DESERT CENTER AAF			0	-115.33	33.75		19431101.0	19440205.0	1	0	63	NMS	231	Blythe									[104, 105, 106, 107]							L.Haimberger	0	0.0		69.8	164.8968	era5.conv._2:23105	WBAN
147	0-20300-0-25173	0	148	  C:4769	3	MYS SHMIDTA			0	-179.48	68.92		19480301.0	19480630.0	1	0	63	NMS	190										[38, 39, 85, 117]							L.Haimberger	0	0.4			2.0	era5.conv._C:4769	IGRA2
148	0-20000-0-70381	0	149	25309	3	JUNEAU			0	-134.58333333333334	58.36666666666667		19570901.0	19590225.0	1	0	63	NMS	231	Juneau									[104, 105, 106, 107, 117]							L.Haimberger	0	0.4		12.1	7.0	era5.conv._25309	OSCAR
149	0-20000-0-41480	0	150	 6:20303	3	ADEN			0	45.03333333333333	12.833333333333334		19440101.0	19481229.0	1	0	63	NMS	243	Aden									[104, 105, 106, 107]							L.Haimberger	0	1.5		4.5	3.0	era5.conv._6:20303	OSCAR
150	0-20300-0-03138	0	151	3138	3	SHOSHONE			0	-116.2667	35.9667		19570901.0	19570923.0	1	0	63	NMS	231	Pahrump									[104, 105, 106, 107, 117]							L.Haimberger	0	0.5		37.0	481.9	era5.conv._03138	IGRA2
151	0-20300-0-58321	0	152	58322	3	HEFEI			0	117.233	31.867		19570901.0	19580212.0	1	0	63	NMS	47	Hefei									[36, 38, 39, 85, 104, 105, 106, 107, 117]							L.Haimberger	0	22.4		17.9	36.0	era5.conv._58322	IGRA2
152	0-20000-0-91533	0	153	80606	3	BANABA			0	169.53333333333333	-0.9		19650401.0	19650812.0	1	0	63	NMS	168	Bairiki									[36, 38, 39, 85, 104, 105, 106, 107, 117]							L.Haimberger	0	6.2		447.9	66.0	era5.conv._80606	OSCAR
153	0-20000-0-32540	0	154	  C:4574	3	PETROPAVLOVSK-KAMCHATSKIJ (32540-0)			0	158.58333333333334	53.083333333333336		19540401.0	19540921.0	1	0	63	NMS	190	Yelizovo									[38, 39, 85, 104, 105, 106, 107, 117]							L.Haimberger	0	17.4		15.6	83.9	era5.conv._C:4574	OSCAR
154	0-20300-0-99018	0	155	6:100017	3	OCEAN WEATHER SHIP M			0	2.0	66.0		19710601.0	19710712.0	1	0	63	NMS	166										[38, 85, 104, 105, 106, 107, 117]							L.Haimberger	0	17.6			7.010400000000001	era5.conv._6:100017	IGRA2
155	0-20000-0-87395	0	156	 1:87395	3	CONCORDIA AERO			0	-58.00138888888889	-31.302222222222223		19490101.0	19540925.0	1	0	63	NMS	10	Concordia									[38, 104, 105, 106, 107]							L.Haimberger	0	1.8		10.3	38.0	era5.conv._1:87395	OSCAR
156	0-20700-0-34398	0	157	 1:34398	3	FURMANOVO                			0	49.48333333333333	49.66666666666666		19661201.0	19680430.0	1	0	63	NMS	124	Novouzensk									[104, 105, 106, 107]							L.Haimberger	0	0.4		129.9	-999.0	era5.conv._1:34398	WMO
157	0-20000-0-63210	0	158	63210	3	BOSASO			0	49.18333333333333	11.283333333333331		19781201.0	19781207.0	1	0	63	NMS	205	Bosaso									[36, 38, 39, 85, 104, 105, 106, 107, 117]							L.Haimberger	0	0.5		0.6	2.0	era5.conv._63210	OSCAR
158	0-20000-0-87270	0	159	87270	3	RECONQUISTA AERO			0	-59.69333333333333	-29.205		19570901.0	19571215.0	1	0	63	NMS	10	Reconquista									[104, 105, 106, 107, 117]							L.Haimberger	0	3.6		3.9	53.0	era5.conv._87270	OSCAR
159	0-20000-0-64387	0	160	64387	3	KIGALI			0	30.13277777777778	-1.965		19740601.0	19751115.0	1	0	63	NMS	191	Kigali									[104, 105, 106, 107, 117]							L.Haimberger	0	1.5		6.9	1497.47	era5.conv._64387	OSCAR
160	0-20000-0-87178	0	161	87178	3	POSADAS AERO			0	-55.96694444444445	-27.391111111111112		19570901.0	19700130.0	1	0	63	NMS	10	Posadas									[36, 38, 39, 85, 104, 105, 106, 107, 117]							L.Haimberger	0	2.4		7.3	125.0	era5.conv._87178	OSCAR
161	0-20000-0-07648	0	162	 2:34023	3	SALON DE PROVENCE			0	5.104166666666666	43.60361111111112		19440801.0	19440905.0	1	0	63	NMS	74	Salon-De-Provence									[104, 105, 106, 107]							L.Haimberger	0	3.0		1.2	59.0	era5.conv._2:34023	OSCAR
162	0-20000-0-65475	0	163	65475	3	ADA			0	0.6333333333333333	5.783333333333333		19740601.0	19740923.0	1	0	63	NMS	81	Anloga									[104, 105, 106, 107, 117]							L.Haimberger	0	4.1		33.2	5.2	era5.conv._65475	OSCAR
163	0-20300-0-20357	0	164	  9:3778	3	RUSSKAJA GAVAN			0	62.5667	76.1833		19530201.0	19541231.0	1	0	63	NMS	190										[117]							L.Haimberger	0	26.5			9.0	era5.conv._9:3778	IGRA2
164	0-20000-0-74545	0	165	74545	3	SMOKEY HILL GUNNERY RANGE, KS.			0	-97.8	38.65		19700201.0	19720830.0	1	0	63	NMS	231	Salina									[36, 38, 39, 85, 104, 105, 106, 107, 117]							L.Haimberger	0	5.6		22.6	383.0	era5.conv._74545	OSCAR
165	0-20000-0-41856	0	166	  9:3368	3	RAJARHAT, KURIGRAM			0	89.545	25.798333333333336		19440101.0	19460414.0	1	0	63	NMS	19	Lalmanir Hat									[85, 117]							L.Haimberger	0	14.7		3.0	31.0	era5.conv._9:3368	OSCAR
166	0-20000-0-47930	0	167	 2:42206	3	NAHA AIRPORT			0	127.64583333333334	26.195833333333333		19520901.0	19530212.0	1	0	63	NMS	113	Tomigusuku									[104, 105, 106, 107]							L.Haimberger	0	0.6		3.0	6.36	era5.conv._2:42206	OSCAR
167	0-20000-0-07471	0	168	  1:7470	3	LE PUY-LOUDES			0	3.763888888888889	45.074444444444445		19691001.0	19721225.0	1	0	63	NMS	74	Firminy									[104, 105, 106, 107]							L.Haimberger	0	11.1		48.4	833.0	era5.conv._1:7470	OSCAR
168	0-20000-0-70162	0	169	 2:26537	3	UMIAT			0	-152.13333333333333	69.36666666666666		19540501.0	19540804.0	1	0	63	NMS	231	College									[104, 105, 106, 107]							L.Haimberger	0	0.4		536.9	117.3	era5.conv._2:26537	OSCAR
169	0-20000-0-08190	0	170	  1:8181	3	BARCELONA SERVEI			0	2.118055555555556	41.38444444444444		19680701.0	19720126.0	1	0	63	NMS	67	El Prat De Llobregat									[104, 105, 106, 107]							L.Haimberger	0	12.0		5.5	5.0	era5.conv._1:8181	OSCAR
170	0-20000-0-10860	0	171	 1:10862	3	INGOLSTADT (FLUGPLATZ)			0	11.536111111111111	48.71111111111112		19760701.0	19771228.0	1	0	63	NMS	56	Abensberg									[104, 105, 106, 107]							L.Haimberger	0	19.9		8.3	364.0	era5.conv._1:10862	OSCAR
171	0-20000-0-63471	0	172	 2:30401	3	DIREDAWA			0	41.85	9.6		19650201.0	19661204.0	1	0	63	NMS	68	Dire Dawa									[38, 85, 104, 105, 106, 107, 117]							L.Haimberger	0	2.2		0.9	1260.0	era5.conv._2:30401	OSCAR
172	0-20300-0-99018	0	173	10120	3	OCEAN WEATHER SHIP M			0	2.0	66.0		19710101.0	19710110.0	1	0	63	NMS	166	Molde									[36, 38, 39, 85, 104, 105, 106, 107, 117]							L.Haimberger	0	24.1		454.5	7.010400000000001	era5.conv._10120	IGRA2
173	0-20000-0-10637	0	174	 1:10639	3	FRANKFURT/MAIN			0	8.52138888888889	50.02583333333333		19720801.0	19731025.0	1	0	63	NMS	56	Darmstadt									[38, 85, 104, 105, 106, 107, 117]							L.Haimberger	0	19.6		0.1	104.13	era5.conv._1:10639	OSCAR
174	0-20000-0-20353	0	175	  C:6006	3	MYS ZELANIYA			0	68.55	76.95		19451201.0	19451222.0	1	0	63	NMS	190										[38, 39, 85, 117]							L.Haimberger	0	11.2			8.9	era5.conv._C:6006	OSCAR
175	0-20000-0-32540	0	176	  C:4636	3	PETROPAVLOVSK-KAMCHATSKIJ (32540-0)			0	158.58333333333334	53.083333333333336		19541001.0	19550421.0	1	0	63	NMS	190	Yelizovo									[38, 39, 85, 104, 105, 106, 107, 117]							L.Haimberger	0	17.4		15.6	83.9	era5.conv._C:4636	OSCAR
176	0-20300-0-42704	0	177	 2:32813	3	USAF-DS3-277			0	87.433	23.467		19441101.0	19460131.0	1	0	63	NMS	104	Durgapur									[104, 105, 106, 107]							L.Haimberger	0	1.8		13.7	72.0	era5.conv._2:32813	IGRA2
177	0-20300-0-46746	0	178	 1:46746	3	CHIAYI (TW-AFB)			0	120.383	23.467		19741201.0	19760114.0	1	0	63	NMS	226	Taipao									[104, 105, 106, 107]							L.Haimberger	0	0.5		4.9	25.0	era5.conv._1:46746	IGRA2
178	0-20000-0-38616	0	179	  C:4677	3	KARA-SUU			0	72.9	40.7		19560701.0	19560821.0	1	0	63	NMS	233	Andijon									[38, 39, 85, 104, 105, 106, 107, 117]							L.Haimberger	0	11.5		37.5	868.0	era5.conv._C:4677	OSCAR
179	0-20300-0-99018	0	180	6:100014	3	OCEAN WEATHER SHIP M			0	2.0	66.0		19710501.0	19710529.0	1	0	63	NMS	166										[38, 85, 104, 105, 106, 107, 117]							L.Haimberger	0	27.2			7.010400000000001	era5.conv._6:100014	IGRA2
180	0-20000-0-62440	0	181	  C:4941	3	ISMAILIA			0	32.24722222222222	30.591666666666665		19400401.0	19540329.0	1	0	63	NMS	64	Ismailia									[104, 105, 106, 107]							L.Haimberger	0	2.5		0.5	12.74	era5.conv._C:4941	OSCAR
181	0-20300-0-03371	0	182	  9:3371	3	SEWASTOPOL			0	33.53	44.62		19461201.0	19491129.0	1	0	63	NMS	228	Bakhchysaray									[85, 117]							L.Haimberger	0	0.0		30.0	8.0	era5.conv._9:3371	IGRA2
182	0-20300-0-99013	0	183	10071	3	OCEAN WEATHER SHIP H			0	-71.0	38.0		19710101.0	19711101.0	1	0	63	NMS	231	Brigantine									[36, 38, 39, 85, 104, 105, 106, 107, 117]							L.Haimberger	0	20.8		322.5	-999.0	era5.conv._10071	IGRA2
183	0-20000-0-08330	0	184	  1:8330	3	BADAJOZ/TALAVERA LA REAL			0	-6.813888888888889	38.88333333333333		19680101.0	19711127.0	1	0	63	NMS	67	Badajoz									[104, 105, 106, 107]							L.Haimberger	0	0.6		13.1	192.0	era5.conv._1:8330	OSCAR
184	0-20000-0-91348	0	185	40506	3	WEATHER SERVICE OFFICE, POHNPEI, CAROLINE IS.			0	158.20666666666665	6.961944444444445		19620301.0	19620625.0	1	0	63	NMS	72										[36, 38, 39, 85, 104, 105, 106, 107, 117]							L.Haimberger	0	1.7			37.8	era5.conv._40506	OSCAR
185	0-20300-0-99010	0	186	10139	3	OCEAN WEATHER SHIP E			0	-48.0	35.0		19710501.0	19710503.0	1	0	63	NMS	37										[36, 38, 39, 85, 104, 105, 106, 107, 117]							L.Haimberger	0	0.0			-999.0	era5.conv._10139	IGRA2
186	0-20000-0-72221	0	187	  2:3843	3	VALPARAISO/EGLIN AFB, FL.			0	-86.51666666666667	30.48333333333333		19490901.0	19491102.0	1	0	63	NMS	231	Niceville									[104, 105, 106, 107]							L.Haimberger	0	9.3		5.0	29.0	era5.conv._2:3843	OSCAR
187	0-20000-0-60729	0	188	 2:33105	3	ZAGHOUAN			0	10.083333333333334	36.43333333333333		19430801.0	19431231.0	1	0	63	NMS	221	Maqrin									[104, 105, 106, 107]							L.Haimberger	0	3.5		39.1	156.0	era5.conv._2:33105	OSCAR
188	0-20000-0-91155	0	189	91155	3	FRENCH FRIGATE SHOALS			0	-166.28333333333333	23.866666666666667		19620901.0	19621030.0	1	0	63	NMS	231										[36, 38, 39, 85, 104, 105, 106, 107, 117]							L.Haimberger	0	4.1			2.1336	era5.conv._91155	OSCAR
189	0-20000-0-28676	0	190	28679	3	PETROPAVLOVSK (28676-0)			0	69.11749999999999	54.7925		19660601.0	19680430.0	1	0	63	NMS	124	Petropavl									[36, 38, 39, 85, 104, 105, 106, 107, 117]							L.Haimberger	0	4.7		5.1	101.0	era5.conv._28679	OSCAR
190	0-20000-0-82288	0	191	82288	3	PARNAIBA (AERO)			0	-41.75	-2.9166666666666665		19740601.0	19740920.0	1	0	63	NMS	30	Parnaiba									[36, 38, 39, 85, 104, 105, 106, 107, 117]							L.Haimberger	0	0.4		3.0	5.0	era5.conv._82288	OSCAR
191	0-20300-0-99018	0	192	6:105261	3	OCEAN WEATHER SHIP M			0	2.0	66.0		19711001.0	19711010.0	1	0	63	NMS	166										[38, 85, 104, 105, 106, 107, 117]							L.Haimberger	0	18.2			7.010400000000001	era5.conv._6:105261	IGRA2
192	0-20000-0-07024	0	193	7021	3	MAUPERTUS GONNEVILLE			0	-1.463611111111111	49.65277777777778		19660301.0	19661015.0	1	0	63	NMS	74	Cherbourg									[36, 38, 39, 85, 104, 105, 106, 107, 117]							L.Haimberger	0	12.0		1.5	138.0	era5.conv._07021	OSCAR
193	0-20000-0-47127	0	194	 2:43230	3	CHUNGJU			0	127.95277777777778	36.97027777777778		19510201.0	19510228.0	1	0	63	NMS	121	Seoul									[104, 105, 106, 107]							L.Haimberger	0	16.1		124.5	116.52	era5.conv._2:43230	OSCAR
194	0-20000-0-71087	0	195	 2:26104	3	FORT PROVIDENCE, NWT			0	-117.60194444444444	61.316944444444445		19430901.0	19431220.0	1	0	63	NMS	37	Yellowknife									[104, 105, 106, 107]							L.Haimberger	0	3.9		214.6	161.5	era5.conv._2:26104	OSCAR
195	0-20000-0-67761	0	196	67761	3	KARIBA			0	28.883333333333333	-16.516666666666666		19730101.0	19771110.0	1	0	63	NMS	248	Kariba									[104, 105, 106, 107, 117]							L.Haimberger	0	12.1		3.2	518.0	era5.conv._67761	OSCAR
196	0-20000-0-07648	0	197	  1:7648	3	SALON DE PROVENCE			0	5.104166666666666	43.60361111111112		19490101.0	19490327.0	1	0	63	NMS	74	Salon-De-Provence									[38, 85, 117]							L.Haimberger	0	1.9		2.3	59.0	era5.conv._1:7648	OSCAR
197	0-20000-0-72428	0	198	 2:93834	3	COLUMBUS/PORT COLUMBUS, OH.			0	-82.88333333333334	40.0		19491001.0	19500813.0	1	0	63	NMS	231	Whitehall									[104, 105, 106, 107]							L.Haimberger	0	2.2		1.6	254.0	era5.conv._2:93834	OSCAR
198	0-20000-0-70266	0	199	70267	3	FORT GREELY, AK			0	-145.7	63.96666666666667		19741101.0	19750910.0	1	0	63	NMS	231	Fairbanks									[36, 38, 39, 85, 104, 105, 106, 107, 117]							L.Haimberger	0	4.0		133.7	391.0	era5.conv._70267	OSCAR
199	0-20000-0-80241	0	200	 1:80241	3	LAS GAVIOTAS			0	-70.91666666666667	4.55		19730601.0	19731213.0	1	0	63	NMS	48	Villanueva									[38, 85, 104, 105, 106, 107, 117]							L.Haimberger	0	22.5		164.0	167.0	era5.conv._1:80241	OSCAR
200	0-20300-0-99010	0	201	6:100480	3	OCEAN WEATHER SHIP E			0	-48.0	35.0		19710401.0	19711109.0	1	0	63	NMS	37										[38, 85, 104, 105, 106, 107, 117]							L.Haimberger	0	0.0			-999.0	era5.conv._6:100480	IGRA2
201	0-20000-0-87791	0	202	 1:87790	3	VIEDMA AERO			0	-63.00694444444444	-40.86333333333334		19570701.0	19571017.0	1	0	63	NMS	10	Viedma									[38, 104, 105, 106, 107]							L.Haimberger	0	9.5		4.0	7.0	era5.conv._1:87790	OSCAR
202	0-20000-0-47764	0	203	47764	3	IWAKUNI			0	132.24694444444444	34.145		19660501.0	19710826.0	1	0	63	NMS	113	Iwakuni									[36, 38, 39, 85, 104, 105, 106, 107, 117]							L.Haimberger	0	1.7		4.3	6.05	era5.conv._47764	OSCAR
203	0-20000-0-42260	0	204	42260	3	AGRA (42260-0)			0	77.96666666666667	27.15		19710101.0	19750813.0	1	0	63	NMS	104	Agra									[104, 105, 106, 107, 117]							L.Haimberger	0	0.3		5.9	168.0	era5.conv._42260	OSCAR
204	0-20000-0-78016	0	205	13602	3	L F WADE INTERNATIONAL AIRPORT			0	-64.67722222222223	32.36694444444444		19620701.0	19620706.0	1	0	63	NMS	27										[36, 38, 39, 85, 104, 105, 106, 107, 117]							L.Haimberger	0	19.5			4.0	era5.conv._13602	OSCAR
205	0-20000-0-71401	0	206	 2:94115	3	WARFIELD RCS			0	-117.7388888888889	49.11194444444445		19550701.0	19581224.0	1	0	63	NMS	37	Penticton									[104, 105, 106, 107]							L.Haimberger	0	13.9		127.0	566.9	era5.conv._2:94115	OSCAR
206	0-20000-0-74671	0	207	 1:74671	3	FORT CAMPBELL AAF, KY.			0	-87.5	36.66666666666666		19700401.0	19721229.0	1	0	63	NMS	231	Clarksville									[104, 105, 106, 107]							L.Haimberger	0	0.4		20.0	171.0	era5.conv._1:74671	OSCAR
207	0-20500-0-26459	0	208	70192	3	POKER FLAT			0	-147.48	65.12		19730201.0	19730628.0	1	0	63	NMS	231	College									[36, 38, 39, 85, 104, 105, 106, 107, 117]							L.Haimberger	0	0.0		33.0	196.9008	era5.conv._70192	WBAN
208	0-20000-0-20353	0	209	  C:4770	3	MYS ZELANIYA			0	68.55	76.95		19480101.0	19480630.0	1	0	63	NMS	190										[38, 39, 85, 117]							L.Haimberger	0	11.2			8.9	era5.conv._C:4770	OSCAR
209	0-20300-0-26636	0	210	 1:70107	3	CAPE THOMPSON			0	-165.7667	68.1		19620501.0	19621228.0	1	0	63	NMS	231										[104, 105, 106, 107]							L.Haimberger	0	0.3			11.0	era5.conv._1:70107	IGRA2
210	0-20500-0-26610	0	211	 2:26610	3	AKULURAK			0	-164.42	62.5		19440201.0	19440829.0	1	0	63	NMS	231										[104, 105, 106, 107]							L.Haimberger	0	0.0			9.144	era5.conv._2:26610	WBAN
211	0-20000-0-42895	0	212	  9:1737	3	BALASORE			0	86.93333333333334	21.516666666666666		19450901.0	19480229.0	1	0	63	NMS	104	Baleshwar									[104, 105, 106, 107]							L.Haimberger	0	1.9		0.7	18.2	era5.conv._9:1737	OSCAR
212	0-20000-0-60566	0	213	 1:60565	3	GHARDAIA			0	3.8	32.4		19570701.0	19581225.0	1	0	63	NMS	61	Warqla									[38, 104, 105, 106, 107]							L.Haimberger	0	14.5		166.3	469.0	era5.conv._1:60565	OSCAR
213	0-20000-0-72370	0	214	23108	3	KINGMAN/MOHAVE COUNTY A., AZ.			0	-113.93333333333334	35.266666666666666		19570901.0	19640517.0	1	0	63	NMS	231	Kingman									[36, 38, 39, 85, 104, 105, 106, 107, 117]							L.Haimberger	0	0.5		14.3	1033.0	era5.conv._23108	OSCAR
214	0-20000-0-48877	0	215	 2:41015	3	NHA TRANG			0	109.21666666666668	12.216666666666669		19680401.0	19690604.0	1	0	63	NMS	239	Cam Ranh									[38, 85, 117]							L.Haimberger	0	27.3		11.7	4.0	era5.conv._2:41015	OSCAR
215	0-20000-0-88963	0	216	88940	3	BASE ESPERANZA			0	-56.99777777777778	-63.39888888888889		19571201.0	19580212.0	1	0	63	NMS	71										[104, 105, 106, 107, 117]							L.Haimberger	0	0.9			24.0	era5.conv._88940	OSCAR
216	0-20000-0-72263	0	217	 2:23034	3	SAN ANGELO/MATHIS, TX.			0	-100.5	31.366666666666667		19450401.0	19450625.0	1	0	63	NMS	231	San Angelo									[104, 105, 106, 107]							L.Haimberger	0	0.4		12.0	582.0	era5.conv._2:23034	OSCAR
217	0-20000-0-74545	0	218	 6:74545	3	SMOKEY HILL GUNNERY RANGE, KS.			0	-97.8	38.65		19700501.0	19720515.0	1	0	63	NMS	231	Salina									[104, 105, 106, 107]							L.Haimberger	0	5.6		22.6	383.0	era5.conv._6:74545	OSCAR
218	0-20000-0-08302	0	219	8301	3	MALLORCA-SON BONET			0	2.706666666666667	39.60583333333334		19670301.0	19691208.0	1	0	63	NMS	67	Palma									[36, 38, 39, 85, 104, 105, 106, 107, 117]							L.Haimberger	0	9.7		4.1	5.0	era5.conv._08301	OSCAR
219	0-20000-0-04063	0	220	 2:16101	3	AKUREYRI			0	-18.08333333333333	65.68333333333334		19440201.0	19440731.0	1	0	63	NMS	108	Akureyri									[104, 105, 106, 107]							L.Haimberger	0	1.5		1.0	27.0	era5.conv._2:16101	OSCAR
220	0-20000-0-60560	0	221	60560	3	AIN-SEFRA			0	-0.6	32.766666666666666		19570901.0	19580212.0	1	0	63	NMS	61	Aflu									[104, 105, 106, 107, 117]							L.Haimberger	0	1.8		293.0	1065.0	era5.conv._60560	OSCAR
221	0-20000-0-06484	0	222	  9:1555	3	BUZENOL			0	5.5875	49.62027777777778		19490101.0	19500731.0	1	0	63	NMS	20	Virton									[104, 105, 106, 107]							L.Haimberger	0	7.9		3.2	324.0	era5.conv._9:1555	OSCAR
222	0-20000-0-07145	0	223	7149	3	TRAPPES			0	2.0097222222222224	48.77444444444444		19741001.0	19750425.0	1	0	63	NMS	74	Villeneuve-Le-Roi									[104, 105, 106, 107, 117]							L.Haimberger	0	29.1		0.8	90.0	era5.conv._07149	OSCAR
223	0-20000-0-36535	0	224	 1:36535	3	KOKPEKTY			0	82.36666666666666	48.75		19680101.0	19680429.0	1	0	63	NMS	124	Serebryansk									[104, 105, 106, 107]							L.Haimberger	0	0.2		124.4	512.0	era5.conv._1:36535	OSCAR
224	0-20000-0-16261	0	225	 2:34107	3	AMENDOLA			0	15.713888888888889	41.53805555555555		19440501.0	19440731.0	1	0	63	NMS	109	San Severo									[104, 105, 106, 107]							L.Haimberger	0	29.7		4.3	60.0	era5.conv._2:34107	OSCAR
225	0-20000-0-48972	0	226	48972	3	STUNG TRENG			0	105.96666666666668	13.516666666666667		19691001.0	19700127.0	1	0	63	NMS	116	Lumphat									[36, 38, 39, 85, 104, 105, 106, 107, 117]							L.Haimberger	0	0.5		109.7	54.0	era5.conv._48972	OSCAR
226	0-20000-0-74718	0	227	 2:23164	3	SALTON SEA, CA. (AFS)			0	-115.86666666666666	33.21666666666667		19630901.0	19640305.0	1	0	63	NMS	231	Brawley									[38, 85, 104, 105, 106, 107, 117]							L.Haimberger	0	0.5		41.6	-68.8848	era5.conv._2:23164	OSCAR
227	0-20300-0-99014	0	228	6:100194	3	OCEAN WEATHER SHIP I			0	-19.0	59.0		19710501.0	19710731.0	1	0	63	NMS	108	Kopavogur									[38, 85, 104, 105, 106, 107, 117]							L.Haimberger	0	25.5		572.9	-999.0	era5.conv._6:100194	IGRA2
228	0-20000-0-72212	0	229	 2:12822	3	CROSS CITY/CROSS CITY A., FL.			0	-83.1	29.616666666666667		19431201.0	19440229.0	1	0	63	NMS	231	Gainesville									[104, 105, 106, 107]							L.Haimberger	0	2.4		77.0	13.0	era5.conv._2:12822	OSCAR
229	0-20000-0-47102	0	230	 2:43226	3	BAENGNYEONGDO			0	124.7125	37.973888888888894		19510501.0	19510906.0	1	0	63	NMS	121	Seoul									[104, 105, 106, 107]							L.Haimberger	0	19.5		203.9	146.21	era5.conv._2:43226	OSCAR
230	0-20500-0-33015	0	231	 2:33015	3	DJEDEIDA MU 8			0	9.9	36.87		19430801.0	19431026.0	1	0	63	NMS	221	Taburbah									[104, 105, 106, 107]							L.Haimberger	0	0.0		7.0	49.0728	era5.conv._2:33015	WBAN
231	0-20000-0-42103	0	232	  9:4196	3	AMBALA			0	76.76666666666667	30.383333333333333		19400101.0	19400613.0	1	0	63	NMS	104	Ambala									[38, 85, 117]							L.Haimberger	0	5.3		3.9	273.0	era5.conv._9:4196	OSCAR
232	0-20500-0-40302	0	233	 2:40302	3	FANI ISLAND AAF			0	131.27	1.08		19441201.0	19450127.0	1	0	63	NMS	100	Sorong									[104, 105, 106, 107]							L.Haimberger	0	0.0		217.1	2.1336	era5.conv._2:40302	WBAN
233	0-20000-0-42105	0	234	 1:42105	3	CHANDIGARH			0	76.88333333333334	30.73333333333333		19760601.0	19770607.0	1	0	63	NMS	104	Chandigarh									[104, 105, 106, 107]							L.Haimberger	0	0.5		8.3	347.0	era5.conv._1:42105	OSCAR
234	0-20000-0-36397	0	235	36403	3	ZHALGYZTOBE			0	81.21666666666667	49.21666666666667		19670101.0	19680430.0	1	0	63	NMS	124	Oskemen									[36, 38, 39, 85, 104, 105, 106, 107, 117]							L.Haimberger	0	13.5		123.1	455.0	era5.conv._36403	OSCAR
235	0-20000-0-71023	0	236	71127	3	JIMMY LAKE AWOS, SASK			0	-109.96194444444444	54.90833333333333		19700401.0	19781219.0	1	0	63	NMS	37	Grand Centre									[104, 105, 106, 107, 117]							L.Haimberger	0	1.4		58.2	637.1	era5.conv._71127	OSCAR
236	0-20000-0-72537	0	237	72537	3	DETROIT/METROPOLITAN, MI.			0	-83.33333333333333	42.23333333333333		19720901.0	19721229.0	1	0	63	NMS	231	Romulus									[36, 38, 39, 85, 104, 105, 106, 107, 117]							L.Haimberger	0	2.0		3.9	202.0	era5.conv._72537	OSCAR
237	0-20300-0-99008	0	238	6:100354	3	OCEAN WEATHER SHIP C			0	-35.5	52.75		19710401.0	19710417.0	1	0	63	NMS	83										[38, 85, 104, 105, 106, 107, 117]							L.Haimberger	0	8.8			-999.0	era5.conv._6:100354	IGRA2
238	0-20000-0-91232	0	239	 2:41410	3	SAIPAN (CG), MARIANA IS.			0	145.73333333333332	15.116666666666667		19450701.0	19450731.0	1	0	63	NMS	148										[104, 105, 106, 107]							L.Haimberger	0	19.4			3.0	era5.conv._2:41410	OSCAR
239	0-404-300-472781389CO63741	0	240	63742	3	DAGORETTI CORNER			0	36.75972222222222	-1.301388888888889		19610301.0	19630923.0	1	0	63	NMS	114	Nairobi									[104, 105, 106, 107, 117]							L.Haimberger	0	7.0		4.1	1639.26	era5.conv._63742	OSCAR
240	0-20300-0-96853	0	241	 1:96853	3	ADISUCIPTO/JOGYAKAR			0	110.433	-7.783		19660901.0	19720929.0	1	0	63	NMS	100	Yogyakarta									[104, 105, 106, 107]							L.Haimberger	0	0.5		7.6	107.0	era5.conv._1:96853	IGRA2
241	0-20000-0-38328	0	242	 1:38328	3	SHYMKENT			0	69.71000000000001	42.34777777777778		19660601.0	19680429.0	1	0	63	NMS	124	Shymkent									[104, 105, 106, 107]							L.Haimberger	0	10.5		0.0	604.0	era5.conv._1:38328	OSCAR
242	0-404-300-472781389CO63741	0	243	63739	3	DAGORETTI CORNER			0	36.75972222222222	-1.301388888888889		19740901.0	19740911.0	1	0	63	NMS	114	Nairobi									[36, 38, 39, 85, 104, 105, 106, 107, 117]							L.Haimberger	0	4.5		2.6	1639.26	era5.conv._63739	OSCAR
243	0-20000-0-94857	0	244	 1:94856	3	GEELONG RACECOURSE			0	144.3763888888889	-38.17361111111111		19691201.0	19710517.0	1	0	63	NMS	13	Geelong									[38, 85, 104, 105, 106, 107, 117]							L.Haimberger	0	8.4		7.0	13.4	era5.conv._1:94856	OSCAR
244	0-20300-0-99016	0	245	6:100159	3	OCEAN WEATHER SHIP K			0	-16.0	45.0		19710501.0	19711015.0	1	0	63	NMS	67										[38, 85, 104, 105, 106, 107, 117]							L.Haimberger	0	7.9			-999.0	era5.conv._6:100159	IGRA2
245	0-20000-0-71702	0	246	14645	3	SUMMERSIDE, PEI			0	-63.837500000000006	46.44138888888889		19570901.0	19580212.0	1	0	63	NMS	37	Summerside									[104, 105, 106, 107, 117]							L.Haimberger	0	1.4		4.9	12.2	era5.conv._14645	OSCAR
246	0-20300-0-37409	0	247	37409	3	SAKARA			0	43.033	42.133		19691101.0	19781225.0	1	0	63	NMS	78	Tkibuli									[104, 105, 106, 107, 117]							L.Haimberger	0	0.4		24.0	148.0	era5.conv._37409	IGRA2
247	0-20300-0-63641	0	248	 1:63641	3	MARSABIT			0	37.983	2.333		19680201.0	19690508.0	1	0	63	NMS	114	Marsabit									[38, 85, 104, 105, 106, 107, 117]							L.Haimberger	0	9.9		10.0	1345.0	era5.conv._1:63641	IGRA2
248	0-20000-0-59362	0	249	46699	3	HUALIAN			0	121.61666666666666	24.016666666666666		19610701.0	19620726.0	1	0	63	NMS	226	Puli									[104, 105, 106, 107, 117]							L.Haimberger	0	5.2		66.4	14.0	era5.conv._46699	OSCAR
249	0-20000-0-41661	0	250	41660	3	QUETTA (SHEIKH MANDA)			0	66.91666666666667	30.266666666666666		19620701.0	19680519.0	1	0	63	NMS	177	Karak									[36, 38, 39, 85, 104, 105, 106, 107, 117]							L.Haimberger	0	4.0		8.8	1589.0	era5.conv._41660	OSCAR
250	0-20500-0-81307	0	251	81307	3	RANTYIRRITY POINT			0	135.9	-14.18		19640401.0	19640426.0	1	0	63	NMS	13	Katherine									[36, 38, 39, 85, 104, 105, 106, 107, 117]							L.Haimberger	0	0.0		393.6	8.2296	era5.conv._81307	WBAN
251	0-20000-0-83525	0	252	 1:83525	3	UBERLANDIA (AERO)			0	-48.21666666666667	-18.883333333333333		19660501.0	19700528.0	1	0	63	NMS	30	Uberlandia									[104, 105, 106, 107]							L.Haimberger	0	2.3		7.6	943.0	era5.conv._1:83525	OSCAR
252	0-20000-0-72572	0	253	 2:24116	3	SALT LAKE CITY/INTNL UT.			0	-111.95527777777778	40.77222222222222		19410801.0	19420730.0	1	0	63	NMS	231	Salt Lake City									[104, 105, 106, 107]							L.Haimberger	0	2.3		4.0	1289.0	era5.conv._2:24116	OSCAR
253	0-20000-0-83220	0	254	83220	3	RIO XINGU			0	-53.4	-12.0		19740801.0	19740906.0	1	0	63	NMS	30	Alta Floresta									[104, 105, 106, 107, 117]							L.Haimberger	0	0.0		358.6	-999.0	era5.conv._83220	OSCAR
254	0-20000-0-83576	0	255	83576	3	UBERABA (AERO)			0	-47.96666666666667	-19.75		19710901.0	19731230.0	1	0	63	NMS	30	Uberaba									[104, 105, 106, 107, 117]							L.Haimberger	0	2.8		4.1	807.0	era5.conv._83576	OSCAR
255	0-20000-0-72434	0	256	6:110011	3	ST.LOUIS/LAMBERT,  ST.LOUIS INT., MO.			0	-90.36666666666666	38.75		19700601.0	19701202.0	1	0	63	NMS	231	Spanish Lake									[38, 85, 104, 105, 106, 107, 117]							L.Haimberger	0	12.1		2.3	172.0	era5.conv._6:110011	OSCAR
256	0-20000-0-15023	0	257	15023	3	SUCEAVA			0	26.24055555555556	47.632777777777775		19730601.0	19781228.0	1	0	63	NMS	188	Suceava									[104, 105, 106, 107, 117]							L.Haimberger	0	2.0		1.9	350.0	era5.conv._15023	OSCAR
257	0-20000-0-72312	0	258	3873	3	GREENVILLE/GREENVILLE SPARTANBURG, SC.			0	-82.21666666666667	34.9		19630701.0	19630815.0	1	0	63	NMS	231	Spartanburg									[36, 38, 39, 85, 104, 105, 106, 107, 117]							L.Haimberger	0	21.3		6.6	296.0	era5.conv._03873	OSCAR
258	0-20000-0-64911	0	259	 1:64911	3	NKONGSAMBA			0	9.933333333333334	4.95		19760401.0	19771014.0	1	0	63	NMS	46	Nkongsamba									[104, 105, 106, 107]							L.Haimberger	0	0.4		0.5	821.0	era5.conv._1:64911	OSCAR
259	0-20000-0-91533	0	260	 2:80606	3	BANABA			0	169.53333333333333	-0.9		19650401.0	19650730.0	1	0	63	NMS	168	Bairiki									[38, 85, 104, 105, 106, 107, 117]							L.Haimberger	0	6.2		447.9	66.0	era5.conv._2:80606	OSCAR
260	0-20700-0-96533	0	261	96533	3	SINGKAWANG II            			0	109.66666666666669	1.0833333333333333		19780201.0	19781018.0	1	0	63	NMS	100	Singkawang									[104, 105, 106, 107, 117]							L.Haimberger	0	0.5		77.2	-999.0	era5.conv._96533	WMO
261	0-20000-0-41977	0	262	41941	3	CHITTAGONG (AMBAGAN)			0	91.81666666666666	22.35		19640901.0	19691119.0	1	0	63	NMS	19	Patiya									[36, 38, 39, 85, 104, 105, 106, 107, 117]							L.Haimberger	0	5.8		18.4	6.0	era5.conv._41941	OSCAR
262	0-20000-0-23022	0	263	  C:4764	3	AMDERMA			0	61.657777777777774	69.78333333333333		19480101.0	19480630.0	1	0	63	NMS	190	Severnyy									[38, 39, 85, 117]							L.Haimberger	0	3.9		256.6	47.68	era5.conv._C:4764	OSCAR
263	0-20000-0-40233	0	264	62338	3	GAZA			0	34.45	31.5		19630801.0	19670430.0	1	0	63	NMS	182	Sederot									[36, 38, 39, 85, 104, 105, 106, 107, 117]							L.Haimberger	0	0.0		14.2	-999.0	era5.conv._62338	OSCAR
264	0-20500-0-23299	0	265	6:110111	3	TRACY			0	-121.53	37.77		19720601.0	19720623.0	1	0	63	NMS	231	Brentwood									[38, 85, 104, 105, 106, 107, 117]							L.Haimberger	0	22.1		1.3	20.1168	era5.conv._6:110111	WBAN
265	0-20000-0-21824	0	266	  C:4741	3	TIKSI			0	128.91666666666666	71.58333333333333		19400301.0	19400531.0	1	0	63	NMS	190										[38, 39, 85, 117]							L.Haimberger	0	0.4			7.0	era5.conv._C:4741	OSCAR
266	0-20300-0-23111	0	267	3149	3	PHOENIX (LUKE FIELD)			0	-112.3667	33.55		19630801.0	19631022.0	1	0	63	NMS	231	Goodyear									[36, 38, 39, 85, 104, 105, 106, 107, 117]							L.Haimberger	0	13.3		1.3	333.8	era5.conv._03149	IGRA2
267	0-20000-0-65208	0	268	65208	3	IBADAN			0	3.9	7.433333333333334		19740801.0	19740808.0	1	0	63	NMS	163	Ibadan									[106, 107, 117]							L.Haimberger	0	0.4		4.7	227.2	era5.conv._65208	OSCAR
268	0-20000-0-59559	0	269	46752	3	HENGCHUN			0	120.75	22.0		19570901.0	19570916.0	1	0	63	NMS	226	Tungkang									[36, 38, 39, 85, 104, 105, 106, 107, 117]							L.Haimberger	0	0.0		53.7	24.0	era5.conv._46752	OSCAR
269	0-20000-0-27612	0	270	  C:4567	3	MOSKVA VDNH			0	37.61666666666667	55.833333333333336		19540401.0	19540922.0	1	0	63	NMS	190	Dolgoprudnyy									[38, 39, 85, 104, 105, 106, 107, 117]							L.Haimberger	0	12.3		3.8	156.7	era5.conv._C:4567	OSCAR
270	0-20000-0-70296	0	271	 2:26402	3	CORDOVA/MILE 13			0	-145.5	60.5		19420701.0	19421216.0	1	0	63	NMS	231	Anchorage									[104, 105, 106, 107]							L.Haimberger	0	18.9		259.3	13.0	era5.conv._2:26402	OSCAR
271	0-20500-0-23184	0	272	23184	3	PRESCOTT LOVE FIELD			0	-112.43	34.65		19570901.0	19590331.0	1	0	63	NMS	231	Prescott Valley									[104, 105, 106, 107, 117]							L.Haimberger	0	0.0		11.4	1531.0104	era5.conv._23184	WBAN
272	0-20000-0-28445	0	273	28445	3	EKATERINBURG (VERHNEE DUBROVO)			0	61.06666666666667	56.73333333333333		19571201.0	19571211.0	1	0	63	NMS	190	Aramil									[36, 38, 39, 85, 104, 105, 106, 107, 117]							L.Haimberger	0	0.4		14.7	287.72	era5.conv._28445	OSCAR
273	0-20000-0-07180	0	274	 2:34016	3	NANCY-ESSEY			0	6.221388888888889	48.687777777777775		19441101.0	19441127.0	1	0	63	NMS	74	Vandoeuvre-Les-Nancy									[104, 105, 106, 107]							L.Haimberger	0	2.5		1.8	213.0	era5.conv._2:34016	OSCAR
274	0-20000-0-91355	0	275	 2:40608	3	KOSRAE AIRPORT AWS, CAROLINE IS.			0	162.95	5.35		19641001.0	19650114.0	1	0	63	NMS	72										[38, 85, 104, 105, 106, 107, 117]							L.Haimberger	0	2.2			2.0	era5.conv._2:40608	OSCAR
275	0-20300-0-99014	0	276	6:108289	3	OCEAN WEATHER SHIP I			0	-19.0	59.0		19710401.0	19710503.0	1	0	63	NMS	108										[38, 85, 104, 105, 106, 107, 117]							L.Haimberger	0	12.5			-999.0	era5.conv._6:108289	IGRA2
276	0-20000-0-71940	0	277	25115	3	GRANDE PRAIRIE A, ALTA			0	-118.885	55.17972222222222		19570901.0	19580211.0	1	0	63	NMS	37	Grande Prairie									[104, 105, 106, 107, 117]							L.Haimberger	0	0.3		5.3	669.0	era5.conv._25115	OSCAR
277	0-20000-0-38616	0	278	  C:4678	3	KARA-SUU			0	72.9	40.7		19570901.0	19570927.0	1	0	63	NMS	233	Andijon									[38, 39, 85, 104, 105, 106, 107, 117]							L.Haimberger	0	11.5		37.5	868.0	era5.conv._C:4678	OSCAR
278	0-20000-0-43367	0	279	  C:5432	3	CAR NICOBAR			0	92.83333333333331	9.166666666666666		19400401.0	19420227.0	1	0	63	NMS	104	Port Blair									[104, 105, 106, 107]							L.Haimberger	0	2.4		278.5	10.1	era5.conv._C:5432	OSCAR
279	0-20000-0-91554	0	280	 1:91554	3	PEKOA AIRPORT (SANTO)			0	167.21666666666667	-15.516666666666667		19660501.0	19721229.0	1	0	63	NMS	240	Luganville									[104, 105, 106, 107]							L.Haimberger	0	9.3		4.2	44.0	era5.conv._1:91554	OSCAR
280	0-20000-0-72209	0	281	72209	3	FT. STEWART, GA			0	-81.56666666666666	31.883333333333333		19770501.0	19780519.0	1	0	63	NMS	231	Hinesville									[36, 38, 39, 85, 104, 105, 106, 107, 117]							L.Haimberger	0	0.5		4.4	27.0	era5.conv._72209	OSCAR
281	0-20300-0-99006	0	282	6:100331	3	OCEAN WEATHER SHIP A			0	-33.0	62.0		19711001.0	19711015.0	1	0	63	NMS	83										[38, 85, 104, 105, 106, 107, 117]							L.Haimberger	0	12.3			-999.0	era5.conv._6:100331	IGRA2
282	0-20000-0-59278	0	283	59278	3	GAOYAO			0	112.46666666666668	23.05		19710101.0	19730512.0	1	0	63	NMS	47	Zhaoqing									[36, 38, 39, 85, 104, 105, 106, 107, 117]							L.Haimberger	0	0.3		1.1	41.9	era5.conv._59278	OSCAR
283	0-20000-0-74755	0	284	 1:74755	3	CLAIBORNE RANGE, LA. (AFS)			0	-92.56666666666666	31.133333333333333		19710901.0	19721229.0	1	0	63	NMS	231	Alexandria									[104, 105, 106, 107]							L.Haimberger	0	0.5		22.8	67.0	era5.conv._1:74755	OSCAR
284	0-20000-0-56586	0	285	 2:42018	3	ZHAOTONG			0	103.75	27.33333333333333		19450101.0	19450227.0	1	0	63	NMS	47	Zhaotong									[104, 105, 106, 107]							L.Haimberger	0	7.9		4.8	1950.0	era5.conv._2:42018	OSCAR
285	0-20500-0-94109	0	286	94109	3	CARMI			0	-119.08	49.5		19570901.0	19580211.0	1	0	63	NMS	37	Penticton									[104, 105, 106, 107, 117]							L.Haimberger	0	0.0		36.5	245.0592	era5.conv._94109	WBAN
286	0-20000-0-60355	0	287	 1:60355	3	SKIKDA			0	6.9	36.88333333333333		19760101.0	19760429.0	1	0	63	NMS	61	Constantine									[104, 105, 106, 107]							L.Haimberger	0	4.7		63.6	3.0	era5.conv._1:60355	OSCAR
287	0-20000-0-15410	0	288	 1:15410	3	DROBETA-TURNU SEVERIN			0	22.62611111111111	44.62638888888889		19730501.0	19771223.0	1	0	63	NMS	189	Drobeta-Turnu Severin									[104, 105, 106, 107]							L.Haimberger	0	0.5		2.1	77.0	era5.conv._1:15410	OSCAR
288	0-20500-0-3137	0	289	3137	3	OVERTON TEAM 2			0	-114.43	36.4		19570901.0	19570923.0	1	0	63	NMS	231	Boulder City									[104, 105, 106, 107, 117]							L.Haimberger	0	0.0		59.1	409.0416	era5.conv._03137	WBAN
289	0-20000-0-15230	0	290	15230	3	DEVA			0	22.898888888888887	45.865		19730601.0	19781231.0	1	0	63	NMS	188	Deva									[104, 105, 106, 107, 117]							L.Haimberger	0	1.7		0.4	231.0	era5.conv._15230	OSCAR
290	0-20000-0-62721	0	291	  C:4968	3	KHARTOUM			0	32.55	15.6		19530301.0	19531103.0	1	0	63	NMS	195	Khartoum									[85, 104, 105, 106, 107]							L.Haimberger	0	0.0		2.2	380.0	era5.conv._C:4968	OSCAR
291	0-20400-0-5976	0	292	  C:5976	3	Uyuni			0	-66.83	-20.47		19450101.0	19450124.0	1	0	63	NMS	29	Uyuni									[104, 105, 106, 107]							L.Haimberger	0	0.0		0.5	3675.0	era5.conv._C:5976	CHUAN
292	0-20500-0-24048	0	293	24048	3	GREYBULL BIG HORN CO			0	-108.07	44.52		19620101.0	19620103.0	1	0	63	NMS	231	Sheridan									[36, 38, 39, 85, 104, 105, 106, 107, 117]							L.Haimberger	0	0.0		93.6	1198.7784	era5.conv._24048	WBAN
293	0-20000-0-60731	0	294	 2:33106	3	ENFIDHA			0	10.45	36.06666666666667		19431001.0	19431120.0	1	0	63	NMS	221	Akkudah									[104, 105, 106, 107]							L.Haimberger	0	7.4		29.3	-999.0	era5.conv._2:33106	OSCAR
294	0-20600-0-58040	0	295	  9:1462	3	Xugou, China			0	119.35	34.75		19570301.0	19580911.0	1	0	63	NMS	47	Xinpu									[104, 105, 106, 107]							L.Haimberger	0	21.0		8.6	-999.0	era5.conv._9:1462	SCHROEDER
295	0-20000-0-57265	0	296	 2:43101	3	LAOHEKOU			0	111.73333333333332	32.43333333333333		19450201.0	19450226.0	1	0	63	NMS	47	Danjiangkou									[104, 105, 106, 107]							L.Haimberger	0	22.0		13.6	128.8	era5.conv._2:43101	OSCAR
296	0-20000-0-65472	0	297	65449	3	ACCRA			0	-0.1666666666666666	5.6		19630701.0	19640627.0	1	0	63	NMS	81	Teshie									[36, 38, 39, 85, 104, 105, 106, 107, 117]							L.Haimberger	0	7.4		1.8	67.7	era5.conv._65449	OSCAR
297	0-20000-0-40022	0	298	 6:40025	3	LATTAKIA			0	35.766666666666666	35.53333333333333		19570801.0	19580623.0	1	0	63	NMS	210	Jablah									[38, 104, 105, 106, 107]							L.Haimberger	0	3.0		22.6	50.0	era5.conv._6:40025	OSCAR
298	0-20000-0-31004	0	299	  C:4539	3	ALDAN			0	125.36666666666666	58.61666666666667		19540401.0	19540822.0	1	0	63	NMS	190	Aldan									[38, 39, 85, 104, 105, 106, 107, 117]							L.Haimberger	0	0.4		2.2	679.14	era5.conv._C:4539	OSCAR
299	0-20300-0-99015	0	300	6:108229	3	OCEAN WEATHER SHIP J			0	-20.0	52.5		19710501.0	19711021.0	1	0	63	NMS	101										[38, 85, 104, 105, 106, 107, 117]							L.Haimberger	0	13.0			-999.0	era5.conv._6:108229	IGRA2
300	0-20500-0-3150	0	301	  2:3150	3	TOPOCK			0	-114.42	34.78		19640501.0	19640525.0	1	0	63	NMS	231	Lake Havasu City									[38, 85, 104, 105, 106, 107, 117]							L.Haimberger	0	0.0		34.1	334.97520000000003	era5.conv._2:3150	WBAN
301	0-20000-0-43555	0	302	 1:43555	3	MALE			0	73.52916666666667	4.191666666666667		19661001.0	19690202.0	1	0	63	NMS	154	Male									[38, 85, 104, 105, 106, 107, 117]							L.Haimberger	0	4.0		0.4	2.73	era5.conv._1:43555	OSCAR
302	0-20000-0-82184	0	303	82184	3	PORTO DE MOZ			0	-52.23333333333333	-1.7333333333333334		19740901.0	19740901.0	1	0	63	NMS	30	Almeirim									[106, 107, 117]							L.Haimberger	0	10.5		41.8	16.0	era5.conv._82184	OSCAR
303	0-20000-0-89070	0	304	  9:2223	3	GABRIEL DE CASTILLA			0	-60.67583333333333	-62.977222222222224		19530101.0	19580626.0	1	0	63	NMS	9										[104, 105, 106, 107]							L.Haimberger	0	5.4			12.0	era5.conv._9:2223	OSCAR
304	0-20000-0-41907	0	305	41855	3	ISHWARDI			0	89.05	24.133333333333333		19691001.0	19781226.0	1	0	63	NMS	19	Ishurdi									[36, 38, 39, 85, 104, 105, 106, 107, 117]							L.Haimberger	0	3.4		5.6	14.0	era5.conv._41855	OSCAR
305	0-20000-0-72525	0	306	14852	3	YOUNGSTOWN, OH.			0	-80.66666666666667	41.266666666666666		19590101.0	19590331.0	1	0	63	NMS	231	Girard									[104, 105, 106, 107, 117]							L.Haimberger	0	1.9		11.0	361.0	era5.conv._14852	OSCAR
306	0-20000-0-27459	0	307	  C:4614	3	NIZHNIJ NOVGOROD			0	44.0	56.266666666666666		19541001.0	19550422.0	1	0	63	NMS	190	Nizhniy Novgorod									[38, 39, 85, 104, 105, 106, 107, 117]							L.Haimberger	0	0.4		6.4	157.3	era5.conv._C:4614	OSCAR
307	0-20000-0-98430	0	308	 2:41208	3	SCIENCE GARDEN			0	121.04444444444444	14.646666666666668		19450301.0	19450331.0	1	0	63	NMS	176	Manila									[104, 105, 106, 107]							L.Haimberger	0	4.0		4.4	13.0	era5.conv._2:41208	OSCAR
308	0-20000-0-38687	0	309	  C:4669	3	TURKMENABAT			0	63.6	39.083333333333336		19570201.0	19570308.0	1	0	63	NMS	220	Turkmenabat									[38, 39, 85, 104, 105, 106, 107, 117]							L.Haimberger	0	0.4		3.2	190.0	era5.conv._C:4669	OSCAR
309	0-20000-0-72310	0	310	 2:93833	3	COLUMBIA, SC.			0	-81.11666666666666	33.95		19450301.0	19450928.0	1	0	63	NMS	231	Forest Acres									[104, 105, 106, 107]							L.Haimberger	0	29.5		20.7	69.0	era5.conv._2:93833	OSCAR
310	0-20000-0-29594	0	311	29594	3	TAJSHET			0	98.0	55.95		19781201.0	19781225.0	1	0	63	NMS	190	Tayshet									[36, 38, 39, 85, 104, 105, 106, 107, 117]							L.Haimberger	0	0.0		1.8	306.8	era5.conv._29594	OSCAR
311	0-20000-0-87121	0	312	87120	3	TUCUMAN AERO			0	-65.10833333333333	-26.83722222222222		19571201.0	19720415.0	1	0	63	NMS	10	Tucuman									[36, 38, 39, 85, 104, 105, 106, 107, 117]							L.Haimberger	0	9.1		2.3	450.0	era5.conv._87120	OSCAR
312	0-20000-0-62120	0	313	 1:62120	3	GARIAT EL-SHARGHIA			0	13.585277777777778	30.390833333333333		19700201.0	19771230.0	1	0	63	NMS	135	Mizdah									[104, 105, 106, 107]							L.Haimberger	0	1.3		130.0	497.0	era5.conv._1:62120	OSCAR
313	0-20000-0-63230	0	314	63230	3	GALCAYO			0	47.266666666666666	6.85		19570901.0	19580207.0	1	0	63	NMS	205	Hobyo									[104, 105, 106, 107, 117]							L.Haimberger	0	0.4		216.3	302.0	era5.conv._63230	OSCAR
314	0-20000-0-63866	0	315	 1:63866	3	MOROGORO			0	37.65	-6.833333333333333		19730801.0	19770708.0	1	0	63	NMS	227	Morogoro									[104, 105, 106, 107]							L.Haimberger	0	0.4		2.4	526.0	era5.conv._1:63866	OSCAR
315	0-20000-0-98637	0	316	 2:41214	3	ILOILO			0	122.57944444444443	10.772777777777778		19450601.0	19450820.0	1	0	63	NMS	176	Iloilo									[104, 105, 106, 107]							L.Haimberger	0	5.9		2.6	7.010400000000001	era5.conv._2:41214	OSCAR
316	0-20600-0-89567	0	317	6:100988	3	Dovers (operated by Australia), Antarctica			0	65.87	-70.25		19730101.0	19740211.0	1	0	63	NMS	9										[104, 105, 106, 107]							L.Haimberger	0	29.5			-999.0	era5.conv._6:100988	SCHROEDER
317	0-20000-0-24125	0	318	  C:4579	3	OLENEK (24125-0)			0	112.43333333333334	68.5		19540701.0	19540921.0	1	0	63	NMS	190	Udachnyy									[38, 39, 85, 104, 105, 106, 107, 117]							L.Haimberger	0	19.4		251.3	219.54	era5.conv._C:4579	OSCAR
318	0-20000-0-03976	0	319	  1:3976	3	BELMULLET			0	-10.006944444444445	54.2275		19660601.0	19671125.0	1	0	63	NMS	101	Ballina									[104, 105, 106, 107]							L.Haimberger	0	3.1		55.2	9.73	era5.conv._1:3976	OSCAR
319	0-20000-0-61641	0	320	61642	3	DAKAR/YOFF			0	-17.5	14.73		19571001.0	19690807.0	1	0	63	NMS	204	Dakar									[104, 105, 106, 107, 117]							L.Haimberger	0	10.0		0.9	24.49	era5.conv._61642	OSCAR
320	0-20000-0-72222	0	321	 2:93828	3	PENSACOLA, FL			0	-87.18333333333334	30.48333333333333		19450601.0	19460329.0	1	0	63	NMS	231	Warrington									[104, 105, 106, 107]							L.Haimberger	0	13.1		1.8	38.0	era5.conv._2:93828	OSCAR
321	0-20000-0-06451	0	322	  1:6448	3	BRUSSELS NATIONAL (AIRPORT)			0	4.527222222222222	50.896388888888886		19500501.0	19571214.0	1	0	63	NMS	20	Machelen									[38, 85, 104, 105, 106, 107, 117]							L.Haimberger	0	9.0		3.0	54.9	era5.conv._1:6448	OSCAR
322	0-20000-0-74614	0	323	69017	3	INDIAN SPRINGS GUNNERY RANGE, NV.			0	-115.9	36.53333333333333		19780801.0	19781215.0	1	0	63	NMS	231	Pahrump									[104, 105, 106, 107, 117]							L.Haimberger	0	29.6		51.5	972.0	era5.conv._69017	OSCAR
323	0-20000-0-64550	0	324	64550	3	MOUILA			0	11.016666666666667	-1.8666666666666667		19740801.0	19740912.0	1	0	63	NMS	75	Mouila									[36, 38, 39, 85, 104, 105, 106, 107, 117]							L.Haimberger	0	4.1		4.1	89.0	era5.conv._64550	OSCAR
324	0-20500-0-3116	0	325	  2:3116	3	GROOM MINE			0	-115.7	37.33		19511101.0	19511130.0	1	0	63	NMS	231	Pahrump									[104, 105, 106, 107]							L.Haimberger	0	0.0		127.0	1599.8952000000002	era5.conv._2:3116	WBAN
325	0-20500-0-41611	0	326	 2:41611	3	WOTHO MARSHALL ISLAN			0	166.0	10.17		19580301.0	19580710.0	1	0	63	NMS	142										[104, 105, 106, 107]							L.Haimberger	0	0.0			4.2672	era5.conv._2:41611	WBAN
326	0-20500-0-41022	0	327	41022	3	PHAN RANG			0	108.95	11.62		19680301.0	19680509.0	1	0	63	NMS	239	Phan Rang									[36, 38, 39, 85, 104, 105, 106, 107, 117]							L.Haimberger	0	0.0		6.9	17.0688	era5.conv._41022	WBAN
327	0-20000-0-47840	0	328	  9:1916	3	TSUIKI AB			0	131.0402777777778	33.684999999999995		19471001.0	19471130.0	1	0	63	NMS	113	Yukuhashi									[104, 105, 106, 107]							L.Haimberger	0	7.5		0.5	19.76	era5.conv._9:1916	OSCAR
328	0-20000-0-47055	0	329	43243	3	WONSAN			0	127.43333333333334	39.18333333333333		19680701.0	19701004.0	1	0	63	NMS	120	Seoul									[36, 38, 39, 85, 104, 105, 106, 107, 117]							L.Haimberger	0	16.9		189.6	36.0	era5.conv._43243	OSCAR
329	0-20000-0-68240	0	330	 1:68244	3	SERETSE KHAMA INTERNATIONAL AIRPORT			0	25.916666666666668	-24.55		19700401.0	19720929.0	1	0	63	NMS	34	Gaborone									[104, 105, 106, 107]							L.Haimberger	0	12.2		1.5	1005.0	era5.conv._1:68244	OSCAR
330	0-20300-0-26650	0	331	3153	3	USAF-DS3-529			0	-117.833	33.7		19650501.0	19650528.0	1	0	63	NMS	231	Lake Forest									[36, 38, 39, 85, 104, 105, 106, 107, 117]							L.Haimberger	0	11.0		3.9	18.0	era5.conv._03153	IGRA2
331	0-20300-0-99015	0	332	6:100202	3	OCEAN WEATHER SHIP J			0	-20.0	52.5		19711001.0	19711030.0	1	0	63	NMS	101										[38, 85, 104, 105, 106, 107, 117]							L.Haimberger	0	17.6			-999.0	era5.conv._6:100202	IGRA2
332	0-20000-0-85406	0	333	85406	3	ARICA			0	-70.33583333333333	-18.35138888888889		19570901.0	19580212.0	1	0	63	NMS	45	Arica									[104, 105, 106, 107, 117]							L.Haimberger	0	2.5		12.6	52.0	era5.conv._85406	OSCAR
333	0-20000-0-43150	0	334	43150	3	VISHAKHAPATNAM/WALTAIR			0	83.3	17.683333333333334		19680701.0	19680712.0	1	0	63	NMS	104	Visakhapatnam									[36, 38, 39, 85, 104, 105, 106, 107, 117]							L.Haimberger	0	0.4		2.2	69.9	era5.conv._43150	OSCAR
334	0-20000-0-96751	0	335	96755	3	BOGOR/CITEKO			0	106.95083333333334	-6.7		19590301.0	19781226.0	1	0	63	NMS	100	Sukaraja									[104, 105, 106, 107, 117]							L.Haimberger	0	17.5		8.1	171.0	era5.conv._96755	OSCAR
335	0-20000-0-65467	0	336	65467	3	TAKORADI			0	-1.7666666666666666	4.883333333333333		19660501.0	19781219.0	1	0	63	NMS	81	Takoradi									[104, 105, 106, 107, 117]							L.Haimberger	0	0.8		1.2	4.6	era5.conv._65467	OSCAR
336	0-20000-0-48900	0	337	 2:41002	3	TAN SON HOA			0	106.66666666666669	10.816666666666666		19460401.0	19460630.0	1	0	63	NMS	239	Ho Chi Minh City									[104, 105, 106, 107]							L.Haimberger	0	4.1		3.3	5.0	era5.conv._2:41002	OSCAR
337	0-20000-0-43295	0	338	  9:3366	3	BANGALORE			0	77.58333333333333	12.966666666666669		19440301.0	19460602.0	1	0	63	NMS	104	Bangalore									[85, 117]							L.Haimberger	0	0.5		1.5	923.0	era5.conv._9:3366	OSCAR
338	0-20000-0-38954	0	339	  C:4684	3	KHOROG			0	71.5	37.5		19600901.0	19600921.0	1	0	63	NMS	2	Eskasem									[38, 39, 85, 104, 105, 106, 107, 117]							L.Haimberger	0	0.0		88.2	2075.0	era5.conv._C:4684	OSCAR
339	0-20000-0-65028	0	340	65028	3	KATSINA			0	7.683333333333334	13.016666666666667		19740601.0	19740630.0	1	0	63	NMS	163	Katsina									[36, 38, 39, 85, 104, 105, 106, 107, 117]							L.Haimberger	0	2.6		10.8	517.6	era5.conv._65028	OSCAR
340	0-20000-0-71853	0	341	 1:72853	3	SHILO, MAN			0	-99.64305555555556	49.782777777777774		19681101.0	19731231.0	1	0	63	NMS	37	Brandon									[38, 85, 104, 105, 106, 107, 117]							L.Haimberger	0	4.2		21.6	375.2	era5.conv._1:72853	OSCAR
341	0-20000-0-71123	0	342	 1:71123	3	EDMONTON INT'L A, ALTA			0	-113.58333333333331	53.31666666666667		19710601.0	19720929.0	1	0	63	NMS	37	Leduc									[104, 105, 106, 107]							L.Haimberger	0	0.4		6.7	723.3	era5.conv._1:71123	OSCAR
342	0-20000-0-81873	0	343	82686	3	IGUATU (81873-0)			0	-39.27027777777778	-6.396666666666667		19740901.0	19740918.0	1	0	63	NMS	30	Iguatu									[106, 107, 117]							L.Haimberger	0	3.3		3.7	234.5	era5.conv._82686	OSCAR
343	0-152-0-85484	0	344	 1:85486	3	Freirina Nicolasa			0	-71.01	-28.516944444444444		19400101.0	19410930.0	1	0	63	NMS	45	Vallenar									[38, 104, 105, 106, 107]							L.Haimberger	0	24.5		1.5	-999.0	era5.conv._1:85486	OSCAR
344	0-20600-0-94478	0	345	6:100066	3	(made up station ID) Mirikata Nuclear Test Area, South Australia, Australia			0	135.25	-29.88		19590201.0	19661213.0	1	0	63	NMS	13	Flinders									[38, 85, 117]							L.Haimberger	0	5.3		334.9	-999.0	era5.conv._6:100066	SCHROEDER
345	0-20000-0-48972	0	346	 1:48972	3	STUNG TRENG			0	105.96666666666668	13.516666666666667		19691001.0	19700127.0	1	0	63	NMS	116	Lumphat									[104, 105, 106, 107]							L.Haimberger	0	0.5		109.7	54.0	era5.conv._1:48972	OSCAR
346	0-20000-0-83362	0	347	 1:83362	3	CUIABA (AERO)			0	-56.1	-15.65		19700201.0	19721026.0	1	0	63	NMS	30	Varzea Grande									[104, 105, 106, 107]							L.Haimberger	0	0.0		3.6	187.0	era5.conv._1:83362	OSCAR
347	0-20500-0-24048	0	348	 2:24048	3	GREYBULL BIG HORN CO			0	-108.07	44.52		19620101.0	19620103.0	1	0	63	NMS	231	Sheridan									[38, 85, 104, 105, 106, 107, 117]							L.Haimberger	0	0.0		93.6	1198.7784	era5.conv._2:24048	WBAN
348	0-20300-0-99008	0	349	10842	3	OCEAN WEATHER SHIP C			0	-35.5	52.75		19710501.0	19711006.0	1	0	63	NMS	83										[36, 38, 39, 85, 104, 105, 106, 107, 117]							L.Haimberger	0	5.6			-999.0	era5.conv._10842	IGRA2
349	0-20000-0-57766	0	350	 1:57766	3	SHAOYANG			0	111.45	27.183333333333334		19591001.0	19591130.0	1	0	63	NMS	47	Shaoyang									[38, 104, 105, 106, 107]							L.Haimberger	0	10.1		34.4	310.4	era5.conv._1:57766	OSCAR
350	0-20300-0-89593	0	351	 1:89593	3	PIONERSKAVA			0	95.05	-69.73		19580301.0	19581231.0	1	0	63	NMS	9										[38, 85, 104, 105, 106, 107, 117]							L.Haimberger	0	0.0			2701.0	era5.conv._1:89593	IGRA2
351	0-20000-0-25399	0	352	  C:4753	3	MYS UELEN			0	-169.83472222222224	66.16277777777778		19440801.0	19450411.0	1	0	63	NMS	190										[38, 85, 117]							L.Haimberger	0	0.8			7.06	era5.conv._C:4753	OSCAR
352	0-20500-0-30402	0	353	 2:30402	3	AUAREH			0	44.17	8.25		19650601.0	19661201.0	1	0	63	NMS	68	Hargeysa									[38, 85, 104, 105, 106, 107, 117]							L.Haimberger	0	0.0		147.9	1106.1192	era5.conv._2:30402	WBAN
353	0-20300-0-23111	0	354	  2:3149	3	PHOENIX (LUKE FIELD)			0	-112.3667	33.55		19630801.0	19631022.0	1	0	63	NMS	231	Goodyear									[38, 85, 104, 105, 106, 107, 117]							L.Haimberger	0	13.3		1.3	333.8	era5.conv._2:3149	IGRA2
354	0-20000-0-67975	0	355	 1:67975	3	MASVINGO			0	30.866666666666667	-20.066666666666663		19700501.0	19721228.0	1	0	63	NMS	248	Masvingo									[104, 105, 106, 107]							L.Haimberger	0	1.0		3.8	1095.0	era5.conv._1:67975	OSCAR
355	0-20000-0-17248	0	356	 1:17248	3	EREGLI/KONYA			0	34.04861111111111	37.52555555555556		19750701.0	19770609.0	1	0	63	NMS	223	Eregli									[38, 85, 104, 105, 106, 107, 117]							L.Haimberger	0	3.4		2.4	1044.0	era5.conv._1:17248	OSCAR
356	0-20000-0-67485	0	357	67485	3	MZIMBA			0	33.61666666666667	-11.883333333333333		19740101.0	19740912.0	1	0	63	NMS	155	Mzimba									[104, 105, 106, 107, 117]							L.Haimberger	0	0.5		3.1	1351.0	era5.conv._67485	OSCAR
357	0-20000-0-82240	0	358	82240	3	PARINTINS (82240-0)			0	-56.73333333333333	-2.6333333333333333		19740701.0	19740706.0	1	0	63	NMS	30	Parintins									[36, 38, 39, 85, 104, 105, 106, 107, 117]							L.Haimberger	0	5.2		3.7	29.0	era5.conv._82240	OSCAR
358	0-20000-0-15150	0	359	 1:15150	3	BACAU			0	26.896666666666665	46.55777777777777		19730301.0	19771231.0	1	0	63	NMS	188	Bacau									[104, 105, 106, 107]							L.Haimberger	0	6.5		6.1	184.0	era5.conv._1:15150	OSCAR
359	0-20500-0-3136	0	360	3136	3	TEMPIUTE TM 4			0	-115.7	37.68		19570901.0	19570923.0	1	0	63	NMS	231	Pahrump									[104, 105, 106, 107, 117]							L.Haimberger	0	0.0		165.3	1477.9752	era5.conv._03136	WBAN
360	0-20000-0-62378	0	361	  C:4939	3	HELWAN			0	31.349166666666665	29.86277777777778		19400201.0	19530107.0	1	0	63	NMS	64	Cairo									[104, 105, 106, 107]							L.Haimberger	0	28.9		16.4	74.5	era5.conv._C:4939	OSCAR
361	0-20000-0-48108	0	362	  9:1747	3	DAWEI			0	98.21666666666668	14.1		19470201.0	19481231.0	1	0	63	NMS	145	Dawei									[104, 105, 106, 107]							L.Haimberger	0	2.9		0.4	17.0	era5.conv._9:1747	OSCAR
362	0-20000-0-61230	0	363	61230	3	NIORO DU SAHEL			0	-9.35	15.233333333333333		19740901.0	19740922.0	1	0	63	NMS	144	Nioro									[36, 38, 39, 85, 104, 105, 106, 107, 117]							L.Haimberger	0	6.5		20.0	237.0	era5.conv._61230	OSCAR
363	0-20000-0-67083	0	364	67085	3	ANTANANARIVO/IVATO			0	47.48333333333333	-18.8		19660601.0	19670311.0	1	0	63	NMS	141	Antananarivo									[36, 38, 39, 85, 104, 105, 106, 107, 117]							L.Haimberger	0	14.2		1.5	1276.0	era5.conv._67085	OSCAR
364	0-20000-0-71299	0	365	 1:71831	3	KAPUSKASING CDA ON, ONT			0	-82.44305555555556	49.405277777777776		19620301.0	19620915.0	1	0	63	NMS	37	Timmins									[104, 105, 106, 107]							L.Haimberger	0	3.2		129.9	226.5	era5.conv._1:71831	OSCAR
365	0-20400-0-4701	0	366	  C:4701	3	Brichmulla			0	70.13	41.58		19560501.0	19560610.0	1	0	63	NMS	233	Gazalkent									[38, 39, 85, 104, 105, 106, 107, 117]							L.Haimberger	0	0.0		30.1	-999.0	era5.conv._C:4701	CHUAN
366	0-20500-0-93912	0	367	 2:93912	3	WALNUT RIDGE MUNI AP			0	-90.92	36.13		19450101.0	19450313.0	1	0	63	NMS	231	Jonesboro									[104, 105, 106, 107]							L.Haimberger	0	0.0		37.4	84.12480000000001	era5.conv._2:93912	WBAN
367	0-20500-0-53807	0	368	10855	3	PLAINS PETERSON FIEL			0	-84.37	32.08		19710101.0	19710115.0	1	0	63	NMS	231	Americus									[36, 38, 39, 85, 104, 105, 106, 107, 117]							L.Haimberger	0	18.1		28.9	160.6296	era5.conv._10855	WBAN
368	0-20500-0-34143	0	369	 2:34143	3	SIENA MU 4			0	11.23	43.25		19441101.0	19450116.0	1	0	63	NMS	109	Siena									[104, 105, 106, 107]							L.Haimberger	0	0.0		12.2	177.08880000000002	era5.conv._2:34143	WBAN
369	0-20000-0-15335	0	370	15335	3	TULCEA			0	28.824166666666667	45.19055555555556		19731101.0	19771209.0	1	0	63	NMS	188	Tulcea									[104, 105, 106, 107, 117]							L.Haimberger	0	1.2		2.2	30.0	era5.conv._15335	OSCAR
370	0-20000-0-23330	0	371	  C:4584	3	SALEHARD			0	66.67444444444445	66.53194444444445		19540401.0	19540922.0	1	0	63	NMS	190	Salekhard									[38, 39, 85, 104, 105, 106, 107, 117]							L.Haimberger	0	6.4		3.2	16.3	era5.conv._C:4584	OSCAR
371	0-20000-0-78108	0	372	12715	3	ABRAHAM'S BAY, MAYAGUANA			0	-73.01666666666667	22.383333333333333		19570901.0	19571002.0	1	0	63	NMS	31	Port-De-Paix									[36, 38, 39, 85, 104, 105, 106, 107, 117]							L.Haimberger	0	2.0		268.7	3.0	era5.conv._12715	OSCAR
372	0-20000-0-82586	0	373	82586	3	QUIXERAMOBIM (82586-0)			0	-39.3	-5.2		19740601.0	19781228.0	1	0	63	NMS	30	Quixeramobim									[104, 105, 106, 107, 117]							L.Haimberger	0	0.0		1.8	212.0	era5.conv._82586	OSCAR
373	0-20500-0-24107	0	374	 2:24107	3	MONIDA			0	-112.32	44.57		19440501.0	19440730.0	1	0	63	NMS	231	Rexburg									[104, 105, 106, 107]							L.Haimberger	0	0.0		92.9	2068.9824000000003	era5.conv._2:24107	WBAN
374	0-20000-0-61099	0	375	61099	3	GAYA (61099-0)			0	3.45	11.883333333333333		19740601.0	19740603.0	1	0	63	NMS	161	Gaya									[104, 105, 106, 107, 117]							L.Haimberger	0	5.8		6.0	203.0	era5.conv._61099	OSCAR
375	0-20000-0-74631	0	376	 2:93043	3	White Sands Rhodes Canyon			0	-106.48916666666666	33.16277777777778		19480401.0	19480420.0	1	0	63	NMS	231	Alamogordo									[104, 105, 106, 107]							L.Haimberger	0	7.3		58.0	1235.0	era5.conv._2:93043	OSCAR
376	0-20000-0-63043	0	377	31403	3	ASSAB			0	42.71666666666667	13.066666666666666		19640801.0	19640819.0	1	0	63	NMS	66	Zabid									[36, 38, 39, 85, 104, 105, 106, 107, 117]							L.Haimberger	0	5.2		145.1	14.0	era5.conv._31403	OSCAR
377	0-20000-0-16409	0	378	 2:33125	3	PALERMO BOCCADIFALCO			0	13.311666666666667	38.11194444444445		19430901.0	19431026.0	1	0	63	NMS	109	Palermo									[104, 105, 106, 107]							L.Haimberger	0	1.2		4.1	122.0	era5.conv._2:33125	OSCAR
378	0-20000-0-48093	0	379	 2:31903	3	BAGO			0	96.48444444444443	17.33722222222222		19450501.0	19450517.0	1	0	63	NMS	145	Bago									[104, 105, 106, 107]							L.Haimberger	0	28.2		27.8	15.0	era5.conv._2:31903	OSCAR
379	0-20000-0-78700	0	380	78700	3	AMAPALA			0	-87.65	13.266666666666667		19570901.0	19580118.0	1	0	63	NMS	96	San Lorenzo									[104, 105, 106, 107, 117]							L.Haimberger	0	14.2		17.8	3.048	era5.conv._78700	OSCAR
380	0-20000-0-78397	0	381	  C:5482	3	KINGSTON/NORMAN MANLEY			0	-76.78333333333333	17.933333333333334		19400101.0	19410112.0	1	0	63	NMS	111	Half Way Tree									[104, 105, 106, 107]							L.Haimberger	0	5.5		2.2	14.0	era5.conv._C:5482	OSCAR
381	0-20000-0-47688	0	382	47688	3	TATEYAMA AB			0	139.83194444444445	34.987500000000004		19700501.0	19781227.0	1	0	63	NMS	113	Tateyama									[36, 38, 39, 85, 104, 105, 106, 107, 117]							L.Haimberger	0	0.9		3.4	6.05	era5.conv._47688	OSCAR
382	0-20500-0-3152	0	383	3152	3	MOJAVE FLT E 4			0	-115.67	35.83		19640501.0	19640529.0	1	0	63	NMS	231	Spring Valley									[36, 38, 39, 85, 104, 105, 106, 107, 117]							L.Haimberger	0	0.0		49.3	24.0792	era5.conv._03152	WBAN
383	0-20500-0-32939	0	384	 2:32939	3	BAHE			0	96.57	23.38		19450201.0	19450331.0	1	0	63	NMS	145	Mogok									[104, 105, 106, 107]							L.Haimberger	0	0.0		51.8	126.1872	era5.conv._2:32939	WBAN
384	0-20300-0-99018	0	385	6:105252	3	OCEAN WEATHER SHIP M			0	2.0	66.0		19710601.0	19711021.0	1	0	63	NMS	166										[38, 85, 104, 105, 106, 107, 117]							L.Haimberger	0	11.2			7.010400000000001	era5.conv._6:105252	IGRA2
385	0-20000-0-47787	0	386	47787	3	OZUKI AB			0	131.05222222222224	34.04694444444444		19770901.0	19781218.0	1	0	63	NMS	113	Onoda									[104, 105, 106, 107, 117]							L.Haimberger	0	0.4		13.5	6.96	era5.conv._47787	OSCAR
386	0-20000-0-78348	0	387	 2:12705	3	CAIBARIEN, VILLA CLARA			0	-79.45	22.516666666666666		19440801.0	19440831.0	1	0	63	NMS	50	Caibarien									[104, 105, 106, 107]							L.Haimberger	0	25.9		27.2	6.0	era5.conv._2:12705	OSCAR
387	0-20000-0-24959	0	388	  C:4658	3	JAKUTSK			0	129.71666666666667	62.016666666666666		19541001.0	19550422.0	1	0	63	NMS	190	Markha									[38, 39, 85, 104, 105, 106, 107, 117]							L.Haimberger	0	0.4		9.5	100.72	era5.conv._C:4658	OSCAR
388	0-20000-0-80044	0	389	80044	3	COROZAL/LAS BRUJAS			0	-75.28333333333333	9.333333333333334		19740701.0	19740830.0	1	0	63	NMS	48	Corozal									[36, 38, 39, 85, 104, 105, 106, 107, 117]							L.Haimberger	0	4.1		1.8	86.0	era5.conv._80044	OSCAR
389	0-20000-0-76903	0	390	 1:76903	3	TAPACHULA, CHIS			0	-92.29638888888888	14.887222222222222		19620301.0	19630430.0	1	0	63	NMS	156	Tapachula									[104, 105, 106, 107]							L.Haimberger	0	10.5		9.0	118.0	era5.conv._1:76903	OSCAR
390	0-20000-0-59985	0	391	59985	3	SANHU DAO			0	111.61666666666666	16.533333333333335		19781201.0	19781229.0	1	0	63	NMS	47	Wanning									[36, 38, 39, 85, 104, 105, 106, 107, 117]							L.Haimberger	0	0.5		282.8	5.0	era5.conv._59985	OSCAR
391	0-20000-0-12140	0	392	 1:12150	3	GDANSK PORT PN.			0	18.697777777777777	54.39972222222222		19670501.0	19740429.0	1	0	63	NMS	178	Gdansk									[104, 105, 106, 107]							L.Haimberger	0	6.7		4.3	138.35	era5.conv._1:12150	OSCAR
392	0-20000-0-06700	0	393	6700	3	GENEVE / COINTRIN			0	6.127777777777777	46.2475		19570901.0	19610828.0	1	0	63	NMS	42	Vernier									[104, 105, 106, 107, 117]							L.Haimberger	0	2.9		1.8	412.31	era5.conv._06700	OSCAR
393	0-20000-0-14445	0	394	 1:13333	3	SPLIT/MARJAN			0	16.42638888888889	43.50833333333333		19691101.0	19710627.0	1	0	63	NMS	97	Split									[104, 105, 106, 107]							L.Haimberger	0	1.3		2.2	128.0	era5.conv._1:13333	OSCAR
394	0-20000-0-64901	0	395	64901	3	BETARE-OYA			0	14.066666666666666	5.6		19740601.0	19740908.0	1	0	63	NMS	46	Betare Oya									[36, 38, 39, 85, 104, 105, 106, 107, 117]							L.Haimberger	0	3.7		1.8	804.0	era5.conv._64901	OSCAR
395	0-20600-0-89596	0	396	 1:89596	3	Komsomolskaya (operated by USSR), Antarctica			0	97.48	-74.08		19571101.0	19580109.0	1	0	63	NMS	9										[38, 85, 104, 105, 106, 107, 117]							L.Haimberger	0	0.0			-999.0	era5.conv._1:89596	SCHROEDER
396	0-20000-0-78365	0	397	78361	3	PUNTA LUCRECIA,  HOLGUIN			0	-75.61666666666666	21.066666666666663		19740801.0	19740821.0	1	0	63	NMS	50	Banes									[36, 38, 39, 85, 104, 105, 106, 107, 117]							L.Haimberger	0	11.4		4.6	4.0	era5.conv._78361	OSCAR
397	0-20000-0-62318	0	398	  C:5978	3	NOUZHA			0	29.94638888888889	31.18166666666667		19470101.0	19481003.0	1	0	63	NMS	64	Alexandria									[104, 105, 106, 107]							L.Haimberger	0	4.6		3.6	7.0	era5.conv._C:5978	OSCAR
398	0-20000-0-91178	0	399	 2:22529	3	KALAELOA, OAHU, HI.			0	-158.06666666666666	21.316666666666663		19420701.0	19420831.0	1	0	63	NMS	231	Makakilo City									[104, 105, 106, 107]							L.Haimberger	0	2.3		4.2	15.0	era5.conv._2:22529	OSCAR
399	0-20500-0-12820	0	400	 2:12820	3	DUNNELLON AP			0	-82.37	29.07		19431201.0	19440312.0	1	0	63	NMS	231	Ocala									[104, 105, 106, 107]							L.Haimberger	0	0.0		25.8	19.812	era5.conv._2:12820	WBAN
400	0-20000-0-65271	0	401	 1:65271	3	MAKURDI			0	8.533333333333333	7.733333333333333		19631101.0	19710918.0	1	0	63	NMS	163	Makurdi									[104, 105, 106, 107]							L.Haimberger	0	8.2		10.7	112.9	era5.conv._1:65271	OSCAR
401	0-20000-0-29594	0	402	 1:29594	3	TAJSHET			0	98.0	55.95		19760501.0	19771204.0	1	0	63	NMS	190	Tayshet									[38, 85, 104, 105, 106, 107, 117]							L.Haimberger	0	0.0		1.8	306.8	era5.conv._1:29594	OSCAR
402	0-20000-0-38836	0	403	  C:4649	3	DUSHANBE			0	68.73333333333333	38.583333333333336		19541001.0	19550422.0	1	0	63	NMS	217	Dushanbe									[38, 39, 85, 104, 105, 106, 107, 117]							L.Haimberger	0	4.1		2.3	800.0	era5.conv._C:4649	OSCAR
403	0-20000-0-58027	0	404	 1:58028	3	XUZHOU			0	117.15	34.28333333333333		19570601.0	19580618.0	1	0	63	NMS	47	Xuzhou									[38, 85, 104, 105, 106, 107, 117]							L.Haimberger	0	9.9		11.5	42.0	era5.conv._1:58028	OSCAR
404	0-20000-0-41923	0	405	 1:41920	3	DHAKA			0	90.38333333333334	23.766666666666666		19620701.0	19630131.0	1	0	63	NMS	19	Dhaka									[38, 85, 117]							L.Haimberger	0	0.5		6.0	9.0	era5.conv._1:41920	OSCAR
405	0-20500-0-31402	0	406	 2:31402	3	TENDAHO			0	41.02	11.8		19640801.0	19650322.0	1	0	63	NMS	68	Dubti									[38, 85, 104, 105, 106, 107, 117]							L.Haimberger	0	0.0		10.0	380.0856	era5.conv._2:31402	WBAN
406	0-20001-0-71925	0	407	26001	3	CAMBRIDGE BAY UA, NU			0	-105.06666666666666	69.13333333333334		19570901.0	19580212.0	1	0	63	NMS	37										[104, 105, 106, 107, 117]							L.Haimberger	0	2.4			18.69	era5.conv._26001	OSCAR
407	0-20000-0-76612	0	408	 1:76612	3	GUADALAJARA, JAL.			0	-103.3925	20.70638888888889		19630301.0	19671229.0	1	0	63	NMS	156	Zapopan									[104, 105, 106, 107]							L.Haimberger	0	3.2		4.6	1551.0	era5.conv._1:76612	OSCAR
408	0-20300-0-26650	0	409	  2:3153	3	USAF-DS3-529			0	-117.833	33.7		19650501.0	19650528.0	1	0	63	NMS	231	Lake Forest									[38, 85, 104, 105, 106, 107, 117]							L.Haimberger	0	11.0		3.9	18.0	era5.conv._2:3153	IGRA2
409	0-20000-0-63870	0	410	63870	3	ZANZIBAR/KISAUNI			0	39.21666666666667	-6.216666666666667		19740801.0	19740826.0	1	0	63	NMS	227	Zanzibar									[104, 105, 106, 107, 117]							L.Haimberger	0	2.6		4.1	15.0	era5.conv._63870	OSCAR
410	0-20000-0-36535	0	411	 1:36358	3	KOKPEKTY			0	82.36666666666666	48.75		19680101.0	19680430.0	1	0	63	NMS	124	Serebryansk									[104, 105, 106, 107]							L.Haimberger	0	29.5		96.0	512.0	era5.conv._1:36358	OSCAR
411	0-20000-0-47644	0	412	 1:47644	3	KIYOSE			0	139.5327777777778	35.7775		19500501.0	19500531.0	1	0	63	NMS	113	Niiza									[38, 104, 105, 106, 107]							L.Haimberger	0	0.9		3.1	98.4	era5.conv._1:47644	OSCAR
412	0-20000-0-41749	0	413	 1:41749	3	NAWABSHAH			0	68.36666666666666	26.25		19650901.0	19771227.0	1	0	63	NMS	177	Nawabshah									[104, 105, 106, 107]							L.Haimberger	0	0.3		4.0	38.0	era5.conv._1:41749	OSCAR
413	0-20000-0-36091	0	414	36091	3	NIZHNEUSINSKOE			0	93.01333333333334	52.25666666666667		19781201.0	19781209.0	1	0	63	NMS	190	Shagonar									[36, 38, 39, 85, 104, 105, 106, 107, 117]							L.Haimberger	0	1.7		83.1	662.14	era5.conv._36091	OSCAR
414	0-20500-0-93218	0	415	93218	3	JOLON HUNTER LIGGETT			0	-121.23	36.0		19650601.0	19670223.0	1	0	63	NMS	231	King City									[36, 38, 39, 85, 104, 105, 106, 107, 117]							L.Haimberger	0	0.0		25.4	316.992	era5.conv._93218	WBAN
415	0-20500-0-15606	0	416	15606	3	INDIAN HOUSE LAKE			0	-64.73	56.23		19570901.0	19580212.0	1	0	63	NMS	37										[104, 105, 106, 107, 117]							L.Haimberger	0	0.0			311.2008	era5.conv._15606	WBAN
416	0-20300-0-57208	0	417	57208	3	USAF-DS3-398			0	105.683	32.333		19731001.0	19740331.0	1	0	63	NMS	47	Guangyuan									[36, 38, 39, 85, 104, 105, 106, 107, 117]							L.Haimberger	0	0.4		18.3	-999.0	era5.conv._57208	IGRA2
417	0-20300-0-12824	0	418	12854	3	ORLANDO (AAB)			0	-81.3333	28.55		19570901.0	19590331.0	1	0	63	NMS	231	Sanford									[104, 105, 106, 107, 117]							L.Haimberger	0	27.4		4.8	33.8	era5.conv._12854	IGRA2
418	0-20300-0-11611	0	419	 2:11611	3	MAYAGUEZ			0	-67.1333	18.25		19421201.0	19430415.0	1	0	63	NMS	181	San Sebastian									[104, 105, 106, 107]							L.Haimberger	0	0.3		16.1	7.9	era5.conv._2:11611	IGRA2
419	0-20000-0-62700	0	420	62700	3	SHENDI			0	33.43333333333333	16.7		19740601.0	19740910.0	1	0	63	NMS	195	Khartoum									[36, 38, 39, 85, 104, 105, 106, 107, 117]							L.Haimberger	0	3.6		154.0	360.0	era5.conv._62700	OSCAR
420	0-20000-0-74509	0	421	 1:74505	3	MOUNTAIN VIEW (SUNNY-VALE)/MOFFETT NAS,  CA.			0	-122.05	37.41666666666666		19711001.0	19720628.0	1	0	63	NMS	231	San Jose									[38, 85, 104, 105, 106, 107, 117]							L.Haimberger	0	20.0		3.7	12.0	era5.conv._1:74505	OSCAR
421	0-20000-0-94998	0	422	93998	3	MACQUARIE ISLAND			0	158.93694444444444	-54.49944444444444		19661101.0	19720626.0	1	0	63	NMS	13										[36, 38, 39, 85, 104, 105, 106, 107, 117]							L.Haimberger	0	0.8			8.3	era5.conv._93998	OSCAR
422	0-20300-0-50873	0	423	  9:1404	3	CHIAMUSSU			0	130.333	46.817		19570301.0	19591105.0	1	0	63	NMS	47	Jiamusi									[104, 105, 106, 107]							L.Haimberger	0	0.4		2.1	80.0	era5.conv._9:1404	IGRA2
423	0-20000-0-87934	0	424	 1:87934	3	RIO GRANDE B.A.			0	-67.75861111111111	-53.780277777777776		19770801.0	19771231.0	1	0	63	NMS	10	Ushuaia									[38, 85, 104, 105, 106, 107, 117]							L.Haimberger	0	2.3		116.9	22.0	era5.conv._1:87934	OSCAR
424	0-20000-0-89866	0	425	87602	3	MARBLE POINT			0	163.7538888888889	-77.4388888888889		19571201.0	19580122.0	1	0	63	NMS	9										[104, 105, 106, 107, 117]							L.Haimberger	0	2.8			84.0	era5.conv._87602	OSCAR
425	0-20000-0-68054	0	426	68054	3	FRANCISTOWN			0	27.469166666666663	-21.323888888888888		19730601.0	19761027.0	1	0	63	NMS	34	Francistown									[104, 105, 106, 107, 117]							L.Haimberger	0	11.9		6.2	1009.43	era5.conv._68054	OSCAR
426	0-20500-0-80436	0	427	 2:80436	3	GAROVE ISLAND			0	149.43	-4.8		19630101.0	19630417.0	1	0	63	NMS	175	Kimbe									[38, 85, 104, 105, 106, 107, 117]							L.Haimberger	0	0.0		115.1	2.1336	era5.conv._2:80436	WBAN
427	0-20300-0-99014	0	428	6:100187	3	OCEAN WEATHER SHIP I			0	-19.0	59.0		19710601.0	19710612.0	1	0	63	NMS	108										[38, 85, 104, 105, 106, 107, 117]							L.Haimberger	0	17.2			-999.0	era5.conv._6:100187	IGRA2
428	0-20000-0-91232	0	429	 1:91232	3	SAIPAN (CG), MARIANA IS.			0	145.73333333333332	15.116666666666667		19661101.0	19690422.0	1	0	63	NMS	148										[38, 85, 104, 105, 106, 107, 117]							L.Haimberger	0	3.9			82.0	era5.conv._1:91232	OSCAR
429	0-20000-0-35188	0	430	 1:35188	3	ASTANA			0	71.39416666666668	51.17027777777778		19550101.0	19771130.0	1	0	63	NMS	124	Astana									[38, 85, 104, 105, 106, 107, 117]							L.Haimberger	0	4.8		7.0	350.0	era5.conv._1:35188	OSCAR
430	0-20000-0-47616	0	431	 1:47616	3	FUKUI			0	136.2225	36.05555555555555		19400101.0	19410625.0	1	0	63	NMS	113	Maruoka									[38, 104, 105, 106, 107]							L.Haimberger	0	0.9		11.6	17.42	era5.conv._1:47616	OSCAR
431	0-20000-0-64454	0	432	64454	3	GAMBOMA			0	15.85	-1.9		19740601.0	19740627.0	1	0	63	NMS	39	Gamboma									[104, 105, 106, 107, 117]							L.Haimberger	0	5.6		4.7	377.0	era5.conv._64454	OSCAR
432	0-20000-0-41891	0	433	41900	3	SYLHET			0	91.88333333333334	24.9		19630301.0	19781226.0	1	0	63	NMS	19	Chhatak									[104, 105, 106, 107, 117]							L.Haimberger	0	0.3		26.1	35.0	era5.conv._41900	OSCAR
433	0-20000-0-91690	0	434	91690	3	LAUTHALA BAY			0	178.45	-18.15		19690301.0	19710813.0	1	0	63	NMS	70										[36, 38, 39, 85, 104, 105, 106, 107, 117]							L.Haimberger	0	0.0			9.0	era5.conv._91690	OSCAR
434	0-20000-0-48532	0	435	 1:48532	3	RANONG			0	98.61666666666666	9.983333333333333		19720401.0	19721227.0	1	0	63	NMS	216	Ranong									[104, 105, 106, 107]							L.Haimberger	0	2.1		0.7	7.99	era5.conv._1:48532	OSCAR
435	0-20000-0-32540	0	436	 2:45501	3	PETROPAVLOVSK-KAMCHATSKIJ (32540-0)			0	158.58333333333334	53.083333333333336		19451001.0	19451215.0	1	0	63	NMS	190	Petropavlovsk-Kamchatskiy									[104, 105, 106, 107]							L.Haimberger	0	1.0		6.5	83.9	era5.conv._2:45501	OSCAR
436	0-20000-0-61698	0	437	61698	3	KOLDA			0	-14.97	12.88		19740601.0	19740618.0	1	0	63	NMS	204	Kolda									[36, 38, 39, 85, 104, 105, 106, 107, 117]							L.Haimberger	0	3.9		5.7	8.38	era5.conv._61698	OSCAR
437	0-20000-0-85577	0	438	85579	3	QUINTA NORMAL			0	-70.68277777777779	-33.44499999999999		19570901.0	19580212.0	1	0	63	NMS	45	Santiago									[104, 105, 106, 107, 117]							L.Haimberger	0	6.3		6.4	520.0	era5.conv._85579	OSCAR
438	0-20000-0-94393	0	439	10080	3	FREDERICK REEF			0	154.40194444444444	-20.9375		19720501.0	19720508.0	1	0	63	NMS	13	Yeppoon									[36, 38, 39, 85, 104, 105, 106, 107, 117]							L.Haimberger	0	4.2		450.8	12.8	era5.conv._10080	OSCAR
439	0-20000-0-97686	0	440	 1:97686	3	WAMENA			0	138.95027777777776	-4.095833333333333		19600401.0	19630331.0	1	0	63	NMS	100	Vanimo									[38, 104, 105, 106, 107]							L.Haimberger	0	2.9		300.6	1660.0	era5.conv._1:97686	OSCAR
440	0-20500-0-93911	0	441	 2:93911	3	SHAWNEE NAS			0	-96.95	35.35		19440601.0	19450531.0	1	0	63	NMS	231	Shawnee									[104, 105, 106, 107]							L.Haimberger	0	0.0		3.4	330.0984	era5.conv._2:93911	WBAN
441	0-20000-0-72393	0	442	93223	3	VANDENBERG AFB, CA. (72393-0)			0	-120.56666666666666	34.75		19700301.0	19700528.0	1	0	63	NMS	231	Lompoc									[36, 38, 39, 85, 104, 105, 106, 107, 117]							L.Haimberger	0	3.3		13.7	121.0	era5.conv._93223	OSCAR
442	0-20000-0-67403	0	443	67403	3	KAWAMBWA			0	29.08333333333333	-9.8		19740601.0	19740607.0	1	0	63	NMS	247	Kawambwa									[36, 38, 39, 85, 104, 105, 106, 107, 117]							L.Haimberger	0	1.8		2.6	1324.0	era5.conv._67403	OSCAR
