	primary_id	primary_id_scheme	record_number	secondary_id	secondary_id_scheme	station_name	station_abbreviation	alternative_name	station_crs	longitude	latitude	local_gravity	start_date	end_date	station_type	platform_type	platform_sub_type	operating_institute	operating_territory	city	contact	role	observing_frequency	reporting_time	telecommunication_method	station_automation	measuring_system_model	measuring_system_id	observed_variables	comment	optional_data	bbox_min_longitude	bbox_max_longitude	bbox_min_latitude	bbox_max_latitude	metadata_contact	metadata_contact_role	distance_km	distance_km_minusLat	city_dist_km	elevation	file	inventory
0	0-20000-0-91294	0	1	2:21502	3	SOUTH POINT, HAWAII			0	-155.66666666666666	19.0		19400305	19400305	1	0	63	NMS	231	Hilo									[106, 107]							L.Haimberger	0	9.0		109.0	290.0	era5.1759.conv.2:21502	OSCAR
1	0-20300-0-99015	0	2	6:100197	3	OCEAN WEATHER SHIP J			0	-20.0	52.5		19710521	19710521	1	0	63	NMS	101	None									[38, 85, 106, 107, 117]							L.Haimberger	0	23.2		None	-999.0	era5.1759.conv.6:100197	IGRA2
2	0-20300-0-67194	0	3	1:67194	3	FAUX-CAP			0	45.533	-25.55		19700513	19700604	1	0	63	NMS	141	Tsihombe									[106, 107]							L.Haimberger	0	6.5		33.3	22.0	era5.1759.conv.1:67194	IGRA2
3	0-20000-0-31174	0	4	1:31174	3	BOL'SHOJ SHANTAR			0	137.53333333333333	54.833333333333336		19620606	19621010	1	0	63	NMS	190	Nikolayevsk-Na-Amure									[106, 107]							L.Haimberger	0	4.3		281.1	9.0	era5.1759.conv.1:31174	OSCAR
4	0-20500-0-24048	0	5	2:24048	3	GREYBULL BIG HORN CO			0	-108.07	44.52		19620103	19620103	1	0	63	NMS	231	Sheridan									[38, 85, 106, 107, 117]							L.Haimberger	0	0.0		93.6	1198.7784	era5.1759.conv.2:24048	WBAN
5	0-20000-0-40290	0	6	1:40290	3	JERUSALEM AIRPORT			0	35.21666666666667	31.866666666666667		19611017	19611017	1	0	63	NMS	182	Jerusalem									[106, 107]							L.Haimberger	0	0.5		10.0	759.0	era5.1759.conv.1:40290	OSCAR
6	0-20300-0-99006	0	7	6:100332	3	OCEAN WEATHER SHIP A			0	-33.0	62.0		19711006	19711006	1	0	63	NMS	83	None									[38, 85, 106, 107, 117]							L.Haimberger	0	15.3		None	-999.0	era5.1759.conv.6:100332	IGRA2
7	0-20300-0-99006	0	8	6:100328	3	OCEAN WEATHER SHIP A			0	-33.0	62.0		19710712	19710712	1	0	63	NMS	83	None									[38, 85, 106, 107, 117]							L.Haimberger	0	15.3		None	-999.0	era5.1759.conv.6:100328	IGRA2
8	0-20300-0-99006	0	9	6:100331	3	OCEAN WEATHER SHIP A			0	-33.0	62.0		19711015	19711015	1	0	63	NMS	83	None									[38, 85, 106, 107, 117]							L.Haimberger	0	12.3		None	-999.0	era5.1759.conv.6:100331	IGRA2
9	0-20000-0-63043	0	10	2:31403	3	ASSAB			0	42.71666666666667	13.066666666666666		19640811	19640819	1	0	63	NMS	66	Zabid									[38, 85, 117]							L.Haimberger	0	5.2		145.1	14.0	era5.1759.conv.2:31403	OSCAR
10	0-20300-0-99010	0	11	6:101398	3	OCEAN WEATHER SHIP E			0	-48.0	35.0		19710503	19710503	1	0	63	NMS	37	None									[38, 85, 106, 107, 117]							L.Haimberger	0	0.0		None	-999.0	era5.1759.conv.6:101398	IGRA2
11	0-20300-0-99018	0	12	6:105261	3	OCEAN WEATHER SHIP M			0	2.0	66.0		19711010	19711010	1	0	63	NMS	166	None									[38, 85, 106, 107, 117]							L.Haimberger	0	18.2		None	7.010400000000001	era5.1759.conv.6:105261	IGRA2
12	0-20000-0-91178	0	13	2:22529	3	KALAELOA, OAHU, HI.			0	-158.06666666666666	21.316666666666663		19420701	19420831	1	0	63	NMS	231	Makakilo City									[106, 107]							L.Haimberger	0	2.3		4.2	15.0	era5.1759.conv.2:22529	OSCAR
13	0-20500-0-42101	0	14	2:42101	3	HENGYANG			0	112.57	26.93		19440404	19440619	1	0	63	NMS	47	Hengyang									[106, 107]							L.Haimberger	0	0.0		6.4	74.0664	era5.1759.conv.2:42101	WBAN
14	0-20000-0-36821	0	15	1:36821	3	BAKANAS			0	76.2538888888889	44.81166666666666		19671218	19680524	1	0	63	NMS	124	Ushtobe									[106, 107]							L.Haimberger	0	2.4		142.5	396.0	era5.1759.conv.1:36821	OSCAR
15	0-20000-0-87692	0	16	1:87696	3	MAR DEL PLATA AERO			0	-57.581388888888895	-37.93222222222222		19670307	19680812	1	0	63	NMS	10	Mar Del Plata									[106, 107]							L.Haimberger	0	13.4		5.3	21.0	era5.1759.conv.1:87696	OSCAR
16	0-20000-0-47127	0	17	2:43230	3	CHUNGJU			0	127.95277777777778	36.97027777777778		19510219	19510228	1	0	63	NMS	121	Seoul									[106, 107]							L.Haimberger	0	16.1		124.5	116.52	era5.1759.conv.2:43230	OSCAR
17	0-20000-0-91162	0	18	1:91162	3	BARKING SANDS (BONHAM AUX.LDNG.FLD), KAUAI HAWAII			0	-159.78333333333333	22.066666666666663		19680304	19710118	1	0	63	NMS	231	Kapaa									[38, 85, 106, 107, 117]							L.Haimberger	0	4.1		47.6	3.0	era5.1759.conv.1:91162	OSCAR
18	0-20300-0-99016	0	19	6:104655	3	OCEAN WEATHER SHIP K			0	-16.0	45.0		19711121	19711121	1	0	63	NMS	67	None									[38, 85, 106, 107, 117]							L.Haimberger	0	15.8		None	-999.0	era5.1759.conv.6:104655	IGRA2
19	0-20000-0-91650	0	20	2:81705	3	ROTUMA			0	177.05	-12.5		19651209	19651231	1	0	63	NMS	70	None									[38, 85, 106, 107, 117]							L.Haimberger	0	3.1		None	27.0	era5.1759.conv.2:81705	OSCAR
20	0-20000-0-92004	0	21	2:80434	3	WEWAK W.O.			0	143.66666666666666	-3.583333333333333		19630814	19631208	1	0	63	NMS	175	Wewak									[38, 85, 106, 107, 117]							L.Haimberger	0	10.6		5.7	4.0	era5.1759.conv.2:80434	OSCAR
21	0-20000-0-29822	0	22	1:29822	3	KAMEN'-NA-OBI			0	81.26666666666667	53.81666666666667		19661004	19710625	1	0	63	NMS	190	Kamen-Na-Obi									[38, 85, 106, 107, 117]							L.Haimberger	0	2.9		3.1	129.31	era5.1759.conv.1:29822	OSCAR
22	0-20000-0-78730	0	23	6:78730	3	PUERTO CABEZAS			0	-83.63333333333334	14.066666666666666		19711107	19711107	1	0	63	NMS	164	Puerto Cabezas									[106, 107]							L.Haimberger	0	25.5		1.8	20.0	era5.1759.conv.6:78730	OSCAR
23	0-36-9-95282	0	24	2:81407	3	Woodstock			0	146.85777777777778	-19.63361111111111		19421012	19430322	1	0	63	NMS	13	Townsville									[106, 107]							L.Haimberger	0	15.1		55.9	122.2248	era5.1759.conv.2:81407	OSCAR
24	0-20500-0-93912	0	25	2:93912	3	WALNUT RIDGE MUNI AP			0	-90.92	36.13		19450303	19450313	1	0	63	NMS	231	Jonesboro									[106, 107]							L.Haimberger	0	0.0		37.4	84.12480000000001	era5.1759.conv.2:93912	WBAN
25	0-20000-0-92003	0	26	2:80437	3	DARU W.O.			0	143.2	-9.083333333333334		19631011	19631124	1	0	63	NMS	175	Daru									[38, 85, 117]							L.Haimberger	0	3.3		3.3	9.0	era5.1759.conv.2:80437	OSCAR
26	0-20000-0-72221	0	27	2:3842	3	VALPARAISO/EGLIN AFB, FL.			0	-86.51666666666667	30.48333333333333		19490922	19491025	1	0	63	NMS	231	Niceville									[106, 107]							L.Haimberger	0	25.0		20.1	29.0	era5.1759.conv.2:3842	OSCAR
27	0-20000-0-30822	0	28	1:30822	3	BABUSKIN			0	105.85194444444444	51.708333333333336		19670922	19680618	1	0	63	NMS	190	Selenginsk									[106, 107]							L.Haimberger	0	1.8		75.6	467.6	era5.1759.conv.1:30822	OSCAR
28	0-20000-0-63402	0	29	2:30306	3	JIMMA			0	36.833333333333336	7.666666666666667		19670105	19670213	1	0	63	NMS	68	Jimma									[38, 85, 106, 107, 117]							L.Haimberger	0	0.5		0.5	1725.0	era5.1759.conv.2:30306	OSCAR
29	0-20000-0-74718	0	30	2:23164	3	SALTON SEA, CA. (AFS)			0	-115.86666666666666	33.21666666666667		19640227	19640305	1	0	63	NMS	231	Brawley									[38, 85, 106, 107, 117]							L.Haimberger	0	0.5		41.6	-68.8848	era5.1759.conv.2:23164	OSCAR
30	0-20000-0-56671	0	31	1:56671	3	HUILI			0	102.25	26.65		19790506	19791002	1	0	63	NMS	47	Panzhihua									[38, 85, 117]							L.Haimberger	0	3.3		56.2	1788.0	era5.1759.conv.1:56671	OSCAR
31	0-20001-0-04030	0	32	2:16203	3	REYKJAVIK (4030-1)			0	-21.933333333333334	64.13333333333334		19420401	19431015	1	0	63	NMS	108	Reykjavik									[106, 107]							L.Haimberger	0	0.4		2.4	61.0	era5.1759.conv.2:16203	OSCAR
32	0-20000-0-94877	0	33	2:83405	3	TOCUMWAL AIRPORT			0	145.60027777777776	-35.816944444444445		19420908	19421115	1	0	63	NMS	13	Wangaratta									[106, 107]							L.Haimberger	0	1.9		89.7	114.0	era5.1759.conv.2:83405	OSCAR
33	0-20300-0-99014	0	34	6:100189	3	OCEAN WEATHER SHIP I			0	-19.0	59.0		19710519	19710710	1	0	63	NMS	108	None									[38, 85, 106, 107, 117]							L.Haimberger	0	12.5		None	-999.0	era5.1759.conv.6:100189	IGRA2
34	0-20300-0-23111	0	35	2:3149	3	PHOENIX (LUKE FIELD)			0	-112.3667	33.55		19631022	19631022	1	0	63	NMS	231	Goodyear									[38, 85, 106, 107, 117]							L.Haimberger	0	13.3		1.3	333.8	era5.1759.conv.2:3149	IGRA2
35	0-20500-0-80311	0	36	2:80311	3	BIAK ISLAND FAW 17			0	136.38	-1.25		19441101	19441230	1	0	63	NMS	100	Biak									[106, 107]							L.Haimberger	0	0.0		32.8	3.048	era5.1759.conv.2:80311	WBAN
36	0-20500-0-81605	0	37	2:81605	3	EFATE			0	167.3	-17.53		19440101	19440728	1	0	63	NMS	240	Vila									[106, 107]							L.Haimberger	0	0.0		110.2	14.0208	era5.1759.conv.2:81605	WBAN
37	0-20300-0-99008	0	38	6:100356	3	OCEAN WEATHER SHIP C			0	-35.5	52.75		19710923	19710923	1	0	63	NMS	83	None									[38, 85, 106, 107, 117]							L.Haimberger	0	8.8		None	-999.0	era5.1759.conv.6:100356	IGRA2
38	0-20300-0-99016	0	39	6:100158	3	OCEAN WEATHER SHIP K			0	-16.0	45.0		19711006	19711006	1	0	63	NMS	67	None									[38, 85, 106, 107, 117]							L.Haimberger	0	15.8		None	-999.0	era5.1759.conv.6:100158	IGRA2
39	0-20000-0-42708	0	40	2:32802	3	SHANTI NIKETAN			0	87.7	23.65		19441023	19441030	1	0	63	NMS	104	Guskhara									[106, 107]							L.Haimberger	0	21.5		4.5	58.9	era5.1759.conv.2:32802	OSCAR
40	0-20000-0-70162	0	41	2:26537	3	UMIAT			0	-152.13333333333333	69.36666666666666		19540501	19540804	1	0	63	NMS	231	College									[106, 107]							L.Haimberger	0	0.4		536.9	117.3	era5.1759.conv.2:26537	OSCAR
41	0-20000-0-91165	0	42	2:22509	3	LIHUE, KAUAI, HAWAII			0	-159.34666666666666	21.993333333333336		19400314	19411115	1	0	63	NMS	231	Kapaa									[106, 107]							L.Haimberger	0	26.2		33.2	7.0	era5.1759.conv.2:22509	OSCAR
42	0-20000-0-59431	0	43	2:42007	3	NANNING			0	108.55	22.78333333333333		19440629	19450908	1	0	63	NMS	47	Nanning									[106, 107]							L.Haimberger	0	25.7		2.5	153.2	era5.1759.conv.2:42007	OSCAR
43	0-20000-0-91170	0	44	2:22508	3	WAHIAWA (WHEELER/SCHOFIELD), OAHU,  HAWAII			0	-158.03333333333333	21.48333333333333		19380325	19470326	1	0	63	NMS	231	Wahiawa									[106, 107]							L.Haimberger	0	1.4		2.5	5.0	era5.1759.conv.2:22508	OSCAR
44	0-20000-0-70116	0	45	2:26618	3	WALES			0	-168.05	65.61666666666666		19500815	19510809	1	0	63	NMS	231	None									[106, 107]							L.Haimberger	0	0.4		None	4.9	era5.1759.conv.2:26618	OSCAR
45	0-20000-0-72493	0	46	2:93211	3	OAKLAND/METROP. OAKLAND INT., CA.			0	-122.22361111111113	37.74444444444445		19490601	19490629	1	0	63	NMS	231	San Leandro									[106, 107]							L.Haimberger	0	2.6		4.0	19.0	era5.1759.conv.2:93211	OSCAR
46	0-20000-0-81415	0	47	1:81415	3	MARIPASOULA			0	-54.02833333333333	3.640277777777778		19660302	19711110	1	0	63	NMS	74	Kourou									[38, 85, 106, 107, 117]							L.Haimberger	0	1.2		227.4	107.0	era5.1759.conv.1:81415	OSCAR
47	0-20000-0-71716	0	48	1:71714	3	VALCARTIER A, QUE			0	-71.5	46.9		19701020	19720225	1	0	63	NMS	37	Quebec									[38, 85, 106, 107, 117]							L.Haimberger	0	13.5		11.5	60.0	era5.1759.conv.1:71714	OSCAR
48	0-20000-0-37808	0	49	1:37815	3	MARTUNI			0	45.29694444444444	40.136944444444445		19691023	19701027	1	0	63	NMS	6	Martuni									[106, 107]							L.Haimberger	0	7.8		6.7	1943.0	era5.1759.conv.1:37815	OSCAR
49	0-20000-0-71592	0	50	1:72918	3	ARCTIC BAY CS, NU			0	-85.01222222222222	72.99277777777777		19540101	19540319	1	0	63	NMS	37	None									[38, 85, 106, 107, 117]							L.Haimberger	0	9.4		None	10.0	era5.1759.conv.1:72918	OSCAR
50	0-20000-0-74732	0	51	2:93039	3	HOLLOMAN AFB, NM			0	-106.1	32.85		19480713	19480714	1	0	63	NMS	231	Alamogordo									[106, 107]							L.Haimberger	0	26.8		17.1	1258.0	era5.1759.conv.2:93039	OSCAR
51	0-20000-0-37531	0	52	1:37420	3	GORI			0	44.11388888888889	41.99722222222222		19730306	19750831	1	0	63	NMS	78	Gori									[106, 107]							L.Haimberger	0	6.6		9.1	609.4	era5.1759.conv.1:37420	OSCAR
52	0-20000-0-65271	0	53	1:65271	3	MAKURDI			0	8.533333333333333	7.733333333333333		19631122	19701229	1	0	63	NMS	163	Makurdi									[106, 107]							L.Haimberger	0	8.2		10.7	112.9	era5.1759.conv.1:65271	OSCAR
53	0-20000-0-54342	0	54	2:44201	3	SHENYANG			0	123.51666666666668	41.73333333333333		19460526	19470424	1	0	63	NMS	47	Shenyang									[106, 107]							L.Haimberger	0	13.6		4.5	49.0	era5.1759.conv.2:44201	OSCAR
54	0-20000-0-08055	0	55	1:8055	3	LEON/VIRGEN DEL CAMINO			0	-5.651111111111112	42.58833333333334		19700401	19711022	1	0	63	NMS	67	San Andres Del Rabanedo									[106, 107, 117]							L.Haimberger	0	0.9		4.5	914.0	era5.1759.conv.1:8055	OSCAR
55	0-20000-0-48024	0	56	1:48024	3	KALEMYO			0	94.06666666666666	23.2		19790331	19791228	1	0	63	NMS	145	Mawlaik									[106, 107]							L.Haimberger	0	0.3		59.7	152.0	era5.1759.conv.1:48024	OSCAR
56	0-20000-0-64705	0	57	1:64705	3	BOUSSO			0	16.716666666666665	10.483333333333333		19780603	19781031	1	0	63	NMS	213	Bousso									[106, 107]							L.Haimberger	0	0.5		0.5	336.0	era5.1759.conv.1:64705	OSCAR
57	0-20300-0-99016	0	58	6:104656	3	OCEAN WEATHER SHIP K			0	-16.0	45.0		19711021	19711021	1	0	63	NMS	67	None									[38, 85, 106, 107, 117]							L.Haimberger	0	11.1		None	-999.0	era5.1759.conv.6:104656	IGRA2
58	0-20000-0-72250	0	59	2:12915	3	BROWNSVILLE/INT., TX			0	-97.41916666666668	25.916666666666668		19290128	19291106	1	0	63	NMS	231	Matamoros									[106, 107]							L.Haimberger	0	13.7		5.0	7.8	era5.1759.conv.2:12915	OSCAR
59	0-20000-0-98550	0	60	2:41220	3	TACLOBAN			0	125.03333333333332	11.233333333333333		19450606	19451031	1	0	63	NMS	176	Tacloban									[106, 107]							L.Haimberger	0	5.4		8.3	2.1336	era5.1759.conv.2:41220	OSCAR
60	0-20000-0-47644	0	61	1:47644	3	KIYOSE			0	139.5327777777778	35.7775		19500513	19500530	1	0	63	NMS	113	Niiza									[38, 106, 107]							L.Haimberger	0	0.9		3.1	98.4	era5.1759.conv.1:47644	OSCAR
61	0-20000-0-72293	0	62	2:93115	3	SAN DIEGO/MIRAMAR,  NAS, CA.			0	-117.11666666666666	32.833333333333336		19440104	19460429	1	0	63	NMS	231	Imperial Beach									[106, 107]							L.Haimberger	0	29.2		1.7	9.0	era5.1759.conv.2:93115	OSCAR
62	0-20000-0-48877	0	63	2:41015	3	NHA TRANG			0	109.21666666666668	12.216666666666669		19680402	19690604	1	0	63	NMS	239	Cam Ranh									[38, 85, 106, 107, 117]							L.Haimberger	0	27.3		11.7	4.0	era5.1759.conv.2:41015	OSCAR
63	0-20000-0-72288	0	64	2:23150	3	BURBANK, CA			0	-118.3575	34.20055555555556		19440628	19440706	1	0	63	NMS	231	Burbank									[106, 107]							L.Haimberger	0	4.1		1.1	32.0	era5.1759.conv.2:23150	OSCAR
64	0-20300-0-99013	0	65	6:101671	3	OCEAN WEATHER SHIP H			0	-71.0	38.0		19711028	19711028	1	0	63	NMS	231	Brigantine									[38, 85, 106, 107, 117]							L.Haimberger	0	20.8		322.5	-999.0	era5.1759.conv.6:101671	IGRA2
65	0-20000-0-42123	0	66	1:42123	3	GANGANAGAR			0	73.88333333333334	29.916666666666668		19760910	19791029	1	0	63	NMS	104	Ganganagar									[38, 85, 106, 107, 117]							L.Haimberger	0	0.5		0.5	177.0	era5.1759.conv.1:42123	OSCAR
66	0-20000-0-15023	0	67	1:15023	3	SUCEAVA			0	26.24055555555556	47.632777777777775		19760210	19791231	1	0	63	NMS	188	Suceava									[106, 107]							L.Haimberger	0	2.0		1.9	350.0	era5.1759.conv.1:15023	OSCAR
67	0-20000-0-33587	0	68	1:33587	3	Uman			0	30.232777777777777	48.76694444444444		19500104	19501031	1	0	63	NMS	228	Zhashkiv									[38, 85, 106, 107, 117]							L.Haimberger	0	0.4		53.6	216.0	era5.1759.conv.1:33587	OSCAR
68	0-20000-0-76903	0	69	1:76903	3	TAPACHULA, CHIS			0	-92.29638888888888	14.887222222222222		19620305	19630430	1	0	63	NMS	156	Tapachula									[106, 107]							L.Haimberger	0	10.5		9.0	118.0	era5.1759.conv.1:76903	OSCAR
69	0-20000-0-30802	0	70	1:30802	3	MONDY			0	100.98333333333332	51.68333333333333		19630221	19641230	1	0	63	NMS	190	Slyudyanka									[106, 107]							L.Haimberger	0	10.9		194.4	1304.2	era5.1759.conv.1:30802	OSCAR
70	0-20500-0-42024	0	71	2:42024	3	LAIFENG			0	109.4	29.52		19450601	19450731	1	0	63	NMS	47	Enshi									[106, 107]							L.Haimberger	0	0.0		86.8	494.0808	era5.1759.conv.2:42024	WBAN
71	0-20000-0-80241	0	72	1:80241	3	LAS GAVIOTAS			0	-70.91666666666667	4.55		19730607	19731213	1	0	63	NMS	48	Villanueva									[38, 85, 106, 107, 117]							L.Haimberger	0	22.5		164.0	167.0	era5.1759.conv.1:80241	OSCAR
72	0-20000-0-82030	0	73	2:10507	3	AMAPA			0	-50.85	2.066666666666667		19431201	19440821	1	0	63	NMS	30	Macapa									[106, 107]							L.Haimberger	0	2.7		227.2	10.0584	era5.1759.conv.2:10507	OSCAR
73	0-20000-0-64390	0	74	1:64390	3	BUJUMBURA			0	29.316666666666663	-3.3166666666666664		19700619	19701021	1	0	63	NMS	24	Bujumbura									[106, 107]							L.Haimberger	0	2.6		10.7	783.0	era5.1759.conv.1:64390	OSCAR
74	0-20500-0-3117	0	75	2:3117	3	PONY SPRINGS			0	-114.62	38.52		19511012	19511129	1	0	63	NMS	231	Cedar City									[106, 107]							L.Haimberger	0	0.0		165.7	1815.084	era5.1759.conv.2:3117	WBAN
75	0-20500-0-26106	0	76	2:26106	3	SAWMILL BAY			0	-118.92	65.73		19480201	19480409	1	0	63	NMS	37	Yellowknife									[106, 107]							L.Haimberger	0	0.0		428.0	171.29760000000002	era5.1759.conv.2:26106	WBAN
76	0-20300-0-45703	0	77	2:45703	3	KISKA ISLAND			0	177.5667	51.9833		19440819	19451008	1	0	63	NMS	231	None									[106, 107]							L.Haimberger	0	0.4		None	22.0	era5.1759.conv.2:45703	IGRA2
77	0-20000-0-32540	0	78	2:45501	3	PETROPAVLOVSK-KAMCHATSKIJ (32540-0)			0	158.58333333333334	53.083333333333336		19451021	19451214	1	0	63	NMS	190	Petropavlovsk-Kamchatskiy									[106, 107]							L.Haimberger	0	1.0		6.5	83.9	era5.1759.conv.2:45501	OSCAR
78	0-20000-0-60715	0	79	2:33119	3	TUNIS-CARTHAGE			0	10.233333333333333	36.833333333333336		19430708	19430728	1	0	63	NMS	221	Radis									[106, 107]							L.Haimberger	0	7.0		4.2	4.0	era5.1759.conv.2:33119	OSCAR
79	0-20000-0-41685	0	80	1:41685	3	BARKHAN			0	69.71666666666667	29.883333333333333		19730813	19791207	1	0	63	NMS	177	Kohlu									[38, 85, 106, 107, 117]							L.Haimberger	0	0.5		45.2	1098.0	era5.1759.conv.1:41685	OSCAR
80	0-20000-0-91610	0	81	2:40707	3	TARAWA			0	172.91666666666666	1.35		19431212	19440530	1	0	63	NMS	117	Bairiki									[106, 107]							L.Haimberger	0	2.7		7.2	4.0	era5.1759.conv.2:40707	OSCAR
81	0-20000-0-42591	0	82	2:32805	3	GAYA (42591-0)			0	84.95	24.75		19440812	19450331	1	0	63	NMS	104	Gaya									[106, 107]							L.Haimberger	0	0.0		6.3	116.0	era5.1759.conv.2:32805	OSCAR
82	0-20001-0-72202	0	83	2:12848	3	MIAMI, FL (72202-1)			0	-80.38305555555554	25.754444444444445		19440505	19450228	1	0	63	NMS	231	Coral Gables									[106, 107]							L.Haimberger	0	15.6		4.0	5.0	era5.1759.conv.2:12848	OSCAR
83	0-20300-0-99008	0	84	6:100354	3	OCEAN WEATHER SHIP C			0	-35.5	52.75		19710417	19710417	1	0	63	NMS	83	None									[38, 85, 106, 107, 117]							L.Haimberger	0	8.8		None	-999.0	era5.1759.conv.6:100354	IGRA2
84	0-20001-0-04270	0	85	2:16413	3	MITTARFIK NARSARSUAQ (4270-1)			0	-45.41666666666666	61.16666666666666		19420701	19420830	1	0	63	NMS	83	None									[106, 107]							L.Haimberger	0	13.6		None	31.0	era5.1759.conv.2:16413	OSCAR
85	0-20500-0-11616	0	86	2:11616	3	CULEBRA NF			0	-65.28	18.32		19360120	19400221	1	0	63	NMS	181	Fajardo									[106, 107]							L.Haimberger	0	0.0		39.4	6.096	era5.1759.conv.2:11616	WBAN
86	0-20001-0-53845	0	87	2:43002	3	YAN AN (53845-1)			0	109.45	36.56666666666667		19441123	19460323	1	0	63	NMS	47	Yanan									[106, 107]							L.Haimberger	0	5.2		9.5	1181.1	era5.1759.conv.2:43002	OSCAR
87	0-504-1-60291	0	88	6:60069	3	Tarfaya			0	-12.931111111111113	27.938333333333333		19520119	19540830	1	0	63	NMS	136	Puerto Del Rosario									[38, 106, 107]							L.Haimberger	0	1.4		112.1	5.1816	era5.1759.conv.6:60069	OSCAR
88	0-20000-0-28676	0	89	1:28679	3	PETROPAVLOVSK (28676-0)			0	69.11749999999999	54.7925		19660610	19680430	1	0	63	NMS	124	Petropavl									[106, 107]							L.Haimberger	0	4.7		5.1	101.0	era5.1759.conv.1:28679	OSCAR
89	0-20000-0-63533	0	90	2:30303	3	NEGHELLE			0	39.56666666666667	5.333333333333333		19650329	19670107	1	0	63	NMS	68	Shakiso									[38, 85, 106, 107, 117]							L.Haimberger	0	13.9		99.3	1544.0	era5.1759.conv.2:30303	OSCAR
90	0-20000-0-47114	0	91	2:43222	3	WONJU			0	127.94666666666669	37.337500000000006		19510622	19520803	1	0	63	NMS	121	Seoul									[106, 107]							L.Haimberger	0	12.7		89.2	150.04	era5.1759.conv.2:43222	OSCAR
91	0-20300-0-99007	0	92	6:109565	3	OCEAN WEATHER SHIP B			0	-51.0	56.5		19710406	19710406	1	0	63	NMS	83	None									[38, 85, 106, 107, 117]							L.Haimberger	0	0.0		None	-999.0	era5.1759.conv.6:109565	IGRA2
92	0-20000-0-48402	0	93	2:41012	3	CHAI NAT AGROMET			0	100.1913888888889	15.158055555555556		19680604	19680605	1	0	63	NMS	216	Takhli									[38, 85, 106, 107, 117]							L.Haimberger	0	17.8		5.0	16.85	era5.1759.conv.2:41012	OSCAR
93	0-620-3001-08508	0	94	2:13204	3	LAJES (ACORES) (8508-0)			0	-27.08722222222222	38.76777777777777		19441101	19450731	1	0	63	NMS	183	Angra									[106, 107]							L.Haimberger	0	5.8		22.3	54.0	era5.1759.conv.2:13204	OSCAR
94	0-20600-0-67885	0	95	1:67885	3	FVGR Mutare / Umtali - Grand Reef Zimbabwe Air Force Base, Zimbabwe			0	32.45	-18.97		19700505	19720923	1	0	63	NMS	248	Mutare									[106, 107]							L.Haimberger	0	0.0		22.8	-999.0	era5.1759.conv.1:67885	SCHROEDER
95	0-20500-0-23018	0	96	2:23018	3	HOBBS AAF			0	-103.22	32.75		19441220	19450625	1	0	63	NMS	231	Hobbs									[106, 107]							L.Haimberger	0	0.0		9.5	1125.0168	era5.1759.conv.2:23018	WBAN
96	0-20000-0-95303	0	97	6:100005	3	VARANUS ISLAND			0	115.57583333333334	-20.656388888888888		19560413	19560619	1	0	63	NMS	13	Karratha									[38, 85, 117]							L.Haimberger	0	29.5		145.2	24.5	era5.1759.conv.6:100005	OSCAR
97	0-20000-0-94791	0	98	2:83504	3	COFFS HARBOUR MO			0	153.1186111111111	-30.31083333333333		19421026	19430207	1	0	63	NMS	13	Coffs Harbour									[106, 107]							L.Haimberger	0	1.5		3.1	6.0	era5.1759.conv.2:83504	OSCAR
98	0-20000-0-72384	0	99	2:23102	3	BAKERSFIELD/MEADOWS,  CA.			0	-119.05	35.43333333333333		19420623	19450620	1	0	63	NMS	231	Shafter									[106, 107]							L.Haimberger	0	13.9		4.6	150.0	era5.1759.conv.2:23102	OSCAR
99	0-20000-0-36535	0	100	1:36535	3	KOKPEKTY			0	82.36666666666666	48.75		19680120	19680429	1	0	63	NMS	124	Serebryansk									[106, 107]							L.Haimberger	0	0.2		124.4	512.0	era5.1759.conv.1:36535	OSCAR
100	0-20300-0-03138	0	101	2:3138	3	SHOSHONE			0	-116.2667	35.9667		19570717	19570923	1	0	63	NMS	231	Pahrump									[106, 107]							L.Haimberger	0	0.5		37.0	481.9	era5.1759.conv.2:3138	IGRA2
101	0-20000-0-41756	0	102	2:32602	3	JIWANI			0	61.8	25.066666666666663		19450315	19450922	1	0	63	NMS	177	Jiwani									[106, 107]							L.Haimberger	0	0.4		5.8	57.0	era5.1759.conv.2:32602	OSCAR
102	0-20000-0-48093	0	103	2:31903	3	BAGO			0	96.48444444444443	17.33722222222222		19450502	19450517	1	0	63	NMS	145	Bago									[106, 107]							L.Haimberger	0	28.2		27.8	15.0	era5.1759.conv.2:31903	OSCAR
103	0-20500-0-24106	0	104	2:24106	3	MOUNTAIN HOME AFB			0	-115.87	43.05		19450301	19450606	1	0	63	NMS	231	Mountain Home									[106, 107]							L.Haimberger	0	0.0		17.3	911.9616	era5.1759.conv.2:24106	WBAN
104	0-20000-0-97048	0	105	1:97048	3	GORONTALO/JALALUDDIN			0	122.85138888888888	0.6391666666666667		19630406	19631029	1	0	63	NMS	100	Gorontalo									[38, 106, 107]							L.Haimberger	0	27.7		2.6	2.0	era5.1759.conv.1:97048	OSCAR
105	0-20000-0-87791	0	106	1:87790	3	VIEDMA AERO			0	-63.00694444444444	-40.86333333333334		19570701	19571017	1	0	63	NMS	10	Viedma									[38, 106, 107]							L.Haimberger	0	9.5		4.0	7.0	era5.1759.conv.1:87790	OSCAR
106	0-20000-0-71822	0	107	2:4732	3	CHIBOUGAMAU-CHAPAIS A, QUE			0	-74.53333333333333	49.766666666666666		19550701	19581230	1	0	63	NMS	37	Dolbeau									[106, 107]							L.Haimberger	0	10.8		191.6	387.1	era5.1759.conv.2:4732	OSCAR
107	0-20000-0-72365	0	108	2:23004	3	ALBUQUERQUE/INT., NM.			0	-106.62194444444444	35.03777777777778		19420101	19450407	1	0	63	NMS	231	Albuquerque									[106, 107]							L.Haimberger	0	1.4		4.7	1619.0	era5.1759.conv.2:23004	OSCAR
108	0-20000-0-74389	0	109	2:14724	3	GRAY, ME.			0	-70.25722222222223	43.8925		19440104	19440203	1	0	63	NMS	231	South Portland									[106, 107]							L.Haimberger	0	26.9		1.2	19.0	era5.1759.conv.2:14724	OSCAR
109	0-20000-0-04339	0	110	2:17201	3	ITTOQQORTOORMIIT (SCORESBYSUND)			0	-21.95111111111111	70.48444444444445		19420820	19440831	1	0	63	NMS	83	Akureyri									[106, 107]							L.Haimberger	0	0.9		560.3	71.46	era5.1759.conv.2:17201	OSCAR
110	0-20000-0-72383	0	111	1:72383	3	SANDBERG, CA.			0	-118.73333333333332	34.75		19681024	19720713	1	0	63	NMS	231	Tehachapi									[38, 85, 106, 107, 117]							L.Haimberger	0	6.3		43.4	1379.0	era5.1759.conv.1:72383	OSCAR
111	0-20000-0-12566	0	112	1:12566	3	KRAKOW-BALICE			0	19.801944444444445	50.08027777777778		19670309	19721231	1	0	63	NMS	178	Cracow									[106, 107]							L.Haimberger	0	0.1		8.4	241.5	era5.1759.conv.1:12566	OSCAR
112	0-20600-0-89596	0	113	1:89596	3	Komsomolskaya (operated by USSR), Antarctica			0	97.48	-74.08		19571128	19580109	1	0	63	NMS	9	None									[38, 85, 106, 107, 117]							L.Haimberger	0	0.0		None	-999.0	era5.1759.conv.1:89596	SCHROEDER
113	0-20001-0-72662	0	114	2:24006	3	RAPID CITY WFO, SD.			0	-103.21027777777778	44.07305555555556		19510220	19510228	1	0	63	NMS	231	Rapid City									[106, 107]							L.Haimberger	0	12.3		13.0	1030.0	era5.1759.conv.2:24006	OSCAR
114	0-20000-0-07650	0	115	1:7650	3	MARIGNANE			0	5.216111111111111	43.437777777777775		19620505	19651024	1	0	63	NMS	74	Vitrolles									[106, 107]							L.Haimberger	0	1.4		2.2	32.0	era5.1759.conv.1:7650	OSCAR
115	0-20000-0-94578	0	116	2:82507	3	BRISBANE AERO			0	153.12916666666666	-27.391666666666666		19431001	19441030	1	0	63	NMS	13	Brisbane									[106, 107]							L.Haimberger	0	8.1		6.0	8.3	era5.1759.conv.2:82507	OSCAR
116	0-20300-0-99006	0	117	6:100333	3	OCEAN WEATHER SHIP A			0	-33.0	62.0		19710423	19710519	1	0	63	NMS	83	None									[38, 85, 106, 107, 117]							L.Haimberger	0	15.7		None	-999.0	era5.1759.conv.6:100333	IGRA2
117	0-20500-0-26632	0	118	2:26632	3	NORTHEAST CAPE			0	-168.93	63.32		19540812	19560823	1	0	63	NMS	231	None									[106, 107]							L.Haimberger	0	0.0		None	11.8872	era5.1759.conv.2:26632	WBAN
118	0-20000-0-71023	0	119	1:71127	3	JIMMY LAKE AWOS, SASK			0	-109.96194444444444	54.90833333333333		19700413	19700506	1	0	63	NMS	37	Grand Centre									[106, 107]							L.Haimberger	0	27.2		60.3	637.1	era5.1759.conv.1:71127	OSCAR
119	0-20000-0-94132	0	120	2:81306	3	KATHERINE COUNTRY CLUB			0	132.26194444444445	-14.473055555555556		19421202	19430326	1	0	63	NMS	13	Katherine									[106, 107]							L.Haimberger	0	2.7		1.8	106.0	era5.1759.conv.2:81306	OSCAR
120	0-20300-0-99014	0	121	6:100192	3	OCEAN WEATHER SHIP I			0	-19.0	59.0		19710923	19711006	1	0	63	NMS	108	None									[38, 85, 106, 107, 117]							L.Haimberger	0	25.1		None	-999.0	era5.1759.conv.6:100192	IGRA2
121	0-20000-0-97560	0	122	2:80310	3	BIAK/FRANS KAISIEPO			0	136.11666666666667	-1.1833333333333331		19440820	19440830	1	0	63	NMS	100	Biak									[106, 107]							L.Haimberger	0	29.1		31.8	11.0	era5.1759.conv.2:80310	OSCAR
122	0-20000-0-63023	0	123	1:63023	3	MASSAWA			0	39.45	15.616666666666667		19490203	19630725	1	0	63	NMS	66	Ginda									[38, 106, 107]							L.Haimberger	0	0.4		43.1	16.154400000000003	era5.1759.conv.1:63023	OSCAR
123	0-20500-0-42004	0	124	2:42004	3	YANGKAI			0	103.08	25.5		19440329	19451031	1	0	63	NMS	47	Kunming									[106, 107]							L.Haimberger	0	0.0		62.7	1955.292	era5.1759.conv.2:42004	WBAN
124	0-20300-0-99014	0	125	6:100187	3	OCEAN WEATHER SHIP I			0	-19.0	59.0		19710612	19710612	1	0	63	NMS	108	None									[38, 85, 106, 107, 117]							L.Haimberger	0	17.2		None	-999.0	era5.1759.conv.6:100187	IGRA2
125	0-20000-0-96751	0	126	1:96755	3	BOGOR/CITEKO			0	106.95083333333334	-6.7		19590323	19691229	1	0	63	NMS	100	Sukaraja									[38, 85, 106, 107, 117]							L.Haimberger	0	17.5		8.1	104.0	era5.1759.conv.1:96755	OSCAR
126	0-20300-0-99010	0	127	6:101348	3	OCEAN WEATHER SHIP E			0	-48.0	35.0		19711111	19711111	1	0	63	NMS	37	None									[38, 85, 106, 107, 117]							L.Haimberger	0	11.1		None	-999.0	era5.1759.conv.6:101348	IGRA2
127	0-20000-0-57766	0	128	1:57766	3	SHAOYANG			0	111.45	27.183333333333334		19591001	19591130	1	0	63	NMS	47	Shaoyang									[38, 106, 107]							L.Haimberger	0	10.1		34.4	310.4	era5.1759.conv.1:57766	OSCAR
128	0-20000-0-15350	0	129	1:15350	3	BUZAU			0	26.851666666666667	45.132777777777775		19730527	19791227	1	0	63	NMS	188	Buzau									[106, 107]							L.Haimberger	0	3.1		1.0	96.0	era5.1759.conv.1:15350	OSCAR
129	0-20700-0-35406	0	130	1:35406	3	TAIPAK (KALMYKOVO)       			0	51.86666666666667	49.05		19670101	19680714	1	0	63	NMS	124	Inderborskiy									[106, 107]							L.Haimberger	0	0.2		56.0	-999.0	era5.1759.conv.1:35406	WMO
130	0-20500-0-81410	0	131	2:81410	3	HIGGIN			0	142.48	-10.93		19441005	19450110	1	0	63	NMS	13	Daru									[106, 107]							L.Haimberger	0	0.0		219.0	14.0208	era5.1759.conv.2:81410	WBAN
131	0-20000-0-15247	0	132	1:15247	3	TIMISOARA			0	21.258055555555558	45.77111111111111		19760125	19791228	1	0	63	NMS	188	Timisoara									[106, 107]							L.Haimberger	0	0.6		2.9	87.2	era5.1759.conv.1:15247	OSCAR
132	0-20000-0-54511	0	133	2:43104	3	BEIJING			0	116.28333333333332	39.93333333333333		19451101	19460403	1	0	63	NMS	47	Peking									[106, 107]							L.Haimberger	0	11.8		2.9	32.5	era5.1759.conv.2:43104	OSCAR
133	0-20000-0-82900	0	134	2:50309	3	RECIFE (82900-0)			0	-34.916666666666664	-8.05		19440201	19440731	1	0	63	NMS	30	Recife									[106, 107]							L.Haimberger	0	7.8		8.0	7.0	era5.1759.conv.2:50309	OSCAR
134	0-20000-0-78807	0	135	2:10712	3	COROZAL OESTE			0	-79.56666666666666	8.966666666666667		19440801	19451028	1	0	63	NMS	172	Panama									[106, 107]							L.Haimberger	0	1.5		4.3	45.0	era5.1759.conv.2:10712	OSCAR
135	0-20500-0-34115	0	136	2:34115	3	SPINAZZOLA MU 10			0	16.1	40.95		19440404	19450430	1	0	63	NMS	109	Venosa									[106, 107]							L.Haimberger	0	0.0		23.9	437.0832	era5.1759.conv.2:34115	WBAN
136	0-20300-0-14723	0	137	2:14794	3	FISHERS ISLAND FORT H G WRIGHT			0	-72.0167	41.2667		19431001	19440930	1	0	63	NMS	231	Westerly									[106, 107]							L.Haimberger	0	20.4		3.8	14.6	era5.1759.conv.2:14794	IGRA2
137	0-20000-0-94857	0	138	1:94856	3	GEELONG RACECOURSE			0	144.3763888888889	-38.17361111111111		19691201	19710510	1	0	63	NMS	13	Geelong									[38, 85, 106, 107, 117]							L.Haimberger	0	8.4		7.0	13.4	era5.1759.conv.1:94856	OSCAR
138	0-20000-0-16261	0	139	2:34107	3	AMENDOLA			0	15.713888888888889	41.53805555555555		19440514	19440731	1	0	63	NMS	109	San Severo									[106, 107]							L.Haimberger	0	29.7		4.3	60.0	era5.1759.conv.2:34107	OSCAR
139	0-20000-0-04219	0	140	2:16505	3	QEQERTARSUAQ HELIPORT			0	-53.53333333333333	69.25		19420121	19421219	1	0	63	NMS	83	None									[106, 107]							L.Haimberger	0	1.3		None	2.0	era5.1759.conv.2:16505	OSCAR
140	0-20000-0-83498	0	141	2:51303	3	CARAVELAS (83498-0)			0	-39.25	-17.733333333333334		19440115	19441231	1	0	63	NMS	30	Caravelas									[106, 107]							L.Haimberger	0	7.3		9.1	4.0	era5.1759.conv.2:51303	OSCAR
141	0-20700-0-86530	0	142	1:86530	3	DURAZNO                  			0	-56.53333333333333	-33.38333333333333		19580219	19580602	1	0	63	NMS	232	Durazno									[38, 106, 107]							L.Haimberger	0	3.4		4.8	-999.0	era5.1759.conv.1:86530	WMO
142	0-20000-0-70308	0	143	2:25705	3	ST. PAUL ISLANDS, AK			0	-170.21666666666667	57.15		19440404	19451014	1	0	63	NMS	231	None									[106, 107]							L.Haimberger	0	3.9		None	9.1	era5.1759.conv.2:25705	OSCAR
143	0-20000-0-08314	0	144	1:8314	3	MENORCA/AEROPUERTO			0	4.215555555555556	39.85472222222222		19700501	19711117	1	0	63	NMS	67	Mahon									[106, 107]							L.Haimberger	0	5.0		2.3	86.0	era5.1759.conv.1:8314	OSCAR
144	0-20000-0-60720	0	145	2:33104	3	KELIBIA			0	11.083333333333334	36.85		19430527	19430527	1	0	63	NMS	221	Manzil Tamim									[106, 107]							L.Haimberger	0	10.8		1.1	30.0	era5.1759.conv.2:33104	OSCAR
145	0-20000-0-72260	0	146	1:72260	3	STEPHENVILLE/CLARK FIELD MUN., TX.			0	-98.18333333333334	32.21666666666667		19731130	19731212	1	0	63	NMS	231	Stephenville									[38, 85, 106, 107, 117]							L.Haimberger	0	0.5		2.1	399.0	era5.1759.conv.1:72260	OSCAR
146	0-20000-0-83236	0	147	1:83236	3	BARREIRAS (83236-0)			0	-45.0	-12.15		19700102	19720718	1	0	63	NMS	30	Barreiras									[106, 107]							L.Haimberger	0	0.0		1.8	439.0	era5.1759.conv.1:83236	OSCAR
147	0-20000-0-63684	0	148	1:63684	3	TORORO			0	34.166666666666664	0.6833333333333333		19630807	19770529	1	0	63	NMS	229	Tororo									[38, 106, 107]							L.Haimberger	0	0.5		1.3	1171.0	era5.1759.conv.1:63684	OSCAR
148	0-20500-0-26101	0	149	2:26101	3	FORT RESOLUTION			0	-113.68	61.17		19431001	19440217	1	0	63	NMS	37	Yellowknife									[106, 107]							L.Haimberger	0	0.0		147.0	167.0304	era5.1759.conv.2:26101	WBAN
149	0-20000-0-04330	0	150	2:17203	3	DANEBORG			0	-20.216944444444444	74.30749999999999		19441218	19460203	1	0	63	NMS	83	None									[106, 107]							L.Haimberger	0	21.5		None	15.0	era5.1759.conv.2:17203	OSCAR
150	0-20000-0-38328	0	151	1:38328	3	SHYMKENT			0	69.71000000000001	42.34777777777778		19660610	19680429	1	0	63	NMS	124	Shymkent									[106, 107]							L.Haimberger	0	10.5		0.0	604.0	era5.1759.conv.1:38328	OSCAR
151	0-20000-0-74413	0	152	1:74413	3	SAYLOR CREEK GUNNERY RANGE, ID.			0	-115.7	42.53333333333333		19700212	19710716	1	0	63	NMS	231	Mountain Home									[106, 107, 117]							L.Haimberger	0	3.7		70.3	1108.0	era5.1759.conv.1:74413	OSCAR
152	0-20000-0-15335	0	153	1:15335	3	TULCEA			0	28.824166666666667	45.19055555555556		19760520	19771114	1	0	63	NMS	188	Tulcea									[106, 107]							L.Haimberger	0	1.2		2.2	30.0	era5.1759.conv.1:15335	OSCAR
153	0-20000-0-72572	0	154	2:24116	3	SALT LAKE CITY/INTNL UT.			0	-111.95527777777778	40.77222222222222		19410909	19420729	1	0	63	NMS	231	Salt Lake City									[106, 107]							L.Haimberger	0	2.3		4.0	1289.0	era5.1759.conv.2:24116	OSCAR
154	0-20000-0-30925	0	155	1:30925	3	KJAHTA			0	106.45166666666668	50.36388888888889		19740807	19750223	1	0	63	NMS	190	Kyakhta									[38, 85, 106, 107, 117]							L.Haimberger	0	2.0		1.5	797.4	era5.1759.conv.1:30925	OSCAR
155	0-20500-0-3115	0	156	2:3115	3	CURRANT			0	-115.7	38.6		19511013	19530605	1	0	63	NMS	231	Elko									[106, 107]							L.Haimberger	0	0.0		247.9	1452.9816	era5.1759.conv.2:3115	WBAN
156	0-20000-0-47661	0	157	2:43321	3	KISARAZU AB			0	139.90972222222223	35.39833333333333		19540624	19540805	1	0	63	NMS	113	Kisarazu									[106, 107]							L.Haimberger	0	2.2		0.6	6.05	era5.1759.conv.2:43321	OSCAR
157	0-20000-0-15230	0	158	1:15230	3	DEVA			0	22.898888888888887	45.865		19730509	19791226	1	0	63	NMS	188	Deva									[106, 107]							L.Haimberger	0	1.7		0.4	231.0	era5.1759.conv.1:15230	OSCAR
158	0-20000-0-68461	0	159	1:68461	3	BETHLEHEM			0	28.334166666666665	-28.249722222222225		19791201	19791230	1	0	63	NMS	246	Bethlehem									[38, 85, 106, 107, 117]							L.Haimberger	0	0.4		3.1	1687.0	era5.1759.conv.1:68461	OSCAR
159	0-20500-0-3920	0	160	2:3920	3	LOMITA AF			0	-98.5	31.25		19520314	19520326	1	0	63	NMS	231	Copperas Cove									[106, 107]							L.Haimberger	0	0.0		58.6	412.0896	era5.1759.conv.2:3920	WBAN
160	0-20000-0-04360	0	161	2:16301	3	TASIILAQ (AMMASSALIK)			0	-37.63666666666666	65.6111111111111		19420822	19430528	1	0	63	NMS	83	None									[106, 107]							L.Haimberger	0	4.2		None	55.93	era5.1759.conv.2:16301	OSCAR
161	0-20500-0-24036	0	162	2:24010	3	LEWISTOWN FCWOS			0	-109.45	47.05		19440505	19441129	1	0	63	NMS	231	Great Falls									[106, 107]							L.Haimberger	0	0.0		148.7	1263.0912	era5.1759.conv.2:24010	WBAN
162	0-20000-0-60729	0	163	2:33105	3	ZAGHOUAN			0	10.083333333333334	36.43333333333333		19430827	19431127	1	0	63	NMS	221	Maqrin									[106, 107]							L.Haimberger	0	3.5		39.1	156.0	era5.1759.conv.2:33105	OSCAR
163	0-20000-0-91554	0	164	2:81606	3	PEKOA AIRPORT (SANTO)			0	167.21666666666667	-15.516666666666667		19430102	19440630	1	0	63	NMS	240	Luganville									[106, 107]							L.Haimberger	0	21.3		22.5	44.0	era5.1759.conv.2:81606	OSCAR
164	0-20000-0-72698	0	165	1:72698	3	PORTLAND/INT., OR.			0	-122.6	45.6		19721109	19730618	1	0	63	NMS	231	Vancouver									[38, 85, 106, 107, 117]							L.Haimberger	0	2.2		8.1	12.0	era5.1759.conv.1:72698	OSCAR
165	0-20300-0-99006	0	166	6:100329	3	OCEAN WEATHER SHIP A			0	-33.0	62.0		19710521	19711026	1	0	63	NMS	83	None									[38, 85, 106, 107, 117]							L.Haimberger	0	12.3		None	-999.0	era5.1759.conv.6:100329	IGRA2
166	0-20000-0-97686	0	167	1:97686	3	WAMENA			0	138.95027777777776	-4.095833333333333		19600409	19630331	1	0	63	NMS	100	Vanimo									[38, 106, 107]							L.Haimberger	0	2.9		300.6	1660.0	era5.1759.conv.1:97686	OSCAR
167	0-20000-0-42705	0	168	2:32816	3	PURULIA			0	86.41666666666667	23.33333333333333		19440511	19440629	1	0	63	NMS	104	Adra									[106, 107]							L.Haimberger	0	14.2		18.7	255.0	era5.1759.conv.2:32816	OSCAR
168	0-20000-0-72597	0	169	2:24209	3	MEDFORD/MEDFORD-JACKSON COUNTY, OR.			0	-122.8822222222222	42.37694444444445		19441123	19450213	1	0	63	NMS	231	Central Point									[106, 107]							L.Haimberger	0	1.1		3.8	398.9	era5.1759.conv.2:24209	OSCAR
169	0-20000-0-74494	0	170	2:14783	3	CHATHAM, MA.			0	-69.9588888888889	41.65694444444444		19431213	19440331	1	0	63	NMS	231	Yarmouth									[106, 107]							L.Haimberger	0	26.8		7.5	15.5	era5.1759.conv.2:14783	OSCAR
170	0-20300-0-12819	0	171	2:12819	3	LEESBURG (AAF)			0	-81.8	28.8		19431219	19440309	1	0	63	NMS	231	Tavares									[106, 107]							L.Haimberger	0	0.0		7.3	85.0	era5.1759.conv.2:12819	IGRA2
171	0-20000-0-72450	0	172	1:72450	3	WICHITA/MID-CONTINENT, KS.			0	-97.43333333333334	37.65		19650815	19720814	1	0	63	NMS	231	Wichita									[38, 85, 106, 107, 117]							L.Haimberger	0	6.3		5.6	409.0	era5.1759.conv.1:72450	OSCAR
172	0-20000-0-87637	0	173	1:87637	3	CORONEL SUAREZ AERO			0	-61.89083333333333	-37.45333333333333		19460104	19560502	1	0	63	NMS	10	Bahia Blanca									[38, 106, 107]							L.Haimberger	0	7.4		138.3	233.0	era5.1759.conv.1:87637	OSCAR
173	0-20500-0-81412	0	174	2:81412	3	PRINCESS CHARLOTTE B			0	144.25	-14.4		19640115	19640724	1	0	63	NMS	13	Cairns									[38, 85, 106, 107, 117]							L.Haimberger	0	0.0		323.1	262.128	era5.1759.conv.2:81412	WBAN
174	0-20000-0-16453	0	175	2:33107	3	GELA			0	14.225	37.07638888888889		19430905	19430930	1	0	63	NMS	109	Gela									[106, 107]							L.Haimberger	0	7.7		7.5	69.0	era5.1759.conv.2:33107	OSCAR
175	0-20000-0-47933	0	176	2:42205	3	FUTENMA			0	127.75638888888888	26.274444444444445		19450331	19450531	1	0	63	NMS	113	Urasoe									[106, 107]							L.Haimberger	0	10.0		9.0	78.29	era5.1759.conv.2:42205	OSCAR
176	0-20000-0-91753	0	177	2:61703	3	HIHIFO (ILE WALLIS)			0	-176.19416666666666	-13.239722222222222		19421001	19430731	1	0	63	NMS	241	Apia									[106, 107]							L.Haimberger	0	11.1		481.2	28.0	era5.1759.conv.2:61703	OSCAR
177	0-20500-0-10101	0	178	2:10101	3	FISHERMANS LAKE			0	-11.25	6.75		19430803	19450504	1	0	63	NMS	130	Robertsport									[106, 107]							L.Haimberger	0	0.0		13.1	-999.0	era5.1759.conv.2:10101	WBAN
178	0-20000-0-08140	0	179	1:8140	3	VALLADOLID/VILLANUBLA			0	-4.855555555555555	41.71194444444445		19691016	19720403	1	0	63	NMS	67	Valladolid									[106, 107]							L.Haimberger	0	1.0		12.7	846.0	era5.1759.conv.1:8140	OSCAR
179	0-20000-0-72295	0	180	2:23139	3	LOS ANGELES /INT.,  CA.			0	-118.4	33.93333333333333		19440601	19440829	1	0	63	NMS	231	Lomita									[106, 107]							L.Haimberger	0	16.1		1.7	32.0	era5.1759.conv.2:23139	OSCAR
180	0-20000-0-74500	0	181	2:23212	3	SHERIDAN, CA			0	-121.33333333333331	39.0		19440825	19440825	1	0	63	NMS	231	Olivehurst									[106, 107]							L.Haimberger	0	23.3		1.7	18.8976	era5.1759.conv.2:23212	OSCAR
181	0-20000-0-78321	0	182	2:12856	3	LA FE, ISLA DE LA JUVENTUD			0	-82.76666666666667	21.73333333333333		19430801	19440531	1	0	63	NMS	50	Nueva Gerona									[106, 107]							L.Haimberger	0	0.5		17.3	32.0	era5.1759.conv.2:12856	OSCAR
182	0-20000-0-72786	0	183	2:24104	3	SPOKANE, WA.			0	-117.62666666666668	47.68055555555555		19450302	19450324	1	0	63	NMS	231	Spokane									[106, 107]							L.Haimberger	0	10.5		8.3	721.0	era5.1759.conv.2:24104	OSCAR
183	0-20000-0-41480	0	184	6:20303	3	ADEN			0	45.03333333333333	12.833333333333334		19440123	19481229	1	0	63	NMS	243	Aden									[106, 107]							L.Haimberger	0	1.5		4.5	3.0	era5.1759.conv.6:20303	OSCAR
184	0-20000-0-30731	0	185	1:30731	3	GORJACINSK			0	108.2911111111111	52.98611111111112		19620928	19641124	1	0	63	NMS	190	Onokhoy									[106, 107]							L.Haimberger	0	11.4		108.1	491.42	era5.1759.conv.1:30731	OSCAR
185	0-20000-0-65472	0	186	1:65449	3	ACCRA			0	-0.1666666666666666	5.6		19630704	19640627	1	0	63	NMS	81	Teshie									[106, 107]							L.Haimberger	0	7.4		1.8	67.7	era5.1759.conv.1:65449	OSCAR
186	0-20000-0-78092	0	187	2:12704	3	GEORGE TOWN, EXUMA			0	-75.76666666666667	23.5		19450623	19450715	1	0	63	NMS	31	Nassau									[106, 107]							L.Haimberger	0	1.7		239.0	3.0	era5.1759.conv.2:12704	OSCAR
187	0-20000-0-47631	0	188	1:47631	3	TSURUGA			0	136.06222222222223	35.65333333333333		19380803	19410610	1	0	63	NMS	113	Tsuruga									[38, 106, 107]							L.Haimberger	0	0.8		0.3	12.4	era5.1759.conv.1:47631	OSCAR
188	0-20300-0-99010	0	189	6:101358	3	OCEAN WEATHER SHIP E			0	-48.0	35.0		19711021	19711021	1	0	63	NMS	37	None									[38, 85, 106, 107, 117]							L.Haimberger	0	0.0		None	-999.0	era5.1759.conv.6:101358	IGRA2
189	0-20000-0-91170	0	190	2:22513	3	WAHIAWA (WHEELER/SCHOFIELD), OAHU,  HAWAII			0	-158.03333333333333	21.48333333333333		19290131	19350623	1	0	63	NMS	231	Wahiawa									[106, 107]							L.Haimberger	0	2.3		0.5	5.0	era5.1759.conv.2:22513	OSCAR
190	0-20000-0-30683	0	191	1:30683	3	EROFEJ PAVLOVIC			0	121.93333333333334	53.96666666666667		19730414	19791119	1	0	63	NMS	190	Skovorodino									[38, 85, 106, 107, 117]							L.Haimberger	0	0.4		127.7	521.8	era5.1759.conv.1:30683	OSCAR
191	0-20000-0-72391	0	192	2:23136	3	POINT MUGU/NAS, CA.			0	-119.11666666666666	34.11666666666667		19440503	19441009	1	0	63	NMS	231	Camarillo									[106, 107]							L.Haimberger	0	12.2		3.1	24.4	era5.1759.conv.2:23136	OSCAR
192	0-20000-0-30703	0	193	1:30703	3	INGA (30703-0)			0	101.98333333333332	52.96666666666667		19620815	19641230	1	0	63	NMS	190	Cheremkhovo									[106, 107]							L.Haimberger	0	9.3		83.4	543.16	era5.1759.conv.1:30703	OSCAR
193	0-20300-0-99013	0	194	6:100712	3	OCEAN WEATHER SHIP H			0	-71.0	38.0		19711101	19711101	1	0	63	NMS	231	Brigantine									[38, 85, 106, 107, 117]							L.Haimberger	0	20.8		322.5	-999.0	era5.1759.conv.6:100712	IGRA2
194	0-20000-0-72393	0	195	2:93223	3	VANDENBERG AFB, CA. (72393-0)			0	-120.56666666666666	34.75		19700331	19700515	1	0	63	NMS	231	Lompoc									[38, 85, 106, 107, 117]							L.Haimberger	0	3.3		13.7	121.0	era5.1759.conv.2:93223	OSCAR
195	0-20500-0-12823	0	196	2:12823	3	MONTBROOK AAF			0	-82.47	29.35		19440123	19440310	1	0	63	NMS	231	Gainesville									[106, 107]							L.Haimberger	0	0.0		36.2	21.9456	era5.1759.conv.2:12823	WBAN
196	0-20000-0-15150	0	197	1:15150	3	BACAU			0	26.896666666666665	46.55777777777777		19730323	19791228	1	0	63	NMS	188	Bacau									[106, 107]							L.Haimberger	0	6.5		6.1	184.0	era5.1759.conv.1:15150	OSCAR
197	0-20000-0-48972	0	198	1:48972	3	STUNG TRENG			0	105.96666666666668	13.516666666666667		19691021	19700127	1	0	63	NMS	116	Lumphat									[106, 107]							L.Haimberger	0	0.5		109.7	54.0	era5.1759.conv.1:48972	OSCAR
198	0-20000-0-16168	0	199	2:34127	3	MONTE ARGENTARIO			0	11.16972222222222	42.386944444444445		19440624	19440718	1	0	63	NMS	109	Orbetello									[106, 107]							L.Haimberger	0	9.5		4.9	631.3	era5.1759.conv.2:34127	OSCAR
199	0-20000-0-72214	0	200	2:13808	3	TALLAHASSEE/MUN.,  FL.			0	-84.29944444444445	30.44611111111111		19420512	19441101	1	0	63	NMS	231	Tallahassee									[106, 107]							L.Haimberger	0	3.4		4.8	52.8	era5.1759.conv.2:13808	OSCAR
200	0-20000-0-36535	0	201	1:36358	3	KOKPEKTY			0	82.36666666666666	48.75		19680105	19680430	1	0	63	NMS	124	Serebryansk									[106, 107]							L.Haimberger	0	29.5		96.0	512.0	era5.1759.conv.1:36358	OSCAR
201	0-20300-0-99016	0	202	6:100159	3	OCEAN WEATHER SHIP K			0	-16.0	45.0		19710519	19711015	1	0	63	NMS	67	None									[38, 85, 106, 107, 117]							L.Haimberger	0	23.6		None	-999.0	era5.1759.conv.6:100159	IGRA2
202	0-20000-0-67037	0	203	1:67037	3	BESALAMPY			0	44.48333333333333	-16.75		19670704	19710823	1	0	63	NMS	141	Mahajanga									[106, 107]							L.Haimberger	0	5.8		222.6	36.0	era5.1759.conv.1:67037	OSCAR
203	0-20300-0-72497	0	204	1:72497	3	CHICO MUNI			0	-121.85	39.7833		19691009	19720307	1	0	63	NMS	231	Chico									[38, 85, 106, 107, 117]							L.Haimberger	0	1.9		8.0	25.0	era5.1759.conv.1:72497	IGRA2
204	0-20000-0-92044	0	205	2:80432	3	MOMOTE W.O.			0	147.41666666666666	-2.05		19470401	19471204	1	0	63	NMS	175	Kavieng									[106, 107]							L.Haimberger	0	1.5		379.2	4.0	era5.1759.conv.2:80432	OSCAR
205	0-20300-0-99014	0	206	6:100194	3	OCEAN WEATHER SHIP I			0	-19.0	59.0		19710529	19710731	1	0	63	NMS	108	None									[38, 85, 106, 107, 117]							L.Haimberger	0	25.5		None	-999.0	era5.1759.conv.6:100194	IGRA2
206	0-20500-0-40305	0	207	2:40305	3	PELELIU ISLAND PALAU			0	134.25	7.0		19450317	19470531	1	0	63	NMS	184	Koror									[106, 107]							L.Haimberger	0	0.0		45.0	5.1816	era5.1759.conv.2:40305	WBAN
207	0-20500-0-12809	0	208	2:12809	3	BARTOW MUNICIPAL ARP			0	-81.78	27.95		19440415	19450301	1	0	63	NMS	231	Bartow									[106, 107]							L.Haimberger	0	0.0		8.6	39.9288	era5.1759.conv.2:12809	WBAN
208	0-20000-0-68104	0	209	1:68100	3	WALVIS BAY (PELICAN POINT)			0	14.433333333333334	-22.883333333333333		19570812	19581221	1	0	63	NMS	159	Swakopmund									[38, 85, 106, 107, 117]							L.Haimberger	0	24.2		1.4	7.0	era5.1759.conv.1:68100	OSCAR
209	0-20300-0-99015	0	210	6:100202	3	OCEAN WEATHER SHIP J			0	-20.0	52.5		19711030	19711030	1	0	63	NMS	101	None									[38, 85, 106, 107, 117]							L.Haimberger	0	17.6		None	-999.0	era5.1759.conv.6:100202	IGRA2
210	0-20000-0-78970	0	211	2:11617	3	PIARCO INT. AIRPORT,  TRINIDAD			0	-61.35	10.616666666666667		19430401	19431031	1	0	63	NMS	224	Chaguanas									[106, 107]							L.Haimberger	0	14.0		2.6	15.0	era5.1759.conv.2:11617	OSCAR
211	0-20000-0-47679	0	212	2:43304	3	ATSUGI NAS			0	139.45	35.45472222222222		19450906	19460828	1	0	63	NMS	113	Ayase									[106, 107]							L.Haimberger	0	2.7		5.7	65.48	era5.1759.conv.2:43304	OSCAR
212	0-20500-0-24107	0	213	2:24107	3	MONIDA			0	-112.32	44.57		19440503	19440730	1	0	63	NMS	231	Rexburg									[106, 107]							L.Haimberger	0	0.0		92.9	2068.9824000000003	era5.1759.conv.2:24107	WBAN
213	0-20000-0-67131	0	214	1:67131	3	MOROMBE			0	43.36666666666667	-21.75		19721209	19791230	1	0	63	NMS	141	Ankazoabo									[106, 107]							L.Haimberger	0	0.3		133.2	4.0	era5.1759.conv.1:67131	OSCAR
214	0-20000-0-71421	0	215	2:15603	3	LAC EON, QUE			0	-63.28333333333333	51.86722222222223		19431129	19480824	1	0	63	NMS	37	Sept-Iles									[106, 107]							L.Haimberger	0	28.1		305.4	588.9	era5.1759.conv.2:15603	OSCAR
215	0-20000-0-91184	0	216	2:22503	3	WAIMANALO, OAHU			0	-157.71666666666667	21.33333333333333		19420619	19430630	1	0	63	NMS	231	Kailua									[106, 107]							L.Haimberger	0	0.5		8.2	5.0	era5.1759.conv.2:22503	OSCAR
216	0-20000-0-48053	0	217	2:32953	3	MEIKTILA			0	95.83333333333331	20.83333333333333		19450323	19450425	1	0	63	NMS	145	Meiktila									[106, 107]							L.Haimberger	0	7.1		2.0	220.0	era5.1759.conv.2:32953	OSCAR
217	0-20000-0-63500	0	218	2:30304	3	ARBA MINCH			0	37.63333333333333	6.083333333333333		19651015	19670114	1	0	63	NMS	68	Gidole									[38, 85, 106, 107, 117]							L.Haimberger	0	5.2		60.6	1290.0	era5.1759.conv.2:30304	OSCAR
218	0-20300-0-23213	0	219	2:23213	3	SANTA ROSA (AAF)			0	-122.8	38.5167		19430807	19450309	1	0	63	NMS	231	Windsor									[106, 107]							L.Haimberger	0	0.4		5.3	35.4	era5.1759.conv.2:23213	IGRA2
219	0-20500-0-10808	0	220	2:10808	3	COCLE DEL NORTE			0	-80.57	9.08		19450408	19450425	1	0	63	NMS	172	Puerto Escondido									[106, 107]							L.Haimberger	0	0.0		54.4	-999.0	era5.1759.conv.2:10808	WBAN
220	0-20000-0-41256	0	221	1:40462	3	MUSCAT INT'L AIRPORT			0	58.26138888888889	23.608611111111117		19780623	19791229	1	0	63	NMS	171	Ruwi									[106, 107]							L.Haimberger	0	3.7		27.6	8.4	era5.1759.conv.1:40462	OSCAR
221	0-20000-0-72288	0	222	2:23116	3	BURBANK, CA			0	-118.3575	34.20055555555556		19440925	19450216	1	0	63	NMS	231	Burbank									[106, 107]							L.Haimberger	0	7.7		3.5	32.0	era5.1759.conv.2:23116	OSCAR
222	0-20500-0-3127	0	223	2:3127	3	NEEDLES AF			0	-114.62	34.77		19550208	19550512	1	0	63	NMS	231	Lake Havasu City									[106, 107]							L.Haimberger	0	0.0		41.9	228.9048	era5.1759.conv.2:3127	WBAN
223	0-20000-0-16459	0	224	2:33108	3	CATANIA SIGONELLA			0	14.91861111111111	37.40555555555555		19430822	19430916	1	0	63	NMS	109	Lentini									[106, 107]							L.Haimberger	0	10.9		7.6	29.3	era5.1759.conv.2:33108	OSCAR
224	0-20000-0-15014	0	225	1:15014	3	BAIA MARE			0	23.473333333333333	47.66083333333333		19760204	19791123	1	0	63	NMS	188	Baia Mare									[106, 107]							L.Haimberger	0	8.1		0.4	187.4	era5.1759.conv.1:15014	OSCAR
225	0-20500-0-31402	0	226	2:31402	3	TENDAHO			0	41.02	11.8		19640828	19650310	1	0	63	NMS	68	Dubti									[38, 85, 106, 107, 117]							L.Haimberger	0	0.0		10.0	380.0856	era5.1759.conv.2:31402	WBAN
226	0-20000-0-72220	0	227	2:12827	3	APALACHICOLA/MUN.,  FL.			0	-85.03333333333333	29.73333333333333		19450106	19450820	1	0	63	NMS	231	Callaway									[106, 107]							L.Haimberger	0	0.5		70.1	6.0	era5.1759.conv.2:12827	OSCAR
227	0-20000-0-72257	0	228	2:13951	3	FORT HOOD, TX. (ARMY)			0	-97.33333333333331	31.1		19450502	19450531	1	0	63	NMS	231	Temple									[106, 107]							L.Haimberger	0	10.0		9.4	282.0	era5.1759.conv.2:13951	OSCAR
228	0-20500-0-41610	0	229	2:41610	3	RONGELAP MARSHALL IS			0	166.85	11.15		19580317	19580710	1	0	63	NMS	142	None									[106, 107]							L.Haimberger	0	0.0		None	2.1336	era5.1759.conv.2:41610	WBAN
229	0-20000-0-07577	0	230	1:7577	3	MONTELIMAR			0	4.733055555555556	44.58111111111111		19691018	19720806	1	0	63	NMS	74	Montelimar									[106, 107]							L.Haimberger	0	0.3		2.9	74.0	era5.1759.conv.1:7577	OSCAR
230	0-20000-0-72391	0	231	2:93110	3	POINT MUGU/NAS, CA.			0	-119.11666666666666	34.11666666666667		19450801	19450927	1	0	63	NMS	231	Oxnard									[106, 107]							L.Haimberger	0	12.0		2.2	4.0	era5.1759.conv.2:93110	OSCAR
231	0-20000-0-47573	0	232	2:43318	3	NIIGATA AIRPORT			0	139.11166666666665	37.95583333333334		19520501	19541116	1	0	63	NMS	113	Kameda									[106, 107]							L.Haimberger	0	1.0		9.3	4.41	era5.1759.conv.2:43318	OSCAR
232	0-20300-0-99015	0	233	6:100201	3	OCEAN WEATHER SHIP J			0	-20.0	52.5		19710519	19711102	1	0	63	NMS	101	None									[38, 85, 106, 107, 117]							L.Haimberger	0	13.0		None	-999.0	era5.1759.conv.6:100201	IGRA2
233	0-20000-0-71401	0	234	2:94115	3	WARFIELD RCS			0	-117.7388888888889	49.11194444444445		19550703	19581223	1	0	63	NMS	37	Penticton									[106, 107]							L.Haimberger	0	13.9		127.0	566.9	era5.1759.conv.2:94115	OSCAR
234	0-20000-0-67975	0	235	1:67975	3	MASVINGO			0	30.866666666666667	-20.066666666666663		19700910	19721228	1	0	63	NMS	248	Masvingo									[106, 107]							L.Haimberger	0	1.0		3.8	1095.0	era5.1759.conv.1:67975	OSCAR
235	0-20500-0-30305	0	236	2:30305	3	MAJI			0	35.67	5.75		19660108	19670213	1	0	63	NMS	68	Bako									[38, 85, 106, 107, 117]							L.Haimberger	0	0.0		99.4	747.0648	era5.1759.conv.2:30305	WBAN
236	0-20500-0-80419	0	237	2:80419	3	TSILI TSILI			0	146.35	-6.87		19430818	19430924	1	0	63	NMS	175	Bulolo									[106, 107]							L.Haimberger	0	0.0		49.3	150.2664	era5.1759.conv.2:80419	WBAN
237	0-20500-0-32924	0	238	2:32924	3	TINGKAWK SAKAN			0	96.72	26.07		19440617	19450204	1	0	63	NMS	145	Myitkyina									[106, 107]							L.Haimberger	0	0.0		102.2	246.2784	era5.1759.conv.2:32924	WBAN
238	0-20000-0-07482	0	239	2:34021	3	AMBERIEU			0	5.329444444444444	45.97638888888889		19440911	19440920	1	0	63	NMS	74	Amberieu-En-Bugey									[106, 107]							L.Haimberger	0	0.7		1.6	252.0	era5.1759.conv.2:34021	OSCAR
239	0-20500-0-80415	0	240	2:80415	3	CAPE GLOUCESTER AAF			0	148.42	-5.47		19440223	19441031	1	0	63	NMS	175	Kimbe									[106, 107]							L.Haimberger	0	0.0		191.9	30.1752	era5.1759.conv.2:80415	WBAN
240	0-20000-0-72797	0	241	2:24252	3	QUILLAYUTE, WA.			0	-124.56027777777776	47.93388888888889		19440511	19450831	1	0	63	NMS	231	Port Angeles									[106, 107]							L.Haimberger	0	2.9		84.2	57.4	era5.1759.conv.2:24252	OSCAR
241	0-20000-0-29605	0	242	1:29605	3	TATARSK			0	76.01888888888888	55.22444444444445		19660405	19670320	1	0	63	NMS	190	Tatarsk									[106, 107]							L.Haimberger	0	4.1		2.3	112.14	era5.1759.conv.1:29605	OSCAR
242	0-20700-0-36428	0	243	1:36421	3	ULKEN NARYN              			0	84.0	49.0		19660603	19680430	1	0	63	NMS	124	Zyryanovsk									[106, 107]							L.Haimberger	0	22.2		63.1	-999.0	era5.1759.conv.1:36421	WMO
243	0-20000-0-91643	0	244	2:80702	3	FUNAFUTI (91643-0)			0	179.21666666666667	-8.516666666666667		19430721	19431017	1	0	63	NMS	225	None									[106, 107]							L.Haimberger	0	0.5		None	2.0	era5.1759.conv.2:80702	OSCAR
244	0-20000-0-72310	0	245	2:93833	3	COLUMBIA, SC.			0	-81.11666666666666	33.95		19450302	19450928	1	0	63	NMS	231	Forest Acres									[106, 107]							L.Haimberger	0	29.5		20.7	69.0	era5.1759.conv.2:93833	OSCAR
245	0-20300-0-37409	0	246	1:37409	3	SAKARA			0	43.033	42.133		19691101	19791217	1	0	63	NMS	78	Tkibuli									[106, 107]							L.Haimberger	0	0.4		24.0	148.0	era5.1759.conv.1:37409	IGRA2
246	0-20000-0-41739	0	247	1:41739	3	PANJGUR			0	64.1	26.966666666666665		19640607	19790621	1	0	63	NMS	177	Turbat									[38, 85, 106, 107, 117]							L.Haimberger	0	3.7		150.3	981.0	era5.1759.conv.1:41739	OSCAR
247	0-20000-0-76405	0	248	1:76405	3	LA PAZ, BCS			0	-110.32055555555556	24.128888888888888		19660502	19721025	1	0	63	NMS	156	La Paz									[106, 107]							L.Haimberger	0	5.0		0.4	18.0	era5.1759.conv.1:76405	OSCAR
248	0-20000-0-41923	0	249	1:41920	3	DHAKA			0	90.38333333333334	23.766666666666666		19620701	19630131	1	0	63	NMS	19	Dhaka									[38, 85, 117]							L.Haimberger	0	0.5		6.0	9.0	era5.1759.conv.1:41920	OSCAR
249	0-20000-0-63658	0	250	1:63658	3	SOROTI			0	33.61666666666667	1.7166666666666668		19780816	19781130	1	0	63	NMS	229	Soroti									[106, 107]							L.Haimberger	0	0.5		3.8	1123.0	era5.1759.conv.1:63658	OSCAR
250	0-20000-0-91557	0	251	2:81608	3	BAUERFIELD (EFATE)			0	168.3	-17.7		19420601	19420630	1	0	63	NMS	240	Vila									[106, 107]							L.Haimberger	0	3.9		0.5	21.0	era5.1759.conv.2:81608	OSCAR
251	0-20000-0-72681	0	252	2:24102	3	BOISE/MUN., ID.			0	-116.21138888888888	43.56722222222223		19441009	19450212	1	0	63	NMS	231	Garden City									[106, 107]							L.Haimberger	0	7.0		3.1	873.4	era5.1759.conv.2:24102	OSCAR
252	0-20300-0-89593	0	253	1:89593	3	PIONERSKAVA			0	95.05	-69.73		19580313	19581231	1	0	63	NMS	9	None									[38, 85, 106, 107, 117]							L.Haimberger	0	0.0		None	2701.0	era5.1759.conv.1:89593	IGRA2
253	0-20300-0-23177	0	254	2:23177	3	MODENA			0	-113.9	37.8		19480101	19480718	1	0	63	NMS	231	Cedar City									[106, 107]							L.Haimberger	0	0.0		75.2	1666.0	era5.1759.conv.2:23177	IGRA2
254	0-20500-0-11708	0	255	2:11708	3	NAVASSA ISLAND			0	-75.02	18.48		19440326	19440430	1	0	63	NMS	98	Jeremie									[106, 107]							L.Haimberger	0	0.0		100.0	20.1168	era5.1759.conv.2:11708	WBAN
255	0-20000-0-74531	0	256	1:74531	3	AIR FORCE ACADEMY,  CO.			0	-104.81666666666666	38.96666666666667		19690222	19691001	1	0	63	NMS	231	Black Forest									[38, 85, 106, 107, 117]							L.Haimberger	0	0.5		11.4	1881.0	era5.1759.conv.1:74531	OSCAR
256	0-20000-0-36397	0	257	1:36403	3	ZHALGYZTOBE			0	81.21666666666667	49.21666666666667		19670101	19680430	1	0	63	NMS	124	Oskemen									[106, 107]							L.Haimberger	0	13.5		123.1	455.0	era5.1759.conv.1:36403	OSCAR
257	0-20000-0-07607	0	258	1:7607	3	MONT-DE-MARSAN			0	-0.5002777777777778	43.90972222222222		19691119	19720911	1	0	63	NMS	74	Mont-De-Marsan									[106, 107]							L.Haimberger	0	1.1		3.4	59.0	era5.1759.conv.1:7607	OSCAR
258	0-20000-0-60507	0	259	2:33025	3	MASCARA-GHRISS			0	0.15	35.35		19430521	19430616	1	0	63	NMS	61	Wahran									[106, 107]							L.Haimberger	0	4.3		77.2	513.0	era5.1759.conv.2:33025	OSCAR
259	0-20000-0-60360	0	260	2:33034	3	ANNABA			0	7.816666666666666	36.833333333333336		19450701	19450701	1	0	63	NMS	61	Tabarqah									[106, 107]							L.Haimberger	0	1.5		86.5	8.0	era5.1759.conv.2:33034	OSCAR
260	0-20500-0-93126	0	261	2:93126	3	AUSTIN #2			0	-117.08	39.5		19570501	19570716	1	0	63	NMS	231	Elko									[106, 107]							L.Haimberger	0	0.0		185.7	2029.968	era5.1759.conv.2:93126	WBAN
261	0-20500-0-32941	0	262	2:32941	3	SINTHE			0	94.63	21.4		19450215	19450331	1	0	63	NMS	145	Pakokku									[106, 107]							L.Haimberger	0	0.0		49.3	125.2728	era5.1759.conv.2:32941	WBAN
262	0-20000-0-32509	0	263	1:32509	3	SEMYACHIK			0	159.98333333333332	54.11666666666667		19650903	19671227	1	0	63	NMS	190	Yelizovo									[106, 107]							L.Haimberger	0	4.6		143.7	27.0	era5.1759.conv.1:32509	OSCAR
263	0-20000-0-91789	0	264	2:62702	3	NUKU'ALOFA			0	-175.18333333333334	-21.133333333333333		19420612	19421231	1	0	63	NMS	222	None									[106, 107]							L.Haimberger	0	0.5		None	41.0	era5.1759.conv.2:62702	OSCAR
264	0-20300-0-99025	0	265	6:100320	3	OCEAN WEATHER SHIP T			0	135.0	29.0		19720803	19720803	1	0	63	NMS	113	Nichinan									[38, 85, 106, 107, 117]							L.Haimberger	0	14.8		438.4	-999.0	era5.1759.conv.6:100320	IGRA2
265	0-20500-0-26610	0	266	2:26610	3	AKULURAK			0	-164.42	62.5		19440201	19440829	1	0	63	NMS	231	None									[106, 107]							L.Haimberger	0	0.0		None	9.144	era5.1759.conv.2:26610	WBAN
266	0-20000-0-91601	0	267	2:40712	3	BUTARITARI			0	172.78333333333333	3.033333333333333		19650406	19650413	1	0	63	NMS	117	Bairiki									[38, 85, 117]							L.Haimberger	0	5.5		195.4	1.0	era5.1759.conv.2:40712	OSCAR
267	0-20500-0-53807	0	268	6:108550	3	PLAINS PETERSON FIEL			0	-84.37	32.08		19710115	19710115	1	0	63	NMS	231	Americus									[38, 85]							L.Haimberger	0	18.1		28.9	160.6296	era5.1759.conv.6:108550	WBAN
268	0-20000-0-71087	0	269	2:26104	3	FORT PROVIDENCE, NWT			0	-117.60194444444444	61.316944444444445		19430920	19431220	1	0	63	NMS	37	Yellowknife									[106, 107]							L.Haimberger	0	3.9		214.6	161.5	era5.1759.conv.2:26104	OSCAR
269	0-20000-0-30157	0	270	1:30157	3	MAMA			0	112.86666666666666	58.31666666666667		19620815	19621122	1	0	63	NMS	190	Bodaybo									[106, 107]							L.Haimberger	0	4.3		96.3	224.12	era5.1759.conv.1:30157	OSCAR
270	0-20300-0-45703	0	271	2:45710	3	KISKA ISLAND			0	177.5667	51.9833		19431203	19440718	1	0	63	NMS	231	None									[106, 107]							L.Haimberger	0	2.9		None	22.0	era5.1759.conv.2:45710	IGRA2
271	0-20000-0-94995	0	272	1:93995	3	LORD HOWE ISLAND AERO			0	159.07861111111112	-31.542222222222225		19490101	19550814	1	0	63	NMS	13	None									[106, 107]							L.Haimberger	0	2.5		None	4.0	era5.1759.conv.1:93995	OSCAR
272	0-20000-0-91568	0	273	1:91568	3	ANEITYUM			0	169.76666666666668	-20.23333333333333		19700705	19710523	1	0	63	NMS	240	We									[106, 107]							L.Haimberger	0	3.9		273.3	7.0	era5.1759.conv.1:91568	OSCAR
273	0-20300-0-72257	0	274	2:3902	3	FT HOOD AAF/KILLEEN			0	-97.717	31.1		19501025	19511128	1	0	63	NMS	231	Copperas Cove									[106, 107]							L.Haimberger	0	10.4		9.9	282.0	era5.1759.conv.2:3902	IGRA2
274	0-20000-0-48431	0	275	2:41019	3	NAKHON RATCHASIMA			0	102.08583333333333	14.968055555555557		19680430	19680502	1	0	63	NMS	216	Nakhon Ratchasima									[38, 85, 106, 107, 117]							L.Haimberger	0	3.8		3.7	187.02	era5.1759.conv.2:41019	OSCAR
275	0-20000-0-74790	0	276	1:74790	3	SHAW AFB, SC.			0	-80.48333333333333	33.96666666666667		19700212	19721229	1	0	63	NMS	231	Sumter									[106, 107]							L.Haimberger	0	0.5		13.9	68.0	era5.1759.conv.1:74790	OSCAR
276	0-20000-0-97560	0	277	2:80303	3	BIAK/FRANS KAISIEPO			0	136.11666666666667	-1.1833333333333331		19440622	19441105	1	0	63	NMS	100	Biak									[106, 107]							L.Haimberger	0	10.6		13.5	11.0	era5.1759.conv.2:80303	OSCAR
277	0-20000-0-30603	0	278	1:30603	3	ZIMA			0	102.05	53.93333333333333		19620815	19640904	1	0	63	NMS	190	Zima									[106, 107]							L.Haimberger	0	5.0		3.4	458.07	era5.1759.conv.1:30603	OSCAR
278	0-20000-0-07061	0	279	1:7061	3	SAINT-QUENTIN			0	3.206111111111112	49.818333333333335		19700506	19720624	1	0	63	NMS	74	Saint-Quentin									[106, 107]							L.Haimberger	0	0.5		7.1	98.0	era5.1759.conv.1:7061	OSCAR
279	0-20000-0-16324	0	280	2:34121	3	GROTTAGLIE			0	17.399722222222223	40.51722222222222		19430927	19431014	1	0	63	NMS	109	Grottaglie									[106, 107]							L.Haimberger	0	2.9		0.5	69.0	era5.1759.conv.2:34121	OSCAR
280	0-20000-0-59278	0	281	1:59278	3	GAOYAO			0	112.46666666666668	23.05		19710102	19791115	1	0	63	NMS	47	Zhaoqing									[38, 85, 106, 107, 117]							L.Haimberger	0	0.3		1.1	41.9	era5.1759.conv.1:59278	OSCAR
281	0-20000-0-12580	0	282	1:12580	3	RZESZOW-JASIONKA			0	22.02	50.11138888888889		19691020	19741117	1	0	63	NMS	178	Rzeszow									[38, 85, 106, 107, 117]							L.Haimberger	0	5.9		7.7	212.56	era5.1759.conv.1:12580	OSCAR
282	0-20500-0-93124	0	283	2:93124	3	SANTA BARBARA MCAS			0	-119.85	34.43		19430901	19451031	1	0	63	NMS	231	Isla Vista									[106, 107]							L.Haimberger	0	0.0		2.1	3.9624	era5.1759.conv.2:93124	WBAN
283	0-20000-0-91212	0	284	2:41411	3	WEATHER FORECAST OFFICE, GUAM, MARIANA IS.			0	144.79444444444445	13.476666666666668		19441214	19450731	1	0	63	NMS	91	None									[106, 107]							L.Haimberger	0	18.5		None	75.3	era5.1759.conv.2:41411	OSCAR
284	0-20000-0-61520	0	285	2:51004	3	BASSIKOUNOU			0	-5.933333333333334	15.866666666666667		19430518	19450912	1	0	63	NMS	150	Niono									[106, 107]							L.Haimberger	0	23.6		187.2	-999.0	era5.1759.conv.2:51004	OSCAR
285	0-20500-0-80706	0	286	2:80706	3	NONOUTI			0	174.27	-0.93		19650510	19650528	1	0	63	NMS	117	Bairiki									[38, 85, 117]							L.Haimberger	0	0.0		287.7	15.24	era5.1759.conv.2:80706	WBAN
286	0-20500-0-13823	0	287	2:13823	3	GRENADA AAF			0	-89.8	33.83		19431005	19440518	1	0	63	NMS	231	Grenada									[106, 107]							L.Haimberger	0	0.0		1.5	63.0936	era5.1759.conv.2:13823	WBAN
287	0-20000-0-47930	0	288	2:42206	3	NAHA AIRPORT			0	127.64583333333334	26.195833333333333		19520915	19530212	1	0	63	NMS	113	Tomigusuku									[106, 107]							L.Haimberger	0	0.6		3.0	6.36	era5.1759.conv.2:42206	OSCAR
288	0-20000-0-62781	0	289	1:62781	3	EN NAHUD			0	28.433333333333334	12.7		19660204	19760410	1	0	63	NMS	195	Abu Zabad									[106, 107]							L.Haimberger	0	0.4		97.2	564.0	era5.1759.conv.1:62781	OSCAR
289	0-20500-0-34155	0	290	2:34155	3	FANO MU 5+11			0	13.03	43.83		19450420	19450731	1	0	63	NMS	109	Fano									[106, 107]							L.Haimberger	0	0.0		1.1	-999.0	era5.1759.conv.2:34155	WBAN
290	0-20300-0-74505	0	291	2:93224	3	SAN JOSE/EMSU			0	-121.8667	37.3167		19700528	19700528	1	0	63	NMS	231	Morgan Hill									[38, 85, 106, 107, 117]							L.Haimberger	0	19.9		11.1	31.0	era5.1759.conv.2:93224	IGRA2
291	0-20300-0-67017	0	292	1:67017	3	VOHEMAR			0	50.0	-13.367		19691215	19791225	1	0	63	NMS	141	Sambava									[106, 107]							L.Haimberger	0	0.3		101.9	5.0	era5.1759.conv.1:67017	IGRA2
292	0-20000-0-67781	0	293	1:67781	3	MUTOKO			0	32.21666666666667	-17.416666666666668		19710712	19710712	1	0	63	NMS	248	Mutoko									[106, 107]							L.Haimberger	0	1.0		1.3	1244.0	era5.1759.conv.1:67781	OSCAR
293	0-20000-0-94266	0	294	2:81411	3	NORMANTON AIRPORT			0	141.07333333333332	-17.68722222222222		19640219	19640423	1	0	63	NMS	13	Mount Isa									[38, 85, 106, 107, 117]							L.Haimberger	0	7.0		374.3	18.9	era5.1759.conv.2:81411	OSCAR
294	0-20000-0-72712	0	295	2:14623	3	CARIBOU/MUN., ME.			0	-68.01361111111112	46.86833333333333		19510220	19520326	1	0	63	NMS	231	Edmundston									[106, 107]							L.Haimberger	0	13.6		57.7	191.0	era5.1759.conv.2:14623	OSCAR
295	0-20500-0-12812	0	296	2:12812	3	PUNTA GORDA CHARLOTT			0	-81.98	26.92		19440307	19450131	1	0	63	NMS	231	Punta Gorda									[106, 107]							L.Haimberger	0	0.0		6.6	8.8392	era5.1759.conv.2:12812	WBAN
296	0-20000-0-47580	0	297	1:47515	3	MISAWA AB			0	141.37194444444447	40.70527777777778		19700602	19791115	1	0	63	NMS	113	Hachinohe									[106, 107]							L.Haimberger	0	19.1		5.3	49.33	era5.1759.conv.1:47515	OSCAR
297	0-20300-0-99006	0	298	6:102022	3	OCEAN WEATHER SHIP A			0	-33.0	62.0		19710513	19710517	1	0	63	NMS	83	None									[38, 85, 106, 107, 117]							L.Haimberger	0	22.9		None	-999.0	era5.1759.conv.6:102022	IGRA2
298	0-20500-0-13950	0	299	2:13950	3	BROWNWOOD AAF			0	-98.95	31.78		19440901	19520409	1	0	63	NMS	231	Brownwood									[106, 107]							L.Haimberger	0	0.0		8.8	422.148	era5.1759.conv.2:13950	WBAN
299	0-20000-0-08202	0	300	1:8202	3	SALAMANCA/MATACAN			0	-5.498333333333333	40.95944444444445		19680116	19691029	1	0	63	NMS	67	Santa Marta De Tormes									[38, 85, 106, 107, 117]							L.Haimberger	0	4.0		13.4	794.0	era5.1759.conv.1:8202	OSCAR
300	0-20000-0-03214	0	301	1:3213	3	WALNEY ISLAND			0	-3.2580555555555555	54.125		19750218	19791210	1	0	63	NMS	76	Whitehaven									[38, 85, 106, 107, 117]							L.Haimberger	0	23.6		28.7	15.0	era5.1759.conv.1:3213	OSCAR
301	0-20000-0-10658	0	302	2:35107	3	BAD KISSINGEN			0	10.079166666666666	50.22416666666667		19471001	19471028	1	0	63	NMS	56	Schweinfurt									[106, 107]							L.Haimberger	0	20.4		4.5	281.4	era5.1759.conv.2:35107	OSCAR
302	0-20000-0-31736	0	303	2:44301	3	HABAROVSK (31736-0)			0	135.23333333333332	48.53333333333333		19450914	19451031	1	0	63	NMS	190	Khabarovsk									[106, 107]							L.Haimberger	0	19.2		28.6	76.0	era5.1759.conv.2:44301	OSCAR
303	0-20300-0-99018	0	304	6:100022	3	OCEAN WEATHER SHIP M			0	2.0	66.0		19710415	19710725	1	0	63	NMS	166	Molde									[38, 85, 106, 107, 117]							L.Haimberger	0	9.1		454.5	7.010400000000001	era5.1759.conv.6:100022	IGRA2
304	0-20000-0-42314	0	305	2:32906	3	DIBRUGARH /MOHANBARI			0	95.01666666666668	27.48333333333333		19441020	19450907	1	0	63	NMS	104	Dibrugarh									[106, 107]							L.Haimberger	0	0.5		11.6	111.0	era5.1759.conv.2:32906	OSCAR
305	0-20000-0-38599	0	306	1:38599	3	KHUDJANT			0	69.73333333333333	40.21666666666667		19730205	19780207	1	0	63	NMS	217	Gafurov									[38, 85, 106, 107]							L.Haimberger	0	0.5		2.1	427.0	era5.1759.conv.1:38599	OSCAR
306	0-20000-0-37914	0	307	1:37914	3	IMISHLY			0	48.05	39.86666666666667		19691017	19710728	1	0	63	NMS	16	Imisli									[106, 107]							L.Haimberger	0	5.7		15.3	-1.0	era5.1759.conv.1:37914	OSCAR
307	0-20000-0-59046	0	308	2:42003	3	LIUZHOU			0	109.46666666666668	24.366666666666667		19440505	19470624	1	0	63	NMS	47	Liuzhou									[106, 107]							L.Haimberger	0	21.3		12.2	307.2	era5.1759.conv.2:42003	OSCAR
308	0-20000-0-07292	0	309	2:34020	3	LUXEUIL			0	6.363888888888889	47.78694444444445		19440922	19440925	1	0	63	NMS	74	Vesoul									[106, 107]							L.Haimberger	0	23.6		2.2	274.0	era5.1759.conv.2:34020	OSCAR
309	0-20300-0-99006	0	310	6:102023	3	OCEAN WEATHER SHIP A			0	-33.0	62.0		19710503	19711021	1	0	63	NMS	83	None									[38, 85, 106, 107, 117]							L.Haimberger	0	28.4		None	-999.0	era5.1759.conv.6:102023	IGRA2
310	0-20001-0-57516	0	311	2:42016	3	CHONGQING (57516-1)			0	106.4	29.6		19441125	19460125	1	0	63	NMS	47	Chongqing									[106, 107]							L.Haimberger	0	11.5		19.0	260.0	era5.1759.conv.2:42016	OSCAR
311	0-20000-2-29842	0	312	1:29843	3	Novokuznetsk			0	87.10166666666666	53.89527777777778		19550102	19561230	1	0	63	NMS	190	Novokuznetsk									[106, 107, 117]							L.Haimberger	0	16.3		8.1	215.0	era5.1759.conv.1:29843	OSCAR
312	0-20000-0-76243	0	313	2:22002	3	PIEDRAS NEGRAS, COAH.			0	-100.54888888888888	28.683888888888887		19430621	19450429	1	0	63	NMS	156	Eagle Pass									[106, 107]							L.Haimberger	0	20.8		18.0	250.0	era5.1759.conv.2:22002	OSCAR
313	0-20000-0-91557	0	314	2:81604	3	BAUERFIELD (EFATE)			0	168.3	-17.7		19450102	19450831	1	0	63	NMS	240	Vila									[106, 107]							L.Haimberger	0	2.2		6.2	21.0	era5.1759.conv.2:81604	OSCAR
314	0-504-1-60291	0	315	2:12102	3	Tarfaya			0	-12.931111111111113	27.938333333333333		19450829	19451010	1	0	63	NMS	136	Puerto Del Rosario									[106, 107]							L.Haimberger	0	6.8		105.7	5.1816	era5.1759.conv.2:12102	OSCAR
315	0-20000-0-48001	0	316	2:32903	3	PUTAO			0	97.41666666666669	27.33333333333333		19440409	19440716	1	0	63	NMS	145	Tezu									[106, 107]							L.Haimberger	0	7.6		134.5	433.5	era5.1759.conv.2:32903	OSCAR
316	0-20000-0-40001	0	317	1:40001	3	KAMISHLI			0	41.21666666666667	37.05		19700531	19790820	1	0	63	NMS	210	Nusaybin									[38, 85, 106, 107, 117]							L.Haimberger	0	0.3		3.1	455.0	era5.1759.conv.1:40001	OSCAR
317	0-20500-0-10801	0	318	2:10801	3	SIXAOLA			0	-82.65	9.52		19431026	19440604	1	0	63	NMS	49	Changuinola									[106, 107]							L.Haimberger	0	0.0		17.5	10.0584	era5.1759.conv.2:10801	WBAN
318	0-20000-0-91354	0	319	2:40610	3	UJELANG,  CAROLINE IS.			0	160.98333333333332	9.766666666666667		19641006	19641129	1	0	63	NMS	142	None									[38, 85, 106, 107, 117]							L.Haimberger	0	0.5		None	3.0	era5.1759.conv.2:40610	OSCAR
319	0-20000-0-72393	0	320	2:23243	3	VANDENBERG AFB, CA. (72393-0)			0	-120.56666666666666	34.75		19430701	19450131	1	0	63	NMS	231	Lompoc									[106, 107]							L.Haimberger	0	14.2		1.7	121.0	era5.1759.conv.2:23243	OSCAR
320	0-20000-0-15145	0	321	1:15145	3	TARGU-MURES			0	24.5225	46.528055555555554		19760125	19791226	1	0	63	NMS	188	Targu-Mures									[106, 107]							L.Haimberger	0	0.6		3.6	311.2	era5.1759.conv.1:15145	OSCAR
321	0-20700-0-63013	0	322	1:63013	3	AGORDAT                  			0	37.88333333333333	15.55		19490203	19570825	1	0	63	NMS	66	Barentu									[38, 106, 107]							L.Haimberger	0	0.4		57.3	-999.0	era5.1759.conv.1:63013	WMO
322	0-20300-0-99014	0	323	6:108299	3	OCEAN WEATHER SHIP I			0	-19.0	59.0		19710607	19710730	1	0	63	NMS	108	Kopavogur									[38, 85, 106, 107, 117]							L.Haimberger	0	12.5		575.4	-999.0	era5.1759.conv.6:108299	IGRA2
323	0-20000-0-94238	0	324	1:94240	3	TENNANT CREEK AIRPORT			0	134.18333333333334	-19.642222222222223		19700212	19700517	1	0	63	NMS	13	Alice Springs									[85, 106, 107]							L.Haimberger	0	1.4		451.4	377.1	era5.1759.conv.1:94240	OSCAR
324	0-20000-0-12295	0	325	1:12295	3	BIALYSTOK			0	23.172222222222224	53.10833333333333		19731007	19740808	1	0	63	NMS	178	Bialystok									[106, 107]							L.Haimberger	0	0.9		3.9	150.09	era5.1759.conv.1:12295	OSCAR
325	0-20300-0-99015	0	326	6:108229	3	OCEAN WEATHER SHIP J			0	-20.0	52.5		19710517	19711021	1	0	63	NMS	101	None									[38, 85, 106, 107, 117]							L.Haimberger	0	13.0		None	-999.0	era5.1759.conv.6:108229	IGRA2
326	0-20000-0-57922	0	327	2:42023	3	DUSHAN			0	107.55	25.83333333333333		19450731	19450821	1	0	63	NMS	47	Xiaoweizhai									[106, 107]							L.Haimberger	0	20.1		46.5	1015.5	era5.1759.conv.2:42023	OSCAR
327	0-20000-0-47938	0	328	2:42203	3	IEJIMA (US BASE)			0	127.78333333333332	26.716666666666665		19450516	19590827	1	0	63	NMS	113	Nago									[106, 107]							L.Haimberger	0	5.0		28.8	7.1	era5.1759.conv.2:42203	OSCAR
328	0-20000-0-16470	0	329	2:33118	3	PANTELLERIA			0	11.971111111111112	36.81388888888888		19430817	19430817	1	0	63	NMS	109	Manzil Tamim									[106, 107]							L.Haimberger	0	2.4		85.9	198.0	era5.1759.conv.2:33118	OSCAR
329	0-20300-0-94775	0	330	2:14782	3	POINT JUDITH			0	-71.4833	41.3667		19430804	19470429	1	0	63	NMS	231	Westerly									[106, 107]							L.Haimberger	0	16.1		14.2	9.1	era5.1759.conv.2:14782	IGRA2
330	0-20000-0-91246	0	331	2:41602	3	WAKE ISLAND WQ, WAKE ISLAND AIRFIELD ARPT			0	166.64194444444445	19.28		19460701	19480518	1	0	63	NMS	230	None									[106, 107]							L.Haimberger	0	3.2		None	5.0	era5.1759.conv.2:41602	OSCAR
331	0-20000-0-47840	0	332	2:43317	3	TSUIKI AB			0	131.0402777777778	33.684999999999995		19510111	19530407	1	0	63	NMS	113	Yukuhashi									[106, 107]							L.Haimberger	0	1.9		8.3	19.76	era5.1759.conv.2:43317	OSCAR
332	0-20000-0-64911	0	333	1:64911	3	NKONGSAMBA			0	9.933333333333334	4.95		19760430	19791008	1	0	63	NMS	46	Nkongsamba									[38, 85, 106, 107, 117]							L.Haimberger	0	0.4		0.5	821.0	era5.1759.conv.1:64911	OSCAR
333	0-20000-0-16289	0	334	2:34120	3	NAPOLI/CAPODICHINO			0	14.290833333333332	40.88444444444444		19440113	19440120	1	0	63	NMS	109	Ottaviano									[106, 107]							L.Haimberger	0	15.2		2.2	72.0	era5.1759.conv.2:34120	OSCAR
334	0-20500-0-32902	0	335	2:32902	3	SOOKERATING			0	95.57	27.57		19440221	19450924	1	0	63	NMS	104	Dum Duma									[106, 107]							L.Haimberger	0	0.0		0.5	130.1496	era5.1759.conv.2:32902	WBAN
335	0-20000-0-72788	0	336	2:24115	3	WALLA WALLA, WA			0	-118.33333333333331	46.03333333333333		19420713	19441013	1	0	63	NMS	231	Walla Walla									[106, 107]							L.Haimberger	0	8.5		6.2	349.91040000000004	era5.1759.conv.2:24115	OSCAR
336	0-20500-0-24204	0	337	2:24204	3	MADRAS AAF			0	-121.17	44.67		19440514	19440514	1	0	63	NMS	231	Redmond									[106, 107]							L.Haimberger	0	0.0		44.1	744.0168	era5.1759.conv.2:24204	WBAN
337	0-20300-0-99019	0	338	6:109300	3	OCEAN WEATHER SHIP N			0	-140.0	30.0		19710107	19710107	1	0	63	NMS	231	None									[38, 85, 106, 107, 117]							L.Haimberger	0	0.0		None	-999.0	era5.1759.conv.6:109300	IGRA2
338	0-20000-0-72221	0	339	2:3844	3	VALPARAISO/EGLIN AFB, FL.			0	-86.51666666666667	30.48333333333333		19490908	19491026	1	0	63	NMS	231	Crestview									[106, 107]							L.Haimberger	0	18.5		13.0	29.0	era5.1759.conv.2:3844	OSCAR
339	0-20500-0-23299	0	340	6:110111	3	TRACY			0	-121.53	37.77		19720620	19720623	1	0	63	NMS	231	Brentwood									[38, 85, 106, 107, 117]							L.Haimberger	0	22.1		1.3	20.1168	era5.1759.conv.6:110111	WBAN
340	0-20000-0-72434	0	341	6:110013	3	ST.LOUIS/LAMBERT,  ST.LOUIS INT., MO.			0	-90.36666666666666	38.75		19701006	19710514	1	0	63	NMS	231	Hazelwood									[38, 85, 106, 107, 117]							L.Haimberger	0	1.2		2.5	172.0	era5.1759.conv.6:110013	OSCAR
341	0-20600-0-30954	0	342	1:30954	3	Duldurga, Russia			0	113.58	50.68		19740924	19791222	1	0	63	NMS	190	Aginskoye									[38, 85, 106, 107, 117]							L.Haimberger	0	0.0		81.7	-999.0	era5.1759.conv.1:30954	SCHROEDER
342	0-20000-0-74486	0	343	2:14795	3	NEW YORK/JOHN F. KENNEDY INT., NY.			0	-73.78333333333333	40.65		19200713	19210729	1	0	63	NMS	231	Woodmere									[106, 107]							L.Haimberger	0	9.3		7.6	7.0	era5.1759.conv.2:14795	OSCAR
343	0-20000-0-91690	0	344	1:91690	3	LAUTHALA BAY			0	178.45	-18.15		19690309	19701101	1	0	63	NMS	70	None									[38, 85, 106, 107, 117]							L.Haimberger	0	0.0		None	9.0	era5.1759.conv.1:91690	OSCAR
344	0-20000-0-17064	0	345	2:34201	3	ISTANBUL BOLGE (KARTAL)			0	29.15583333333333	40.91138888888889		19450601	19460228	1	0	63	NMS	223	Istanbul									[106, 107]							L.Haimberger	0	24.9		9.6	33.0	era5.1759.conv.2:34201	OSCAR
345	0-20600-0-51701	0	346	1:51701	3	Saik'olot'ema, China			0	75.38	40.45		19730103	19760119	1	0	63	NMS	47	At-Bashi									[38, 85, 106, 107, 117]							L.Haimberger	0	0.0		87.8	-999.0	era5.1759.conv.1:51701	SCHROEDER
346	0-20000-0-54511	0	347	2:44101	3	BEIJING			0	116.28333333333332	39.93333333333333		19470101	19470328	1	0	63	NMS	47	Peking									[106, 107]							L.Haimberger	0	19.9		12.4	32.5	era5.1759.conv.2:44101	OSCAR
347	0-20500-0-13735	0	348	2:13709	3	MILLVILLE MUNI AP			0	-75.07	39.37		19440111	19450926	1	0	63	NMS	231	Millville									[106, 107]							L.Haimberger	0	0.0		4.4	21.9456	era5.1759.conv.2:13709	WBAN
348	0-20000-0-74756	0	349	2:12816	3	GAINSVILLE, FL GAINSVILLE RGNL ARPT			0	-82.27194444444444	29.69		19431217	19441014	1	0	63	NMS	231	Gainesville									[106, 107]							L.Haimberger	0	1.1		7.6	46.0	era5.1759.conv.2:12816	OSCAR
349	0-20000-0-96145	0	350	1:96145	3	TAREMPA			0	106.21972222222225	3.2150000000000003		19570711	19570711	1	0	63	NMS	100	Mersing									[38, 106, 107]							L.Haimberger	0	3.8		281.1	3.0	era5.1759.conv.1:96145	OSCAR
350	0-20500-0-33121	0	351	2:33121	3	EL DJEM			0	10.67	35.33		19430817	19430817	1	0	63	NMS	221	Jammal									[106, 107]							L.Haimberger	0	0.0		33.4	-999.0	era5.1759.conv.2:33121	WBAN
351	0-20300-0-24163	0	352	2:94140	3	PASCO			0	-119.1167	46.2667		19491203	19491205	1	0	63	NMS	231	Richland									[106, 107]							L.Haimberger	0	17.9		6.1	123.7	era5.1759.conv.2:94140	IGRA2
352	0-20000-0-91517	0	353	2:80604	3	HONIARA			0	159.96666666666667	-9.416666666666666		19421112	19421231	1	0	63	NMS	193	Honiara									[106, 107]							L.Haimberger	0	9.2		11.1	9.0	era5.1759.conv.2:80604	OSCAR
353	0-20000-0-42367	0	354	1:42367	3	KANPUR/CHAKERI			0	80.4	26.4		19760910	19790623	1	0	63	NMS	104	Kanpur									[38, 85, 106, 107, 117]							L.Haimberger	0	0.0		8.9	126.0	era5.1759.conv.1:42367	OSCAR
354	0-20000-0-04211	0	355	2:17501	3	MITTARFIK UPERNAVIK (UPERNAVIK LUFTHAVN)			0	-56.13333333333333	72.78333333333333		19431201	19431201	1	0	63	NMS	83	None									[106, 107]							L.Haimberger	0	5.8		None	130.0	era5.1759.conv.2:17501	OSCAR
355	0-20000-0-08284	0	356	1:8284	3	VALENCIA/AEROPUERTO			0	-0.4747222222222222	39.485		19691114	19711022	1	0	63	NMS	67	Manises									[106, 107]							L.Haimberger	0	0.7		2.6	62.0	era5.1759.conv.1:8284	OSCAR
356	0-20000-0-40233	0	357	1:62338	3	GAZA			0	34.45	31.5		19630805	19670430	1	0	63	NMS	182	Sederot									[106, 107]							L.Haimberger	0	0.0		14.2	-999.0	era5.1759.conv.1:62338	OSCAR
357	0-20300-0-99008	0	358	6:100355	3	OCEAN WEATHER SHIP C			0	-35.5	52.75		19710509	19710728	1	0	63	NMS	83	None									[38, 85, 106, 107, 117]							L.Haimberger	0	5.6		None	-999.0	era5.1759.conv.6:100355	IGRA2
358	0-20000-0-57245	0	359	2:43013	3	ANKANG			0	109.03333333333332	32.71666666666667		19450502	19450814	1	0	63	NMS	47	Ankang									[106, 107]							L.Haimberger	0	25.4		24.5	291.0	era5.1759.conv.2:43013	OSCAR
359	0-20000-0-26063	0	360	1:26065	3	ST.PETERSBURG (VOEJKOVO) (26063-0)			0	30.3	59.96666666666667		19540103	19561231	1	0	63	NMS	190	Saint Petersburg									[38, 85, 106, 107, 117]							L.Haimberger	0	4.1		4.7	6.0	era5.1759.conv.1:26065	OSCAR
360	0-20500-0-16501	0	361	2:16501	3	CRUNCHER ISLAND			0	-53.57	66.03		19430528	19480410	1	0	63	NMS	83	Nuuk									[106, 107]							L.Haimberger	0	0.0		222.9	13.1064	era5.1759.conv.2:16501	WBAN
361	0-20000-0-15410	0	362	1:15410	3	DROBETA-TURNU SEVERIN			0	22.62611111111111	44.62638888888889		19730523	19791231	1	0	63	NMS	189	Drobeta-Turnu Severin									[38, 85, 106, 107, 117]							L.Haimberger	0	0.5		2.1	77.0	era5.1759.conv.1:15410	OSCAR
362	0-20500-0-3922	0	363	2:3922	3	GOLDTHWAITE FRIENDLY			0	-98.67	31.37		19520331	19520409	1	0	63	NMS	231	Brownwood									[106, 107]							L.Haimberger	0	0.0		48.4	366.0648	era5.1759.conv.2:3922	WBAN
363	0-20000-0-41560	0	364	1:41560	3	PARACHINAR			0	70.08333333333333	33.86666666666667		19691017	19791227	1	0	63	NMS	177	Azrow									[38, 85, 106, 107]							L.Haimberger	0	0.5		51.8	1726.0	era5.1759.conv.1:41560	OSCAR
364	0-20600-0-89567	0	365	6:100988	3	Dovers (operated by Australia), Antarctica			0	65.87	-70.25		19730102	19740211	1	0	63	NMS	9	None									[106, 107]							L.Haimberger	0	29.5		None	-999.0	era5.1759.conv.6:100988	SCHROEDER
365	0-20500-0-43105	0	366	2:43105	3	TAIHO			0	115.67	33.17		19450701	19450731	1	0	63	NMS	47	Jieshou									[106, 107]							L.Haimberger	0	0.0		31.1	39.0144	era5.1759.conv.2:43105	WBAN
366	0-20000-0-40039	0	367	1:40039	3	RAQQA			0	39.016666666666666	35.93333333333333		19700507	19760806	1	0	63	NMS	210	Manbij									[85, 106, 107]							L.Haimberger	0	0.5		115.6	246.0	era5.1759.conv.1:40039	OSCAR
367	0-20000-0-42623	0	368	6:42623	3	IMPHAL/TULIHAL			0	93.9	24.766666666666666		19641101	19690209	1	0	63	NMS	104	Imphal									[106, 107]							L.Haimberger	0	0.4		7.2	774.0	era5.1759.conv.6:42623	OSCAR
368	0-20000-0-47741	0	369	1:47742	3	MATSUE			0	133.06555555555556	35.45722222222223		19340701	19370813	1	0	63	NMS	113	Sakaiminato									[38, 106, 107]							L.Haimberger	0	18.1		0.3	3.8	era5.1759.conv.1:47742	OSCAR
369	0-20000-0-72534	0	370	6:110021	3	CHICAGO/MIDWAY, IL.			0	-87.75	41.78333333333333		19700625	19701217	1	0	63	NMS	231	Darien									[38, 85, 106, 107, 117]							L.Haimberger	0	20.0		2.5	190.0	era5.1759.conv.6:110021	OSCAR
370	0-20000-0-42809	0	371	2:32814	3	KOLKATA/DUM DUM			0	88.45	22.65		19440401	19440515	1	0	63	NMS	104	Calcutta									[106, 107]							L.Haimberger	0	19.6		7.5	6.4	era5.1759.conv.2:32814	OSCAR
371	0-20300-0-14723	0	372	2:14723	3	FISHERS ISLAND FORT H G WRIGHT			0	-72.0167	41.2667		19440906	19450711	1	0	63	NMS	231	Groton									[106, 107]							L.Haimberger	0	0.5		10.2	14.6	era5.1759.conv.2:14723	IGRA2
372	0-20000-0-63702	0	373	1:63702	3	MBARARA			0	30.65	-0.6166666666666667		19610801	19771004	1	0	63	NMS	229	Mbarara									[38, 106, 107]							L.Haimberger	0	5.9		5.1	1413.0	era5.1759.conv.1:63702	OSCAR
373	0-20500-0-88701	0	374	2:88701	3	LIV			0	175.75	-83.28		19571113	19581010	1	0	63	NMS	9	None									[106, 107]							L.Haimberger	0	0.0		None	183.1848	era5.1759.conv.2:88701	WBAN
374	0-20300-0-99009	0	375	6:100410	3	OCEAN WEATHER SHIP D			0	-41.0	44.0		19710423	19711109	1	0	63	NMS	37	None									[38, 85, 106, 107, 117]							L.Haimberger	0	11.1		None	-999.0	era5.1759.conv.6:100410	IGRA2
375	0-20500-0-50404	0	376	2:50404	3	IGARAPE			0	-47.62	-1.07		19450516	19450919	1	0	63	NMS	30	Igarape-Acu									[106, 107]							L.Haimberger	0	0.0		5.2	57.302400000000006	era5.1759.conv.2:50404	WBAN
376	0-20000-0-72221	0	377	2:3843	3	VALPARAISO/EGLIN AFB, FL.			0	-86.51666666666667	30.48333333333333		19490920	19491102	1	0	63	NMS	231	Niceville									[106, 107]							L.Haimberger	0	9.3		5.0	29.0	era5.1759.conv.2:3843	OSCAR
377	0-20000-0-67107	0	378	1:67107	3	ANTSIRABE			0	47.06666666666667	-19.816666666666663		19691231	19791106	1	0	63	NMS	141	Antsirabe									[85, 106, 107]							L.Haimberger	0	0.5		8.9	1532.0	era5.1759.conv.1:67107	OSCAR
378	0-20000-0-91232	0	379	1:91232	3	SAIPAN (CG), MARIANA IS.			0	145.73333333333332	15.116666666666667		19661111	19690422	1	0	63	NMS	148	None									[38, 85, 106, 107, 117]							L.Haimberger	0	3.9		None	82.0	era5.1759.conv.1:91232	OSCAR
379	0-20000-0-78397	0	380	2:11707	3	KINGSTON/NORMAN MANLEY			0	-76.78333333333333	17.933333333333334		19430712	19431231	1	0	63	NMS	111	Half Way Tree									[106, 107]							L.Haimberger	0	16.6		23.3	14.0	era5.1759.conv.2:11707	OSCAR
380	0-20000-0-72364	0	381	2:23038	3	SANTA TERESA, NM.			0	-106.69805555555556	31.872777777777777		19480323	19501127	1	0	63	NMS	231	El Paso									[106, 107]							L.Haimberger	0	28.3		6.7	1194.0	era5.1759.conv.2:23038	OSCAR
381	0-20300-0-99014	0	382	6:100191	3	OCEAN WEATHER SHIP I			0	-19.0	59.0		19710423	19710807	1	0	63	NMS	108	None									[38, 85, 106, 107, 117]							L.Haimberger	0	5.7		None	-999.0	era5.1759.conv.6:100191	IGRA2
382	0-20500-0-80433	0	383	2:80433	3	MOROBE NF			0	147.62	-7.75		19440401	19440429	1	0	63	NMS	175	Wau									[106, 107]							L.Haimberger	0	0.0		109.8	3.048	era5.1759.conv.2:80433	WBAN
383	0-20000-0-48062	0	384	2:32945	3	SITTWE			0	92.88333333333334	20.133333333333333		19450302	19460223	1	0	63	NMS	145	Akyab									[38, 85, 106, 107, 117]							L.Haimberger	0	0.5		3.0	5.0	era5.1759.conv.2:32945	OSCAR
384	0-20500-0-81307	0	385	2:81307	3	RANTYIRRITY POINT			0	135.9	-14.18		19640410	19640416	1	0	63	NMS	13	Katherine									[38, 85, 106, 107, 117]							L.Haimberger	0	0.0		393.6	8.2296	era5.1759.conv.2:81307	WBAN
385	0-20000-0-64210	0	386	1:64210	3	KINSHASA/N'DJILI			0	15.433333333333334	-4.383333333333334		19660608	19730706	1	0	63	NMS	39	Kinshasa									[38, 85, 106, 107, 117]							L.Haimberger	0	1.9		16.9	312.0	era5.1759.conv.1:64210	OSCAR
386	0-20000-0-72514	0	387	3:IPT	3	WILLIAMSPORT/LYCOMING COUNTY, PA.			0	-76.91666666666667	41.25		19630704	19650622	1	0	63	NMS	231	Williamsport									[106, 107]							L.Haimberger	0	5.7		9.7	160.0	era5.1759.conv.3:IPT	OSCAR
387	0-20500-0-93911	0	388	2:93911	3	SHAWNEE NAS			0	-96.95	35.35		19440601	19450531	1	0	63	NMS	231	Shawnee									[106, 107]							L.Haimberger	0	0.0		3.4	330.0984	era5.1759.conv.2:93911	WBAN
388	0-20500-0-82409	0	389	2:82409	3	RICHMOND			0	143.38	-20.92		19640606	19640720	1	0	63	NMS	13	Townsville									[38, 85, 106, 107, 117]							L.Haimberger	0	0.0		402.3	215.1888	era5.1759.conv.2:82409	WBAN
389	0-20000-0-95997	0	390	6:100097	3	HEARD ISLAND (ATLAS COVE)			0	73.39166666666668	-53.01888888888889		19480331	19541029	1	0	63	NMS	95	None									[38, 85, 106, 107, 117]							L.Haimberger	0	2.2		None	3.5	era5.1759.conv.6:100097	OSCAR
390	0-20000-0-87078	0	391	1:87078	3	LAS LOMITAS			0	-60.594166666666666	-24.7025		19531007	19571031	1	0	63	NMS	10	Presidencia Roque Saenz Pena									[38, 106, 107]							L.Haimberger	0	1.5		231.4	130.0	era5.1759.conv.1:87078	OSCAR
391	0-20000-0-66215	0	392	1:66215	3	MALANGE			0	16.366666666666667	-9.55		19660510	19740706	1	0	63	NMS	8	Malanje									[106, 107]							L.Haimberger	0	6.6		2.8	1142.0	era5.1759.conv.1:66215	OSCAR
392	0-20000-0-41661	0	393	1:41660	3	QUETTA (SHEIKH MANDA)			0	66.91666666666667	30.266666666666666		19620728	19680519	1	0	63	NMS	177	Karak									[38, 85, 106, 107, 117]							L.Haimberger	0	4.0		8.8	1589.0	era5.1759.conv.1:41660	OSCAR
393	0-20000-0-56985	0	394	2:42020	3	MENGZI			0	103.32777777777775	23.444444444444446		19450501	19450930	1	0	63	NMS	47	Gejiu									[106, 107]							L.Haimberger	0	14.4		30.4	1313.6	era5.1759.conv.2:42020	OSCAR
394	0-20000-0-48078	0	395	1:48078	3	TOUNGOO			0	96.46666666666668	18.916666666666668		19700212	19790711	1	0	63	NMS	145	Toungoo									[106, 107]							L.Haimberger	0	0.5		4.1	49.0	era5.1759.conv.1:48078	OSCAR
395	0-20000-0-40648	0	396	2:33405	3	HABANYAH			0	43.56666666666667	33.38333333333333		19450609	19450919	1	0	63	NMS	106	Hit									[106, 107]							L.Haimberger	0	1.5		75.5	44.0	era5.1759.conv.2:33405	OSCAR
396	0-20000-0-16270	0	397	2:34109	3	BARI/PALESE			0	16.765	41.13805555555555		19440423	19450331	1	0	63	NMS	109	Modugno									[106, 107]							L.Haimberger	0	1.5		5.2	49.0	era5.1759.conv.2:34109	OSCAR
397	0-20000-0-47058	0	398	2:43210	3	PYONGYANG			0	125.78333333333332	39.03333333333333		19501025	19501031	1	0	63	NMS	120	Dandong									[106, 107]							L.Haimberger	0	3.5		173.7	36.0	era5.1759.conv.2:43210	OSCAR
398	0-20500-0-93036	0	399	2:93036	3	CAMP HALE AAF			0	-106.15	39.43		19540113	19540326	1	0	63	NMS	231	Golden									[106, 107]							L.Haimberger	0	0.0		87.6	2816.0472	era5.1759.conv.2:93036	WBAN
399	0-20600-0-96845	0	400	1:96845	3	Kepek, Java, Indonesia			0	110.92	-7.87		19700805	19720816	1	0	63	NMS	100	Wonogiri									[106, 107]							L.Haimberger	0	0.0		6.1	-999.0	era5.1759.conv.1:96845	SCHROEDER
400	0-20000-0-07072	0	401	1:7070	3	REIMS-PRUNAY			0	4.155277777777778	49.20972222222223		19680407	19720909	1	0	63	NMS	74	Reims									[106, 107]							L.Haimberger	0	13.6		5.6	95.0	era5.1759.conv.1:7070	OSCAR
401	0-20000-0-74671	0	402	1:74671	3	FORT CAMPBELL AAF, KY.			0	-87.5	36.66666666666666		19700408	19721229	1	0	63	NMS	231	Clarksville									[106, 107]							L.Haimberger	0	0.4		20.0	171.0	era5.1759.conv.1:74671	OSCAR
402	0-20001-0-22522	0	403	3:22522	3	KEM'			0	34.65	64.95		19640612	19661206	1	0	63	NMS	190	Kem									[38, 85, 106, 107, 117]							L.Haimberger	0	7.0		9.9	7.5	era5.1759.conv.3:22522	OSCAR
403	0-20000-0-14445	0	404	1:13333	3	SPLIT/MARJAN			0	16.42638888888889	43.50833333333333		19691101	19710624	1	0	63	NMS	97	Split									[106, 107]							L.Haimberger	0	1.3		2.2	128.0	era5.1759.conv.1:13333	OSCAR
404	0-20000-0-85469	0	405	2:62001	3	ISLA DE PASCUA			0	-109.42722222222224	-27.160555555555558		19660622	19660623	1	0	63	NMS	45	None									[38, 85, 106, 107, 117]							L.Haimberger	0	5.4		None	172.0	era5.1759.conv.2:62001	OSCAR
405	0-20500-0-12962	0	406	2:12903	3	HONDO WSMO AIRPORT			0	-99.17	29.35		19450315	19450621	1	0	63	NMS	231	Uvalde									[106, 107]							L.Haimberger	0	0.0		61.8	283.464	era5.1759.conv.2:12903	WBAN
406	0-20000-0-40768	0	407	2:33406	3	HAMEDAN			0	48.53472222222222	34.86944444444445		19441003	19450814	1	0	63	NMS	107	Hamadan									[106, 107]							L.Haimberger	0	2.2		5.8	1741.0	era5.1759.conv.2:33406	OSCAR
407	0-20000-0-36091	0	408	1:36091	3	NIZHNEUSINSKOE			0	93.01333333333334	52.25666666666667		19781125	19790927	1	0	63	NMS	190	Shagonar									[38, 85, 106, 107, 117]							L.Haimberger	0	1.7		83.1	662.14	era5.1759.conv.1:36091	OSCAR
408	0-20000-0-91203	0	409	2:41301	3	FALALOP ISLAND (CG), ULITHI ATOLL			0	139.8	10.033333333333331		19450816	19451110	1	0	63	NMS	72	None									[106, 107]							L.Haimberger	0	3.3		None	5.0	era5.1759.conv.2:41301	OSCAR
409	0-20500-0-94141	0	410	2:94141	3	WASHTUCNA			0	-118.33	46.73		19491203	19491204	1	0	63	NMS	231	Walla Walla									[106, 107]							L.Haimberger	0	0.0		74.0	310.896	era5.1759.conv.2:94141	WBAN
410	0-20500-0-42019	0	411	2:42019	3	PAI-SE			0	106.08	23.75		19450301	19450831	1	0	63	NMS	47	Bose									[106, 107]							L.Haimberger	0	0.0		56.8	162.1536	era5.1759.conv.2:42019	WBAN
411	0-20500-0-3116	0	412	2:3116	3	GROOM MINE			0	-115.7	37.33		19511119	19511130	1	0	63	NMS	231	Pahrump									[106, 107]							L.Haimberger	0	0.0		127.0	1599.8952000000002	era5.1759.conv.2:3116	WBAN
412	0-20000-0-91551	0	413	1:91551	3	SOLA (VANUA LAVA)			0	167.55	-13.85		19700727	19710624	1	0	63	NMS	240	Luganville									[106, 107]							L.Haimberger	0	6.3		195.2	18.0	era5.1759.conv.1:91551	OSCAR
413	0-20000-0-72509	0	414	2:14716	3	BOSTON/LOGAN INT., MA.			0	-71.03333333333333	42.36666666666667		19440205	19440622	1	0	63	NMS	231	Cambridge									[106, 107]							L.Haimberger	0	5.5		0.7	9.0	era5.1759.conv.2:14716	OSCAR
414	0-20000-0-72242	0	415	2:12929	3	GALVESTON, TX.			0	-94.8	29.3		19430706	19431031	1	0	63	NMS	231	Santa Fe									[106, 107]							L.Haimberger	0	26.8		4.6	16.0	era5.1759.conv.2:12929	OSCAR
415	0-20300-0-70439	0	416	2:45711	3	AMCHITKA ISLAND			0	179.25	51.3833		19440407	19440429	1	0	63	NMS	231	None									[106, 107]							L.Haimberger	0	2.3		None	67.1	era5.1759.conv.2:45711	IGRA2
416	0-20000-0-87509	0	417	1:87509	3	SAN RAFAEL AERO			0	-68.40166666666667	-34.590833333333336		19690913	19720109	1	0	63	NMS	10	San Rafael									[106, 107]							L.Haimberger	0	1.2		7.7	748.0	era5.1759.conv.1:87509	OSCAR
417	0-20000-0-87311	0	418	1:87312	3	SAN JUAN AERO			0	-68.4225	-31.57472222222222		19570701	19581216	1	0	63	NMS	10	San Juan									[38, 106, 107]							L.Haimberger	0	12.4		7.0	598.0	era5.1759.conv.1:87312	OSCAR
418	0-20000-0-67743	0	419	1:67743	3	LIVINGSTONE			0	25.816666666666663	-17.816666666666666		19670608	19721228	1	0	63	NMS	247	Livingstone									[106, 107, 117]							L.Haimberger	0	1.0		7.5	986.0	era5.1759.conv.1:67743	OSCAR
419	0-20000-0-72502	0	420	2:14726	3	NEWARK/INT., NJ.			0	-74.16666666666667	40.7		19290102	19311211	1	0	63	NMS	231	Carteret									[106, 107]							L.Haimberger	0	15.5		10.9	9.0	era5.1759.conv.2:14726	OSCAR
420	0-20000-0-43003	0	421	2:31702	3	BOMBAY / SANTACRUZ			0	72.85	19.116666666666667		19441221	19451124	1	0	63	NMS	104	Bombay									[106, 107]							L.Haimberger	0	5.1		12.9	14.6	era5.1759.conv.2:31702	OSCAR
421	0-20000-0-12935	0	422	1:12935	3	SIOFOK			0	18.05	46.91666666666666		19730328	19740721	1	0	63	NMS	99	Siofok									[106, 107]							L.Haimberger	0	1.9		0.8	109.0	era5.1759.conv.1:12935	OSCAR
422	0-20300-0-99018	0	423	6:105262	3	OCEAN WEATHER SHIP M			0	2.0	66.0		19710503	19711028	1	0	63	NMS	166	None									[38, 85, 106, 107, 117]							L.Haimberger	0	4.5		None	7.010400000000001	era5.1759.conv.6:105262	IGRA2
423	0-20000-0-94393	0	424	6:100800	3	FREDERICK REEF			0	154.40194444444444	-20.9375		19720508	19720508	1	0	63	NMS	13	Yeppoon									[38, 85, 106, 107, 117]							L.Haimberger	0	4.2		450.8	12.8	era5.1759.conv.6:100800	OSCAR
424	0-20500-0-3152	0	425	2:3152	3	MOJAVE FLT E 4			0	-115.67	35.83		19640516	19640529	1	0	63	NMS	231	Spring Valley									[38, 85, 106, 107, 117]							L.Haimberger	0	0.0		49.3	24.0792	era5.1759.conv.2:3152	WBAN
425	0-20000-0-07790	0	426	2:34017	3	BASTIA			0	9.485277777777776	42.54055555555556		19450601	19451111	1	0	63	NMS	74	Bastia									[106, 107]							L.Haimberger	0	1.1		17.1	12.0	era5.1759.conv.2:34017	OSCAR
426	0-20300-0-24203	0	427	2:24203	3	EVERETT (PAINE FIELD)			0	-122.2833	47.9		19430717	19450620	1	0	63	NMS	231	Mukilteo									[106, 107]							L.Haimberger	0	0.2		5.3	181.7	era5.1759.conv.2:24203	IGRA2
427	0-20000-0-72309	0	428	2:13768	3	CHERRY POINT/MCAS, NC.			0	-76.88333333333334	34.85		19411103	19411209	1	0	63	NMS	231	New Bern									[106, 107]							L.Haimberger	0	29.7		3.2	13.0	era5.1759.conv.2:13768	OSCAR
428	0-20500-0-80518	0	429	2:80518	3	LOSUIA FLT J			0	151.07	-8.53		19630520	19631001	1	0	63	NMS	175	Alotau									[38, 85, 106, 107, 117]							L.Haimberger	0	0.0		208.5	10.0584	era5.1759.conv.2:80518	WBAN
429	0-20000-0-98232	0	430	2:41217	3	APARRI			0	121.63333333333334	18.366666666666667		19450804	19450916	1	0	63	NMS	176	Claveria									[106, 107]							L.Haimberger	0	12.5		51.5	3.0	era5.1759.conv.2:41217	OSCAR
430	0-20300-0-99014	0	431	6:108298	3	OCEAN WEATHER SHIP I			0	-19.0	59.0		19710517	19711121	1	0	63	NMS	108	Kopavogur									[38, 85, 106, 107, 117]							L.Haimberger	0	16.0		582.6	-999.0	era5.1759.conv.6:108298	IGRA2
431	0-20000-0-41891	0	432	2:32916	3	SYLHET			0	91.88333333333334	24.9		19440212	19450131	1	0	63	NMS	19	Chhatak									[106, 107]							L.Haimberger	0	7.2		19.3	35.0	era5.1759.conv.2:32916	OSCAR
432	0-20000-0-97760	0	433	1:97760	3	KAIMANA/UTAROM			0	133.69694444444443	-3.6438888888888887		19590303	19620718	1	0	63	NMS	100	Nabire									[38, 106, 107]							L.Haimberger	0	6.6		195.5	3.0	era5.1759.conv.1:97760	OSCAR
433	0-20000-0-57046	0	434	1:57046	3	HUA SHAN			0	110.08333333333331	34.483333333333334		19730118	19791111	1	0	63	NMS	47	Weinan									[38, 85, 106, 107, 117]							L.Haimberger	0	3.4		56.2	2063.0	era5.1759.conv.1:57046	OSCAR
434	0-20000-0-91643	0	435	2:80705	3	FUNAFUTI (91643-0)			0	179.21666666666667	-8.516666666666667		19450901	19450927	1	0	63	NMS	225	None									[106, 107]							L.Haimberger	0	1.5		None	2.0	era5.1759.conv.2:80705	OSCAR
435	0-20500-0-40102	0	436	2:40102	3	SANGA SANGA ISLAND			0	119.73	5.03		19450523	19450809	1	0	63	NMS	176	Sitangkai									[106, 107]							L.Haimberger	0	0.0		55.2	6.096	era5.1759.conv.2:40102	WBAN
436	0-20000-0-72221	0	437	2:3861	3	VALPARAISO/EGLIN AFB, FL.			0	-86.51666666666667	30.48333333333333		19600927	19641009	1	0	63	NMS	231	Fort Walton Beach									[106, 107]							L.Haimberger	0	21.6		9.7	29.0	era5.1759.conv.2:3861	OSCAR
437	0-20000-0-30815	0	438	1:30812	3	HAMAR-DABAN			0	103.6	51.53333333333333		19620815	19680627	1	0	63	NMS	190	Slyudyanka									[106, 107]							L.Haimberger	0	10.2		6.6	1442.0	era5.1759.conv.1:30812	OSCAR
438	0-20000-0-91165	0	439	2:22526	3	LIHUE, KAUAI, HAWAII			0	-159.34666666666666	21.993333333333336		19491108	19500105	1	0	63	NMS	231	Kapaa									[106, 107]							L.Haimberger	0	28.1		34.8	7.0	era5.1759.conv.2:22526	OSCAR
439	0-20000-0-07180	0	440	2:34016	3	NANCY-ESSEY			0	6.221388888888889	48.687777777777775		19441117	19441125	1	0	63	NMS	74	Vandoeuvre-Les-Nancy									[106, 107]							L.Haimberger	0	2.5		1.8	213.0	era5.1759.conv.2:34016	OSCAR
440	0-20000-0-60445	0	441	1:60445	3	SETIF/AIN ARNAT			0	5.316666666666666	36.16666666666666		19520314	19620831	1	0	63	NMS	61	Tazmalt									[106, 107]							L.Haimberger	0	9.4		86.5	1015.0	era5.1759.conv.1:60445	OSCAR
441	0-20001-0-16080	0	442	2:34019	3	MILANO LINATE RDS			0	9.283055555555556	45.46138888888889		19450919	19460201	1	0	63	NMS	109	Segrate									[106, 107]							L.Haimberger	0	1.6		2.0	103.0	era5.1759.conv.2:34019	OSCAR
442	0-20500-0-80513	0	443	2:80513	3	SEGI			0	157.92	-8.6		19431002	19440328	1	0	63	NMS	193	Honiara									[106, 107]							L.Haimberger	0	0.0		241.5	4.2672	era5.1759.conv.2:80513	WBAN
443	0-20001-0-16320	0	444	2:34112	3	BRINDISI RDS			0	17.956666666666667	40.66027777777778		19431206	19440626	1	0	63	NMS	109	San Pancrazio Salentino									[106, 107]							L.Haimberger	0	27.1		2.0	10.12	era5.1759.conv.2:34112	OSCAR
444	0-20000-0-72293	0	445	2:23198	3	SAN DIEGO/MIRAMAR,  NAS, CA.			0	-117.11666666666666	32.833333333333336		19430719	19450626	1	0	63	NMS	231	Solana Beach									[106, 107]							L.Haimberger	0	19.6		3.0	9.0	era5.1759.conv.2:23198	OSCAR
445	0-20000-0-91285	0	446	2:21501	3	HILO HI, HAWAII			0	-155.05833333333334	19.71833333333333		19430416	19431230	1	0	63	NMS	231	Hilo									[106, 107]							L.Haimberger	0	1.2		2.4	10.4	era5.1759.conv.2:21501	OSCAR
446	0-20600-0-94478	0	447	6:100066	3	(made up station ID) Mirikata Nuclear Test Area, South Australia, Australia			0	135.25	-29.88		19641125	19661128	1	0	63	NMS	13	Flinders									[38, 85, 117]							L.Haimberger	0	5.3		334.9	-999.0	era5.1759.conv.6:100066	SCHROEDER
447	0-20300-0-99013	0	448	6:101681	3	OCEAN WEATHER SHIP H			0	-71.0	38.0		19711010	19711010	1	0	63	NMS	231	Brigantine									[38, 85, 106, 107, 117]							L.Haimberger	0	0.0		331.9	-999.0	era5.1759.conv.6:101681	IGRA2
448	0-20000-0-70200	0	449	2:26604	3	NOME, AK			0	-165.43472222222223	64.50722222222223		19460102	19460226	1	0	63	NMS	231	None									[38, 85, 106, 107, 117]							L.Haimberger	0	1.4		None	11.6	era5.1759.conv.2:26604	OSCAR
449	0-20000-0-65167	0	450	1:65167	3	YOLA			0	12.466666666666669	9.233333333333333		19630801	19751218	1	0	63	NMS	163	Yola									[106, 107]							L.Haimberger	0	0.5		3.6	186.1	era5.1759.conv.1:65167	OSCAR
450	0-20300-0-72257	0	451	2:3921	3	FT HOOD AAF/KILLEEN			0	-97.717	31.1		19520331	19520405	1	0	63	NMS	231	Gatesville									[106, 107]							L.Haimberger	0	29.9		7.5	282.0	era5.1759.conv.2:3921	IGRA2
451	0-20500-0-23223	0	452	2:23223	3	CAMP MORRO BAY AAF			0	-120.08	35.37		19461001	19461231	1	0	63	NMS	231	San Luis Obispo									[106, 107]							L.Haimberger	0	0.0		53.5	20.1168	era5.1759.conv.2:23223	WBAN
452	0-20000-0-87270	0	453	1:87270	3	RECONQUISTA AERO			0	-59.69333333333333	-29.205		19570701	19581009	1	0	63	NMS	10	Reconquista									[38, 106, 107]							L.Haimberger	0	3.6		3.9	53.0	era5.1759.conv.1:87270	OSCAR
453	0-20600-0-35225	0	454	1:35225	3	Mortyq / Martuk, Kazakhstan			0	56.53	50.75		19760424	19791217	1	0	63	NMS	124	Aqtobe									[38, 85, 106, 107, 117]							L.Haimberger	0	0.0		68.3	-999.0	era5.1759.conv.1:35225	SCHROEDER
454	0-20000-0-59362	0	455	1:59362	3	HUALIAN			0	121.61666666666666	24.016666666666666		19571206	19760102	1	0	63	NMS	226	Puli									[38, 85, 106, 107, 117]							L.Haimberger	0	0.5		66.4	14.0	era5.1759.conv.1:59362	OSCAR
455	0-20000-0-74756	0	456	2:12817	3	GAINSVILLE, FL GAINSVILLE RGNL ARPT			0	-82.27194444444444	29.69		19440106	19440219	1	0	63	NMS	231	Gainesville									[106, 107]							L.Haimberger	0	24.9		31.6	46.0	era5.1759.conv.2:12817	OSCAR
456	0-20000-0-10655	0	457	2:34163	3	WUERZBURG			0	9.957777777777777	49.77027777777778		19470603	19470715	1	0	63	NMS	56	Kitzingen									[106, 107]							L.Haimberger	0	17.6		3.0	271.77	era5.1759.conv.2:34163	OSCAR
457	0-20000-0-47840	0	458	6:47804	3	TSUIKI AB			0	131.0402777777778	33.684999999999995		19471031	19471130	1	0	63	NMS	113	Yukuhashi									[38, 106, 107]							L.Haimberger	0	7.5		0.5	19.76	era5.1759.conv.6:47804	OSCAR
458	0-20000-0-48900	0	459	2:41002	3	TAN SON HOA			0	106.66666666666669	10.816666666666666		19460411	19460630	1	0	63	NMS	239	Ho Chi Minh City									[106, 107]							L.Haimberger	0	4.1		3.3	5.0	era5.1759.conv.2:41002	OSCAR
459	0-20000-0-72221	0	460	2:3863	3	VALPARAISO/EGLIN AFB, FL.			0	-86.51666666666667	30.48333333333333		19601102	19641006	1	0	63	NMS	231	Wright									[106, 107]							L.Haimberger	0	16.7		13.8	29.0	era5.1759.conv.2:3863	OSCAR
460	0-20000-0-71727	0	461	2:94795	3	CFB - BAGOTVILLE, QUE			0	-71.0	48.333333333333336		19550704	19581231	1	0	63	NMS	37	Alma									[106, 107]							L.Haimberger	0	0.4		54.0	159.1	era5.1759.conv.2:94795	OSCAR
461	0-20000-0-56586	0	462	2:42018	3	ZHAOTONG			0	103.75	27.33333333333333		19450118	19450226	1	0	63	NMS	47	Zhaotong									[106, 107]							L.Haimberger	0	7.9		4.8	1950.0	era5.1759.conv.2:42018	OSCAR
462	0-20300-0-99009	0	463	6:100411	3	OCEAN WEATHER SHIP D			0	-41.0	44.0		19710519	19710519	1	0	63	NMS	37	None									[38, 85, 106, 107, 117]							L.Haimberger	0	13.7		None	-999.0	era5.1759.conv.6:100411	IGRA2
463	0-20000-0-94125	0	464	2:81304	3	BATCHELOR AERO			0	131.0252777777778	-13.054444444444446		19430101	19430531	1	0	63	NMS	13	Darwin									[106, 107]							L.Haimberger	0	4.9		70.3	105.0	era5.1759.conv.2:81304	OSCAR
464	0-20500-0-24247	0	465	2:24247	3	ARLINGTON NAAS			0	-122.18	48.2		19441001	19441231	1	0	63	NMS	231	North Marysville									[106, 107]							L.Haimberger	0	0.0		11.4	41.148	era5.1759.conv.2:24247	WBAN
