	primary_id	primary_id_scheme	record_number	secondary_id	secondary_id_scheme	station_name	station_abbreviation	alternative_name	station_crs	longitude	latitude	local_gravity	start_date	end_date	station_type	platform_type	platform_sub_type	operating_institute	operating_territory	city	contact	role	observing_frequency	reporting_time	telecommunication_method	station_automation	measuring_system_model	measuring_system_id	observed_variables	comment	optional_data	bbox_min_longitude	bbox_max_longitude	bbox_min_latitude	bbox_max_latitude	metadata_contact	metadata_contact_role	distance_km	distance_km_minusLat	city_dist_km	elevation	file	inventory
0	0-20000-0-62722	0	1	62722	3	AROMA			0	36.15	15.833333333333334		19740726	19740726	1	0	63	NMS	195	Wagar									[104, 105, 106, 107, 117]							L.Haimberger	0	6.5		39.0	-999.0	era5.conv._62722	OSCAR
1	0-20700-0-63013	0	2	63013	3	AGORDAT                  			0	37.88333333333333	15.55		19570916	19570916	1	0	63	NMS	66	Barentu									[104, 105, 106, 107, 117]							L.Haimberger	0	0.4		57.3	-999.0	era5.conv._63013	WMO
2	0-20000-0-64757	0	3	64757	3	FADA			0	21.55	17.166666666666668		19740730	19740730	1	0	63	NMS	213	Faya									[104, 105, 106, 107, 117]							L.Haimberger	0	6.5		275.3	-999.0	era5.conv._64757	OSCAR
3	0-20000-0-61612	0	4	61612	3	PODOR			0	-14.92972222222222	16.649722222222223		19740624	19740624	1	0	63	NMS	150	Dagana									[36, 38, 39, 85, 104, 105, 106, 107, 117]							L.Haimberger	0	6.4		64.7	5.73	era5.conv._61612	OSCAR
4	0-20000-0-71580	0	5	1:71914	3	TALOYOAK A, NU			0	-93.58333333333331	69.55		19621022	19690327	1	0	63	NMS	37	None									[38, 85, 104, 105, 106, 107, 117]							L.Haimberger	0	6.5		None	27.4	era5.conv._1:71914	OSCAR
5	0-20300-0-99006	0	6	6:102023	3	OCEAN WEATHER SHIP A			0	-33.0	62.0		19710503	19711021	1	0	63	NMS	83	None									[38, 85, 104, 105, 106, 107, 117]							L.Haimberger	0	28.4		None	-999.0	era5.conv._6:102023	IGRA2
6	0-20000-0-64920	0	7	64920	3	BAFIA			0	11.25	4.733333333333333		19740603	19740603	1	0	63	NMS	46	Bafia									[104, 105, 106, 107, 117]							L.Haimberger	0	6.7		9.2	500.0	era5.conv._64920	OSCAR
7	0-20000-0-64971	0	8	64971	3	KRIBI			0	9.9	2.95		19740904	19740908	1	0	63	NMS	46	Kribi									[104, 105, 106, 107, 117]							L.Haimberger	0	5.5		5.8	16.0	era5.conv._64971	OSCAR
8	0-20000-0-71580	0	9	71914	3	TALOYOAK A, NU			0	-93.58333333333331	69.55		19621022	19690328	1	0	63	NMS	37	None									[36, 38, 39, 85, 104, 105, 106, 107, 117]							L.Haimberger	0	6.5		None	27.4	era5.conv._71914	OSCAR
9	0-20000-0-72793	0	10	24244	3	SEATTLE/S.-TACOMA, WA.			0	-122.3	47.45		19570902	19570921	1	0	63	NMS	231	Kirkland									[104, 105, 106, 107, 117]							L.Haimberger	0	25.7		3.9	137.0	era5.conv._24244	OSCAR
10	0-20000-0-47116	0	11	47116	3	GWANAKSAN			0	126.96388888888887	37.445277777777775		19740810	19751230	1	0	63	NMS	121	Seoul									[104, 105, 106, 107, 117]							L.Haimberger	0	0.8		16.5	87.1	era5.conv._47116	OSCAR
11	0-20000-0-41196	0	12	C:5552	3	SHARJAH INTERNATIONAL AIRPORT			0	55.516666666666666	25.33333333333333		19490605	19520126	1	0	63	NMS	1	Sharjah									[104, 105, 106, 107]							L.Haimberger	0	11.9		0.9	33.0	era5.conv._C:5552	OSCAR
12	0-20500-0-31307	0	13	2:31307	3	ASOSA			0	34.52	10.07		19660220	19670227	1	0	63	NMS	68	Asosa									[38, 85, 104, 105, 106, 107, 117]							L.Haimberger	0	0.0		1.5	1603.248	era5.conv._2:31307	WBAN
13	0-20300-0-99019	0	14	6:100551	3	OCEAN WEATHER SHIP N			0	-140.0	30.0		19711012	19711012	1	0	63	NMS	231	None									[38, 85, 104, 105, 106, 107, 117]							L.Haimberger	0	0.0		None	-999.0	era5.conv._6:100551	IGRA2
14	0-20000-0-48402	0	15	2:41012	3	CHAI NAT AGROMET			0	100.1913888888889	15.158055555555556		19680602	19680605	1	0	63	NMS	216	Takhli									[38, 85, 104, 105, 106, 107, 117]							L.Haimberger	0	17.8		5.0	16.85	era5.conv._2:41012	OSCAR
15	0-20500-0-82409	0	16	82409	3	RICHMOND			0	143.38	-20.92		19640602	19640720	1	0	63	NMS	13	Townsville									[36, 38, 39, 85, 104, 105, 106, 107, 117]							L.Haimberger	0	0.0		402.3	215.1888	era5.conv._82409	WBAN
16	0-20000-0-20674	0	17	C:4772	3	OSTROV DIKSON			0	80.4063888888889	73.51361111111112		19480103	19480626	1	0	63	NMS	190	None									[38, 39, 85, 117]							L.Haimberger	0	1.5		None	46.37	era5.conv._C:4772	OSCAR
17	0-20000-0-38527	0	18	38527	3	DAVALY			0	57.38333333333333	40.06666666666667		19781229	19781229	1	0	63	NMS	220	Baherden									[36, 38, 39, 85, 104, 105, 106, 107, 117]							L.Haimberger	0	0.5		182.1	47.0	era5.conv._38527	OSCAR
18	0-20300-0-99019	0	19	10055	3	OCEAN WEATHER SHIP N			0	-140.0	30.0		19711012	19711012	1	0	63	NMS	231	None									[36, 38, 39, 85, 104, 105, 106, 107, 117]							L.Haimberger	0	0.0		None	-999.0	era5.conv._10055	IGRA2
19	0-20000-0-78730	0	20	6:78730	3	PUERTO CABEZAS			0	-83.63333333333334	14.066666666666666		19670810	19720415	1	0	63	NMS	164	Puerto Cabezas									[104, 105, 106, 107]							L.Haimberger	0	25.5		1.8	20.0	era5.conv._6:78730	OSCAR
20	0-20000-0-65257	0	21	65257	3	ENUGU			0	7.55	6.466666666666667		19780801	19781231	1	0	63	NMS	163	Enugu									[104, 105, 106, 107, 117]							L.Haimberger	0	0.4		7.0	141.8	era5.conv._65257	OSCAR
21	0-20000-0-71842	0	22	15909	3	SIOUX LOOKOUT A, ONT			0	-91.9	50.11666666666667		19570901	19580212	1	0	63	NMS	37	Kenora									[104, 105, 106, 107, 117]							L.Haimberger	0	0.4		188.4	383.1	era5.conv._15909	OSCAR
22	0-20000-0-30710	0	23	30718	3	IRKUTSK (30710-0)			0	104.31666666666666	52.266666666666666		19740315	19740426	1	0	63	NMS	190	Shelekhov									[104, 105, 106, 107, 117]							L.Haimberger	0	8.2		7.9	469.1	era5.conv._30718	OSCAR
23	0-20000-0-65557	0	24	65557	3	GAGNOA			0	-5.95	6.133333333333334		19740618	19740920	1	0	63	NMS	43	Gagnoa									[36, 38, 39, 85, 104, 105, 106, 107, 117]							L.Haimberger	0	6.6		6.5	210.0	era5.conv._65557	OSCAR
24	0-20000-0-64655	0	25	64655	3	BRIA			0	21.98333333333333	6.533333333333333		19740714	19740731	1	0	63	NMS	40	Bria									[36, 38, 39, 85, 104, 105, 106, 107, 117]							L.Haimberger	0	4.1		4.1	584.0	era5.conv._64655	OSCAR
25	0-20000-0-63844	0	26	1:63844	3	TANGA			0	39.06666666666667	-5.083333333333333		19760121	19771024	1	0	63	NMS	227	Tanga									[38, 85, 104, 105, 106, 107, 117]							L.Haimberger	0	0.5		3.6	35.0	era5.conv._1:63844	OSCAR
26	0-20000-0-91601	0	27	2:40712	3	BUTARITARI			0	172.78333333333333	3.033333333333333		19650406	19650413	1	0	63	NMS	117	Bairiki									[38, 85, 117]							L.Haimberger	0	5.5		195.4	1.0	era5.conv._2:40712	OSCAR
27	0-20000-0-91258	0	28	91258	3	UTIRIK ATOLL,  MARSHALL IS.			0	169.85	11.233333333333333		19731022	19750629	1	0	63	NMS	142	None									[104, 105, 106, 107, 117]							L.Haimberger	0	0.4		None	2.0	era5.conv._91258	OSCAR
28	0-20000-0-25563	0	29	C:4603	3	ANADYR'			0	177.56666666666666	64.78333333333333		19541019	19550421	1	0	63	NMS	190	Anadyr									[38, 39, 85, 104, 105, 106, 107, 117]							L.Haimberger	0	0.4		5.3	60.94	era5.conv._C:4603	OSCAR
29	0-20500-0-12956	0	30	12956	3	MATAGORDA IS AF			0	-96.45	28.33		19570902	19571004	1	0	63	NMS	231	Port Lavaca									[104, 105, 106, 107, 117]							L.Haimberger	0	0.0		35.9	2.1336	era5.conv._12956	WBAN
30	0-20000-0-20107	0	31	C:4607	3	BARENTSBURG			0	14.221111111111112	78.05555555555556		19541019	19550421	1	0	63	NMS	200	None									[38, 39, 85, 104, 105, 106, 107, 117]							L.Haimberger	0	1.7		None	75.8	era5.conv._C:4607	OSCAR
31	0-20000-0-08314	0	32	1:8314	3	MENORCA/AEROPUERTO			0	4.215555555555556	39.85472222222222		19700501	19711117	1	0	63	NMS	67	Mahon									[104, 105, 106, 107]							L.Haimberger	0	5.0		2.3	86.0	era5.conv._1:8314	OSCAR
32	0-20000-0-21824	0	33	C:4548	3	TIKSI			0	128.91666666666666	71.58333333333333		19540419	19540922	1	0	63	NMS	190	None									[38, 39, 85, 104, 105, 106, 107, 117]							L.Haimberger	0	7.1		None	7.0	era5.conv._C:4548	OSCAR
33	0-20000-0-48377	0	34	48377	3	BHUMIBOL DAM			0	99.0025	17.24388888888889		19781223	19781223	1	0	63	NMS	216	Ban Tak									[104, 105, 106, 107, 117]							L.Haimberger	0	5.3		20.9	144.38	era5.conv._48377	OSCAR
34	0-20500-0-42104	0	35	2:42104	3	SUICHWAN			0	114.5	26.42		19440405	19440621	1	0	63	NMS	47	Ganzhou									[104, 105, 106, 107]							L.Haimberger	0	0.0		76.6	134.112	era5.conv._2:42104	WBAN
35	0-20500-0-43010	0	36	2:43010	3	LANCHOW			0	103.5	36.6		19450801	19451231	1	0	63	NMS	47	Baiyin									[104, 105, 106, 107]							L.Haimberger	0	0.0		63.5	1563.0144	era5.conv._2:43010	WBAN
36	0-20000-0-04254	0	37	2:16506	3	MITTARFIK NUUK (GODTHAAB LUFTHAVN)			0	-51.68333333333333	64.2		19420601	19421228	1	0	63	NMS	83	Nuuk									[104, 105, 106, 107]							L.Haimberger	0	8.2		10.8	87.0	era5.conv._2:16506	OSCAR
37	0-20000-0-96001	0	38	96001	3	SABANG/CUT BAU			0	95.31666666666666	5.866666666666667		19760309	19781222	1	0	63	NMS	100	Sabang									[104, 105, 106, 107, 117]							L.Haimberger	0	0.5		2.6	126.0	era5.conv._96001	OSCAR
38	0-20000-0-42299	0	39	42299	3	GANGTOK			0	88.61666666666666	27.33333333333333		19731005	19741005	1	0	63	NMS	104	Gangtok									[104, 105, 106, 107, 117]							L.Haimberger	0	0.5		0.5	1756.0	era5.conv._42299	OSCAR
39	0-20000-0-74531	0	40	1:74531	3	AIR FORCE ACADEMY,  CO.			0	-104.81666666666666	38.96666666666667		19690222	19691001	1	0	63	NMS	231	Black Forest									[38, 85, 104, 105, 106, 107, 117]							L.Haimberger	0	0.5		11.4	1881.0	era5.conv._1:74531	OSCAR
40	0-20300-0-99006	0	41	6:100334	3	OCEAN WEATHER SHIP A			0	-33.0	62.0		19710529	19710529	1	0	63	NMS	83	None									[38, 85, 104, 105, 106, 107, 117]							L.Haimberger	0	23.7		None	-999.0	era5.conv._6:100334	IGRA2
41	0-20500-0-80517	0	42	80517	3	BUKA ISLAND			0	154.58	-5.27		19621105	19630114	1	0	63	NMS	175	Arawa									[36, 38, 39, 85, 104, 105, 106, 107, 117]							L.Haimberger	0	0.0		150.0	4.2672	era5.conv._80517	WBAN
42	0-20500-0-81412	0	43	81412	3	PRINCESS CHARLOTTE B			0	144.25	-14.4		19640115	19640724	1	0	63	NMS	13	Cairns									[36, 38, 39, 85, 104, 105, 106, 107, 117]							L.Haimberger	0	0.0		323.1	262.128	era5.conv._81412	WBAN
43	0-20000-0-08508	0	44	8508	3	LAJES (ACORES) (8508-0)			0	-27.08722222222222	38.76777777777777		19661219	19671231	1	0	63	NMS	183	Angra									[36, 38, 39, 85, 104, 105, 106, 107, 117]							L.Haimberger	0	2.5		16.9	54.0	era5.conv._08508	OSCAR
44	0-20000-0-37531	0	45	1:37420	3	GORI			0	44.11388888888889	41.99722222222222		19730306	19750831	1	0	63	NMS	78	Gori									[104, 105, 106, 107]							L.Haimberger	0	6.6		9.1	609.4	era5.conv._1:37420	OSCAR
45	0-20000-0-61934	0	46	61934	3	PRINCIPE			0	7.416666666666667	1.65		19740810	19740810	1	0	63	NMS	207	Bata									[36, 38, 39, 85, 104, 105, 106, 107, 117]							L.Haimberger	0	5.8		262.0	5.0	era5.conv._61934	OSCAR
46	0-20000-0-67072	0	47	1:67072	3	SAINTE-MARIE AERODROME			0	49.81666666666667	-17.083333333333332		19661203	19720718	1	0	63	NMS	141	Ambodifototra									[104, 105, 106, 107, 117]							L.Haimberger	0	2.6		14.0	3.0	era5.conv._1:67072	OSCAR
47	0-20000-0-57447	0	48	2:43008	3	ENSHI			0	109.46666666666668	30.28333333333333		19450601	19450827	1	0	63	NMS	47	Enshi									[104, 105, 106, 107]							L.Haimberger	0	1.3		2.2	458.0	era5.conv._2:43008	OSCAR
48	0-20000-0-20891	0	49	C:4554	3	HATANGA			0	102.46638888888889	71.97722222222222		19540419	19540922	1	0	63	NMS	190	None									[38, 39, 85, 104, 105, 106, 107, 117]							L.Haimberger	0	0.3		None	32.8	era5.conv._C:4554	OSCAR
49	0-20300-0-32217	0	50	C:4571	3	M. VASILYEV			0	155.4	50.017		19540420	19540922	1	0	63	NMS	190	Petropavlovsk-Kamchatskiy									[38, 39, 85, 104, 105, 106, 107, 117]							L.Haimberger	0	2.4		407.6	25.0	era5.conv._C:4571	IGRA2
50	0-20000-0-08055	0	51	1:8055	3	LEON/VIRGEN DEL CAMINO			0	-5.651111111111112	42.58833333333334		19700401	19711022	1	0	63	NMS	67	San Andres Del Rabanedo									[104, 105, 106, 107, 117]							L.Haimberger	0	0.9		4.5	914.0	era5.conv._1:8055	OSCAR
51	0-20000-0-40179	0	52	C:5981	3	BET DAGAN			0	34.81666666666667	32.0		19400329	19400524	1	0	63	NMS	102	Ramla									[104, 105, 106, 107]							L.Haimberger	0	9.3		0.6	49.0	era5.conv._C:5981	OSCAR
52	0-20000-0-64705	0	53	64705	3	BOUSSO			0	16.716666666666665	10.483333333333333		19740620	19741024	1	0	63	NMS	213	Bousso									[36, 38, 39, 85, 104, 105, 106, 107, 117]							L.Haimberger	0	0.5		0.5	336.0	era5.conv._64705	OSCAR
53	0-20700-0-84999	0	54	1:84633	3	HUANCAYO                 			0	-75.33333333333333	-12.116666666666667		19570729	19581231	1	0	63	NMS	173	Huancayo									[38, 104, 105, 106, 107]							L.Haimberger	0	0.5		12.1	-999.0	era5.conv._1:84633	WMO
54	0-20000-0-30823	0	55	30823	3	ULAN-UDE			0	107.6	51.833333333333336		19620809	19680831	1	0	63	NMS	190	Ulan-Ude									[36, 38, 39, 85, 104, 105, 106, 107, 117]							L.Haimberger	0	14.3		14.8	514.6	era5.conv._30823	OSCAR
55	0-20000-0-25551	0	56	C:4566	3	MARKOVO			0	170.41666666666666	64.68333333333334		19540419	19540922	1	0	63	NMS	190	None									[38, 39, 85, 104, 105, 106, 107, 117]							L.Haimberger	0	0.4		None	26.24	era5.conv._C:4566	OSCAR
56	0-20000-0-38687	0	57	C:4549	3	TURKMENABAT			0	63.6	39.083333333333336		19540419	19540922	1	0	63	NMS	220	Turkmenabat									[38, 39, 85, 104, 105, 106, 107, 117]							L.Haimberger	0	0.4		3.2	190.0	era5.conv._C:4549	OSCAR
57	0-20000-0-62378	0	58	C:5982	3	HELWAN			0	31.349166666666665	29.86277777777778		19400227	19400227	1	0	63	NMS	64	Gizeh									[104, 105, 106, 107]							L.Haimberger	0	15.1		6.4	23.0	era5.conv._C:5982	OSCAR
58	0-20000-0-57845	0	59	57845	3	TONGDAO			0	109.78333333333332	26.166666666666668		19780804	19781231	1	0	63	NMS	47	Hongjiang									[104, 105, 106, 107, 117]							L.Haimberger	0	1.4		106.5	397.0	era5.conv._57845	OSCAR
59	0-20000-0-72221	0	60	2:3844	3	VALPARAISO/EGLIN AFB, FL.			0	-86.51666666666667	30.48333333333333		19490908	19491029	1	0	63	NMS	231	Crestview									[104, 105, 106, 107]							L.Haimberger	0	18.5		13.0	29.0	era5.conv._2:3844	OSCAR
60	0-20000-0-20353	0	61	C:6006	3	MYS ZELANIYA			0	68.55	76.95		19451222	19451222	1	0	63	NMS	190	None									[38, 39, 85, 117]							L.Haimberger	0	11.2		None	8.9	era5.conv._C:6006	OSCAR
61	0-20000-0-32389	0	62	C:4621	3	KLJUCHI			0	160.83333333333334	56.31666666666667		19541019	19550422	1	0	63	NMS	190	Yelizovo									[38, 39, 85, 104, 105, 106, 107, 117]							L.Haimberger	0	0.4		382.7	28.9	era5.conv._C:4621	OSCAR
62	0-20700-0-35925	0	63	1:35925	3	SAM                      			0	56.1	45.45		19680413	19691125	1	0	63	NMS	124	Beyneu									[104, 105, 106, 107]							L.Haimberger	0	9.6		78.9	-999.0	era5.conv._1:35925	WMO
63	0-20000-0-62378	0	64	C:6122	3	HELWAN			0	31.349166666666665	29.86277777777778		19480702	19481106	1	0	63	NMS	64	Cairo									[36, 85]							L.Haimberger	0	24.2		12.0	74.5	era5.conv._C:6122	OSCAR
64	0-20000-0-28445	0	65	C:4595	3	EKATERINBURG (VERHNEE DUBROVO)			0	61.06666666666667	56.73333333333333		19540419	19540922	1	0	63	NMS	190	Aramil									[38, 39, 85, 104, 105, 106, 107, 117]							L.Haimberger	0	0.4		14.7	287.72	era5.conv._C:4595	OSCAR
65	0-20000-0-92003	0	66	2:80437	3	DARU W.O.			0	143.2	-9.083333333333334		19631010	19631124	1	0	63	NMS	175	Daru									[38, 85, 117]							L.Haimberger	0	3.3		3.3	9.0	era5.conv._2:80437	OSCAR
66	0-20000-0-21824	0	67	C:4748	3	TIKSI			0	128.91666666666666	71.58333333333333		19440630	19451229	1	0	63	NMS	190	None									[38, 39, 85, 117]							L.Haimberger	0	0.4		None	7.0	era5.conv._C:4748	OSCAR
67	0-20000-0-82975	0	68	82975	3	BOM JESUS DO PIAUI (82975-0)			0	-44.36666666666667	-9.066666666666666		19770502	19781229	1	0	63	NMS	30	Bom Jesus									[104, 105, 106, 107, 117]							L.Haimberger	0	0.5		0.5	331.0	era5.conv._82975	OSCAR
68	0-20300-0-99013	0	69	6:100712	3	OCEAN WEATHER SHIP H			0	-71.0	38.0		19711101	19711101	1	0	63	NMS	231	Brigantine									[38, 85, 104, 105, 106, 107, 117]							L.Haimberger	0	20.8		322.5	-999.0	era5.conv._6:100712	IGRA2
69	0-20000-0-38064	0	70	C:4675	3	Tasboget AMS			0	65.52638888888889	44.76888888888889		19560727	19560821	1	0	63	NMS	124	Tasbuget									[38, 39, 85, 104, 105, 106, 107, 117]							L.Haimberger	0	5.7		5.5	130.0	era5.conv._C:4675	OSCAR
70	0-20001-0-34731	0	71	C:4643	3	ROSTOV-NA-DONU (34731-1)			0	39.81666666666667	47.25		19541019	19550422	1	0	63	NMS	190	Aksay									[38, 39, 85, 104, 105, 106, 107, 117]							L.Haimberger	0	0.3		3.7	78.0	era5.conv._C:4643	OSCAR
71	0-20000-0-63658	0	72	63658	3	SOROTI			0	33.61666666666667	1.7166666666666668		19730623	19781130	1	0	63	NMS	229	Soroti									[36, 38, 39, 85, 104, 105, 106, 107, 117]							L.Haimberger	0	0.5		3.8	1123.0	era5.conv._63658	OSCAR
72	0-20300-0-72257	0	73	2:3921	3	FT HOOD AAF/KILLEEN			0	-97.717	31.1		19520324	19520405	1	0	63	NMS	231	Gatesville									[104, 105, 106, 107]							L.Haimberger	0	29.9		7.5	282.0	era5.conv._2:3921	IGRA2
73	0-20000-0-38836	0	74	C:4671	3	DUSHANBE			0	68.73333333333333	38.583333333333336		19570831	19570930	1	0	63	NMS	217	Dushanbe									[38, 39, 85, 104, 105, 106, 107, 117]							L.Haimberger	0	0.5		4.4	800.0	era5.conv._C:4671	OSCAR
74	0-20000-0-65475	0	75	65475	3	ADA			0	0.6333333333333333	5.783333333333333		19740611	19740923	1	0	63	NMS	81	Anloga									[104, 105, 106, 107, 117]							L.Haimberger	0	4.1		33.2	5.2	era5.conv._65475	OSCAR
75	0-20000-0-66215	0	76	1:66215	3	MALANGE			0	16.366666666666667	-9.55		19660510	19740706	1	0	63	NMS	8	Malanje									[104, 105, 106, 107]							L.Haimberger	0	6.6		2.8	1142.0	era5.conv._1:66215	OSCAR
76	0-20000-0-47058	0	77	2:43210	3	PYONGYANG			0	125.78333333333332	39.03333333333333		19501025	19501031	1	0	63	NMS	120	Dandong									[104, 105, 106, 107]							L.Haimberger	0	3.5		173.7	36.0	era5.conv._2:43210	OSCAR
77	0-20300-0-70439	0	78	45702	3	AMCHITKA ISLAND			0	179.25	51.3833		19651011	19651030	1	0	63	NMS	231	None									[36, 38, 39, 85, 104, 105, 106, 107, 117]							L.Haimberger	0	0.4		None	67.1	era5.conv._45702	IGRA2
78	0-20300-0-99018	0	79	6:100014	3	OCEAN WEATHER SHIP M			0	2.0	66.0		19710517	19710529	1	0	63	NMS	166	None									[38, 85, 104, 105, 106, 107, 117]							L.Haimberger	0	27.2		None	7.010400000000001	era5.conv._6:100014	IGRA2
79	0-20000-0-43193	0	80	C:5473	3	VENGURLA			0	73.63333333333334	15.866666666666667		19411201	19420331	1	0	63	NMS	104	Vengurla									[104, 105, 106, 107]							L.Haimberger	0	1.9		1.9	16.1	era5.conv._C:5473	OSCAR
80	0-20000-0-41316	0	81	6:22840	3	SALALAH AIRPORT			0	54.07361111111111	17.034722222222225		19440101	19470513	1	0	63	NMS	171	Salalah									[104, 105, 106, 107]							L.Haimberger	0	3.3		4.0	23.0	era5.conv._6:22840	OSCAR
81	0-20000-0-30957	0	82	30954	3	AKSA			0	113.26666666666668	50.266666666666666		19781229	19781229	1	0	63	NMS	190	Aginskoye									[36, 38, 39, 85, 104, 105, 106, 107, 117]							L.Haimberger	0	1.0		127.9	732.2	era5.conv._30954	OSCAR
82	0-20300-0-99018	0	83	6:105261	3	OCEAN WEATHER SHIP M			0	2.0	66.0		19711010	19711010	1	0	63	NMS	166	None									[38, 85, 104, 105, 106, 107, 117]							L.Haimberger	0	18.2		None	7.010400000000001	era5.conv._6:105261	IGRA2
83	0-20000-0-67241	0	84	C:4832	3	LUMBO			0	40.66666666666666	-15.033333333333331		19560408	19561231	1	0	63	NMS	158	Mocambique									[104, 105, 106, 107]							L.Haimberger	0	1.7		7.3	11.0	era5.conv._C:4832	OSCAR
84	0-20500-0-31307	0	85	31307	3	ASOSA			0	34.52	10.07		19660220	19670227	1	0	63	NMS	68	Asosa									[36, 38, 39, 85, 104, 105, 106, 107, 117]							L.Haimberger	0	0.0		1.5	1603.248	era5.conv._31307	WBAN
85	0-20000-0-74494	0	86	2:14783	3	CHATHAM, MA.			0	-69.9588888888889	41.65694444444444		19431210	19440331	1	0	63	NMS	231	Yarmouth									[104, 105, 106, 107]							L.Haimberger	0	26.8		7.5	15.5	era5.conv._2:14783	OSCAR
86	0-20000-0-72688	0	87	2:24117	3	PENDLETON, OR.			0	-118.85	45.68333333333333		19411008	19420616	1	0	63	NMS	231	Pendleton									[104, 105, 106, 107]							L.Haimberger	0	2.2		3.3	456.0	era5.conv._2:24117	OSCAR
87	0-20000-0-78016	0	88	13602	3	L F WADE INTERNATIONAL AIRPORT			0	-64.67722222222223	32.36694444444444		19620706	19620706	1	0	63	NMS	27	None									[36, 38, 39, 85, 104, 105, 106, 107, 117]							L.Haimberger	0	19.5		None	4.0	era5.conv._13602	OSCAR
88	0-20000-0-08202	0	89	1:8202	3	SALAMANCA/MATACAN			0	-5.498333333333333	40.95944444444445		19680116	19691029	1	0	63	NMS	67	Santa Marta De Tormes									[38, 85, 104, 105, 106, 107, 117]							L.Haimberger	0	4.0		13.4	794.0	era5.conv._1:8202	OSCAR
89	0-20500-0-24048	0	90	24048	3	GREYBULL BIG HORN CO			0	-108.07	44.52		19620103	19620103	1	0	63	NMS	231	Sheridan									[36, 38, 39, 85, 104, 105, 106, 107, 117]							L.Haimberger	0	0.0		93.6	1198.7784	era5.conv._24048	WBAN
90	0-20000-0-41480	0	91	9:1708	3	ADEN			0	45.03333333333333	12.833333333333334		19440102	19481206	1	0	63	NMS	243	Aden									[104, 105, 106, 107]							L.Haimberger	0	1.5		4.5	3.0	era5.conv._9:1708	OSCAR
91	0-20000-0-63210	0	92	63210	3	BOSASO			0	49.18333333333333	11.283333333333331		19781207	19781207	1	0	63	NMS	205	Bosaso									[36, 38, 39, 85, 104, 105, 106, 107, 117]							L.Haimberger	0	0.5		0.6	2.0	era5.conv._63210	OSCAR
92	0-20300-0-99014	0	93	6:100194	3	OCEAN WEATHER SHIP I			0	-19.0	59.0		19710529	19710731	1	0	63	NMS	108	None									[38, 85, 104, 105, 106, 107, 117]							L.Haimberger	0	25.5		None	-999.0	era5.conv._6:100194	IGRA2
93	0-20000-0-47807	0	94	47808	3	FUKUOKA			0	130.3763888888889	33.58222222222223		19661110	19691211	1	0	63	NMS	113	Umi									[36, 38, 39, 85, 104, 105, 106, 107, 117]							L.Haimberger	0	6.8		4.9	12.15	era5.conv._47808	OSCAR
94	0-20000-0-15360	0	95	15360	3	SULINA			0	29.72694444444444	45.16222222222222		19730802	19740524	1	0	63	NMS	188	Kiliya									[104, 105, 106, 107, 117]							L.Haimberger	0	4.7		46.5	2.93	era5.conv._15360	OSCAR
95	0-20000-0-25563	0	96	C:6004	3	ANADYR'			0	177.56666666666666	64.78333333333333		19440630	19440707	1	0	63	NMS	190	Anadyr									[38, 85, 117]							L.Haimberger	0	0.5		4.9	60.94	era5.conv._C:6004	OSCAR
96	0-20300-0-99018	0	97	10120	3	OCEAN WEATHER SHIP M			0	2.0	66.0		19710110	19710110	1	0	63	NMS	166	Molde									[36, 38, 39, 85, 104, 105, 106, 107, 117]							L.Haimberger	0	24.1		454.5	7.010400000000001	era5.conv._10120	IGRA2
97	0-20000-0-28445	0	98	28445	3	EKATERINBURG (VERHNEE DUBROVO)			0	61.06666666666667	56.73333333333333		19571211	19571211	1	0	63	NMS	190	Aramil									[36, 38, 39, 85, 104, 105, 106, 107, 117]							L.Haimberger	0	0.4		14.7	287.72	era5.conv._28445	OSCAR
98	0-20500-0-30404	0	99	2:30404	3	CAPE TI NAK TEAM 6			0	43.83	6.67		19650721	19650909	1	0	63	NMS	68	Xuddur									[38, 85, 104, 105, 106, 107, 117]							L.Haimberger	0	0.0		282.5	453.2376	era5.conv._2:30404	WBAN
99	0-20000-0-38232	0	100	1:38232	3	AKKUDUK			0	54.095	42.97055555555556		19680201	19691125	1	0	63	NMS	124	Zhanaozen									[104, 105, 106, 107]							L.Haimberger	0	2.0		113.5	78.0	era5.conv._1:38232	OSCAR
100	0-20000-0-59158	0	101	1:46749	3	TAIZHONG			0	120.68333333333334	24.15		19610708	19620728	1	0	63	NMS	226	Taichung									[38, 104, 105, 106, 107]							L.Haimberger	0	0.3		0.8	78.0	era5.conv._1:46749	OSCAR
101	0-20000-0-08023	0	102	8023	3	SANTANDER			0	-3.800555555555556	43.49111111111111		19691016	19770902	1	0	63	NMS	67	Santander									[36, 38, 39, 85, 104, 105, 106, 107, 117]							L.Haimberger	0	2.8		1.4	59.0	era5.conv._08023	OSCAR
102	0-20000-0-83220	0	103	83220	3	RIO XINGU			0	-53.4	-12.0		19740806	19740906	1	0	63	NMS	30	Alta Floresta									[104, 105, 106, 107, 117]							L.Haimberger	0	0.0		358.6	-999.0	era5.conv._83220	OSCAR
103	0-20000-0-74465	0	104	2:14892	3	DUNNE CRIB IL.			0	-87.53333333333333	41.78333333333333		19440301	19440615	1	0	63	NMS	231	Chicago									[104, 105, 106, 107]							L.Haimberger	0	5.8		6.9	190.0	era5.conv._2:14892	OSCAR
104	0-20700-0-62780	0	105	62780	3	ZALINGEI                 			0	23.48333333333333	12.9		19740714	19740920	1	0	63	NMS	195	Adre									[36, 38, 39, 85, 104, 105, 106, 107, 117]							L.Haimberger	0	1.8		154.2	-999.0	era5.conv._62780	WMO
105	0-20000-0-16470	0	106	2:33118	3	PANTELLERIA			0	11.971111111111112	36.81388888888888		19430807	19430820	1	0	63	NMS	109	Manzil Tamim									[104, 105, 106, 107]							L.Haimberger	0	2.4		85.9	198.0	era5.conv._2:33118	OSCAR
106	0-20000-0-48855	0	107	1:48856	3	DA NANG			0	108.35	16.066666666666666		19660405	19670731	1	0	63	NMS	239	Da Nang									[38, 104, 105, 106, 107]							L.Haimberger	0	11.4		5.2	7.0	era5.conv._1:48856	OSCAR
107	0-20000-0-47938	0	108	42203	3	IEJIMA (US BASE)			0	127.78333333333332	26.716666666666665		19590601	19590827	1	0	63	NMS	113	Nago									[104, 105, 106, 107, 117]							L.Haimberger	0	5.0		28.8	7.1	era5.conv._42203	OSCAR
108	0-20500-0-93117	0	109	93117	3	SAN CLEMENTE IS NAAS			0	-118.58	33.02		19720330	19720406	1	0	63	NMS	231	Rancho Palos Verdes									[36, 38, 39, 85, 104, 105, 106, 107, 117]							L.Haimberger	0	0.0		82.3	53.0352	era5.conv._93117	WBAN
109	0-20000-0-26063	0	110	1:26065	3	ST.PETERSBURG (VOEJKOVO) (26063-0)			0	30.3	59.96666666666667		19540103	19561231	1	0	63	NMS	190	Saint Petersburg									[38, 85, 104, 105, 106, 107, 117]							L.Haimberger	0	4.1		4.7	6.0	era5.conv._1:26065	OSCAR
110	0-20000-0-30739	0	111	30739	3	HORINSK			0	109.785	52.16666666666666		19620809	19641231	1	0	63	NMS	190	Khilok									[36, 38, 39, 85, 104, 105, 106, 107, 117]							L.Haimberger	0	9.4		97.2	666.09	era5.conv._30739	OSCAR
111	0-20300-0-99008	0	112	6:100354	3	OCEAN WEATHER SHIP C			0	-35.5	52.75		19710417	19710417	1	0	63	NMS	83	None									[38, 85, 104, 105, 106, 107, 117]							L.Haimberger	0	8.8		None	-999.0	era5.conv._6:100354	IGRA2
112	0-20000-0-48431	0	113	41019	3	NAKHON RATCHASIMA			0	102.08583333333333	14.968055555555557		19680426	19680502	1	0	63	NMS	216	Nakhon Ratchasima									[36, 38, 39, 85, 104, 105, 106, 107, 117]							L.Haimberger	0	3.8		3.7	187.02	era5.conv._41019	OSCAR
113	0-20000-0-47186	0	114	1:47184	3	National Typhoon Center			0	126.67833333333334	33.331388888888895		19590401	19590430	1	0	63	NMS	121	Fukue									[38, 85, 104, 105, 106, 107, 117]							L.Haimberger	0	25.0		236.4	21.65	era5.conv._1:47184	OSCAR
114	0-20500-0-34122	0	115	2:34122	3	CASTELUCCIO			0	15.47	41.28		19441101	19450331	1	0	63	NMS	109	Orta Nova									[104, 105, 106, 107]							L.Haimberger	0	0.0		19.7	154.2288	era5.conv._2:34122	WBAN
115	0-20300-0-99006	0	116	6:100331	3	OCEAN WEATHER SHIP A			0	-33.0	62.0		19711015	19711015	1	0	63	NMS	83	None									[38, 85, 104, 105, 106, 107, 117]							L.Haimberger	0	12.3		None	-999.0	era5.conv._6:100331	IGRA2
116	0-20000-0-91801	0	117	91801	3	PENRHYN			0	-158.05	-9.033333333333331		19781201	19781231	1	0	63	NMS	174	None									[36, 38, 39, 85, 104, 105, 106, 107, 117]							L.Haimberger	0	4.3		None	1.0	era5.conv._91801	OSCAR
117	0-20000-0-63402	0	118	2:30306	3	JIMMA			0	36.833333333333336	7.666666666666667		19661219	19670227	1	0	63	NMS	68	Jimma									[38, 85, 104, 105, 106, 107, 117]							L.Haimberger	0	0.5		0.5	1725.0	era5.conv._2:30306	OSCAR
118	0-20000-0-47055	0	119	43243	3	WONSAN			0	127.43333333333334	39.18333333333333		19680719	19701004	1	0	63	NMS	120	Seoul									[36, 38, 39, 85, 104, 105, 106, 107, 117]							L.Haimberger	0	16.9		189.6	36.0	era5.conv._43243	OSCAR
119	0-20000-0-38462	0	120	C:4686	3	PSKEM			0	70.36666666666666	41.9		19620708	19620805	1	0	63	NMS	233	Lenger									[38, 39, 85, 104, 105, 106, 107, 117]							L.Haimberger	0	0.3		51.2	1255.0	era5.conv._C:4686	OSCAR
120	0-20000-0-59134	0	121	1:59137	3	XIAMEN			0	118.08333333333331	24.48333333333333		19600502	19610730	1	0	63	NMS	47	Xiamen									[38, 85, 104, 105, 106, 107, 117]							L.Haimberger	0	20.3		19.9	139.0	era5.conv._1:59137	OSCAR
121	0-20300-0-99015	0	122	6:100202	3	OCEAN WEATHER SHIP J			0	-20.0	52.5		19711030	19711030	1	0	63	NMS	101	None									[38, 85, 104, 105, 106, 107, 117]							L.Haimberger	0	17.6		None	-999.0	era5.conv._6:100202	IGRA2
122	0-20300-0-99010	0	123	10139	3	OCEAN WEATHER SHIP E			0	-48.0	35.0		19710503	19710503	1	0	63	NMS	37	None									[36, 38, 39, 85, 104, 105, 106, 107, 117]							L.Haimberger	0	0.0		None	-999.0	era5.conv._10139	IGRA2
123	0-20000-0-43150	0	124	43150	3	VISHAKHAPATNAM/WALTAIR			0	83.3	17.683333333333334		19680712	19680712	1	0	63	NMS	104	Visakhapatnam									[36, 38, 39, 85, 104, 105, 106, 107, 117]							L.Haimberger	0	0.4		2.2	69.9	era5.conv._43150	OSCAR
124	0-20000-0-30729	0	125	30729	3	KABANSK			0	106.64166666666668	52.05416666666667		19620809	19641231	1	0	63	NMS	190	Selenginsk									[36, 38, 39, 85, 104, 105, 106, 107, 117]							L.Haimberger	0	6.7		18.2	467.34	era5.conv._30729	OSCAR
125	0-20500-0-81412	0	126	2:81412	3	PRINCESS CHARLOTTE B			0	144.25	-14.4		19640115	19640724	1	0	63	NMS	13	Cairns									[38, 85, 104, 105, 106, 107, 117]							L.Haimberger	0	0.0		323.1	262.128	era5.conv._2:81412	WBAN
126	0-20000-0-63674	0	127	1:63674	3	KASESE			0	30.1	0.1833333333333333		19700319	19770516	1	0	63	NMS	229	Kasese									[38, 85, 104, 105, 106, 107]							L.Haimberger	0	1.8		13.6	961.0	era5.conv._1:63674	OSCAR
127	0-20000-0-89866	0	128	2:87602	3	MARBLE POINT			0	163.7538888888889	-77.4388888888889		19571223	19581231	1	0	63	NMS	9	None									[104, 105, 106, 107]							L.Haimberger	0	2.8		None	84.0	era5.conv._2:87602	OSCAR
128	0-20000-0-03462	0	129	1:3452	3	WITTERING			0	-0.4611111111111111	52.61138888888889		19490101	19490531	1	0	63	NMS	76	Oakham									[38, 85, 104, 105, 106, 107, 117]							L.Haimberger	0	20.0		10.8	73.0	era5.conv._1:3452	OSCAR
129	0-20000-0-08238	0	130	1:8238	3	TORTOSA			0	0.4933333333333333	40.82027777777778		19661201	19711127	1	0	63	NMS	67	Tortosa									[104, 105, 106, 107]							L.Haimberger	0	0.6		2.0	50.0	era5.conv._1:8238	OSCAR
130	0-894-1-CITY005	0	131	1:67665	3	LUSAKA CITY AIRPORT			0	28.466666666666665	-15.416666666666666		19700512	19711126	1	0	63	NMS	247	Lusaka									[104, 105, 106, 107]							L.Haimberger	0	10.8		20.8	1154.0	era5.conv._1:67665	OSCAR
131	0-20000-0-07434	0	132	7434	3	LIMOGES-BELLEGARDE			0	1.175	45.86111111111112		19730708	19780612	1	0	63	NMS	74	Limoges									[104, 105, 106, 107, 117]							L.Haimberger	0	1.1		7.4	403.0	era5.conv._07434	OSCAR
132	0-20000-0-82240	0	133	82240	3	PARINTINS (82240-0)			0	-56.73333333333333	-2.6333333333333333		19740706	19740706	1	0	63	NMS	30	Parintins									[36, 38, 39, 85, 104, 105, 106, 107, 117]							L.Haimberger	0	5.2		3.7	29.0	era5.conv._82240	OSCAR
133	0-404-300-472781389CO63741	0	134	63739	3	DAGORETTI CORNER			0	36.75972222222222	-1.301388888888889		19740911	19740911	1	0	63	NMS	114	Nairobi									[36, 38, 39, 85, 104, 105, 106, 107, 117]							L.Haimberger	0	4.5		2.6	1639.26	era5.conv._63739	OSCAR
134	0-20000-0-65028	0	135	65028	3	KATSINA			0	7.683333333333334	13.016666666666667		19740620	19740630	1	0	63	NMS	163	Katsina									[36, 38, 39, 85, 104, 105, 106, 107, 117]							L.Haimberger	0	2.6		10.8	517.6	era5.conv._65028	OSCAR
135	0-20000-0-61230	0	136	61230	3	NIORO DU SAHEL			0	-9.35	15.233333333333333		19740922	19740922	1	0	63	NMS	144	Nioro									[36, 38, 39, 85, 104, 105, 106, 107, 117]							L.Haimberger	0	6.5		20.0	237.0	era5.conv._61230	OSCAR
136	0-20000-0-15080	0	137	15080	3	ORADEA			0	21.89583333333333	47.03583333333333		19730621	19781228	1	0	63	NMS	188	Oradea									[104, 105, 106, 107, 117]							L.Haimberger	0	3.0		4.1	137.2	era5.conv._15080	OSCAR
137	0-20000-0-72221	0	138	2:3862	3	VALPARAISO/EGLIN AFB, FL.			0	-86.51666666666667	30.48333333333333		19601005	19640929	1	0	63	NMS	231	Wright									[104, 105, 106, 107]							L.Haimberger	0	27.2		15.8	29.0	era5.conv._2:3862	OSCAR
138	0-20000-0-91369	0	139	91369	3	JALUIT ATOLL, MARSHALL IS.			0	169.65	5.916666666666667		19730926	19750611	1	0	63	NMS	142	Bairiki									[104, 105, 106, 107, 117]							L.Haimberger	0	0.4		628.3	3.0	era5.conv._91369	OSCAR
139	0-20000-0-67485	0	140	67485	3	MZIMBA			0	33.61666666666667	-11.883333333333333		19740112	19740912	1	0	63	NMS	155	Mzimba									[104, 105, 106, 107, 117]							L.Haimberger	0	0.5		3.1	1351.0	era5.conv._67485	OSCAR
140	0-20000-0-38599	0	141	38599	3	KHUDJANT			0	69.73333333333333	40.21666666666667		19740215	19780207	1	0	63	NMS	217	Gafurov									[104, 105, 106, 107, 117]							L.Haimberger	0	0.5		2.1	427.0	era5.conv._38599	OSCAR
141	0-20000-0-87320	0	142	1:87320	3	CHAMICAL AERO			0	-66.2961111111111	-30.34777777777777		19630522	19680417	1	0	63	NMS	10	La Rioja									[38, 85, 104, 105, 106, 107, 117]							L.Haimberger	0	5.8		119.7	-999.0	era5.conv._1:87320	OSCAR
142	0-20500-0-33703	0	143	9:4194	3	PESHAWAR			0	71.58	34.02		19400410	19410717	1	0	63	NMS	177	Peshawar									[38, 85, 117]							L.Haimberger	0	6.0		5.5	354.17760000000004	era5.conv._9:4194	WBAN
143	0-20000-0-38232	0	144	38232	3	AKKUDUK			0	54.095	42.97055555555556		19620315	19691125	1	0	63	NMS	124	Zhanaozen									[36, 38, 39, 85, 104, 105, 106, 107, 117]							L.Haimberger	0	2.0		113.5	78.0	era5.conv._38232	OSCAR
144	0-20000-0-60602	0	145	1:60600	3	BENI-ABBES			0	-2.1666666666666665	30.133333333333333		19570717	19690527	1	0	63	NMS	61	Adrar									[38, 85, 104, 105, 106, 107, 117]							L.Haimberger	0	4.9		308.0	505.0	era5.conv._1:60600	OSCAR
145	0-20300-0-99014	0	146	6:100187	3	OCEAN WEATHER SHIP I			0	-19.0	59.0		19710612	19710612	1	0	63	NMS	108	None									[38, 85, 104, 105, 106, 107, 117]							L.Haimberger	0	17.2		None	-999.0	era5.conv._6:100187	IGRA2
146	0-20400-0-5976	0	147	C:5976	3	Uyuni			0	-66.83	-20.47		19450124	19450124	1	0	63	NMS	29	Uyuni									[104, 105, 106, 107]							L.Haimberger	0	0.0		0.5	3675.0	era5.conv._C:5976	CHUAN
147	0-20000-0-62375	0	148	C:5000	3	GIZA - AGRIMET			0	31.216666666666665	30.05		19520214	19530320	1	0	63	NMS	64	Madinat Sittah Uktubar									[38, 85]							L.Haimberger	0	26.1		7.3	23.0	era5.conv._C:5000	OSCAR
148	0-20000-0-22113	0	149	C:4630	3	MURMANSK (22113-0)			0	33.04277777777778	68.95583333333333		19541019	19550422	1	0	63	NMS	190	Murmansk									[38, 39, 85, 104, 105, 106, 107, 117]							L.Haimberger	0	5.8		2.6	50.6	era5.conv._C:4630	OSCAR
149	0-20000-0-12580	0	150	1:12580	3	RZESZOW-JASIONKA			0	22.02	50.11138888888889		19691020	19741117	1	0	63	NMS	178	Rzeszow									[38, 85, 104, 105, 106, 107, 117]							L.Haimberger	0	5.9		7.7	212.56	era5.conv._1:12580	OSCAR
150	0-20000-0-71731	0	151	4705	3	NORTH BAY A, ONT			0	-79.42277777777778	46.36361111111111		19570901	19580212	1	0	63	NMS	37	North Bay									[104, 105, 106, 107, 117]							L.Haimberger	0	0.7		8.1	370.3	era5.conv._04705	OSCAR
151	0-20000-0-07037	0	152	1:7036	3	ROUEN-BOOS			0	1.1816666666666666	49.38305555555556		19660302	19670530	1	0	63	NMS	74	Le Grand-Quevilly									[104, 105, 106, 107]							L.Haimberger	0	9.6		2.3	152.0	era5.conv._1:7036	OSCAR
152	0-20000-0-36091	0	153	36091	3	NIZHNEUSINSKOE			0	93.01333333333334	52.25666666666667		19781209	19781209	1	0	63	NMS	190	Shagonar									[36, 38, 39, 85, 104, 105, 106, 107, 117]							L.Haimberger	0	1.7		83.1	662.14	era5.conv._36091	OSCAR
153	0-20500-0-53807	0	154	10855	3	PLAINS PETERSON FIEL			0	-84.37	32.08		19710115	19710115	1	0	63	NMS	231	Americus									[36, 38, 39, 85, 104, 105, 106, 107, 117]							L.Haimberger	0	18.1		28.9	160.6296	era5.conv._10855	WBAN
154	0-20000-0-41780	0	155	9:4190	3	KARACHI AIRPORT			0	67.13333333333334	24.9		19400103	19411129	1	0	63	NMS	177	Karachi									[38, 85, 117]							L.Haimberger	0	10.4		5.3	16.0	era5.conv._9:4190	OSCAR
155	0-20000-0-91533	0	156	80606	3	BANABA			0	169.53333333333333	-0.9		19650416	19650812	1	0	63	NMS	168	Bairiki									[36, 38, 39, 85, 104, 105, 106, 107, 117]							L.Haimberger	0	6.2		447.9	66.0	era5.conv._80606	OSCAR
156	0-705-0-1950	0	157	1:13027	3	MARIBOR - VRBANSKI PLATO			0	15.626111111111111	46.56777777777778		19550102	19570430	1	0	63	NMS	199	Maribor									[38, 104, 105, 106, 107]							L.Haimberger	0	4.6		2.8	265.0	era5.conv._1:13027	OSCAR
157	0-20000-0-48108	0	158	C:5437	3	DAWEI			0	98.21666666666668	14.1		19400102	19420302	1	0	63	NMS	145	Dawei									[104, 105, 106, 107]							L.Haimberger	0	1.8		1.8	17.0	era5.conv._C:5437	OSCAR
158	0-20000-0-70381	0	159	25309	3	JUNEAU			0	-134.58333333333334	58.36666666666667		19570901	19590225	1	0	63	NMS	231	Juneau									[104, 105, 106, 107, 117]							L.Haimberger	0	0.4		12.1	7.0	era5.conv._25309	OSCAR
159	0-20000-0-30385	0	160	30385	3	UST'-NJUKZHA			0	121.5	56.583333333333336		19781229	19781229	1	0	63	NMS	190	Neryungri									[36, 38, 39, 85, 104, 105, 106, 107, 117]							L.Haimberger	0	1.3		194.8	425.6	era5.conv._30385	OSCAR
160	0-20000-0-80403	0	161	80403	3	CORO			0	-69.68333333333334	11.416666666666666		19740701	19740819	1	0	63	NMS	236	Coro									[36, 38, 39, 85, 104, 105, 106, 107, 117]							L.Haimberger	0	2.6		3.7	17.0	era5.conv._80403	OSCAR
161	0-20300-0-99014	0	162	6:100189	3	OCEAN WEATHER SHIP I			0	-19.0	59.0		19710519	19710710	1	0	63	NMS	108	None									[38, 85, 104, 105, 106, 107, 117]							L.Haimberger	0	12.5		None	-999.0	era5.conv._6:100189	IGRA2
162	0-20300-0-38341	0	163	C:4670	3	TARAZ			0	71.3	42.85		19560729	19560821	1	0	63	NMS	124	Taraz									[38, 39, 85, 104, 105, 106, 107, 117]							L.Haimberger	0	6.5		5.7	652.0	era5.conv._C:4670	IGRA2
163	0-20000-0-61698	0	164	61698	3	KOLDA			0	-14.97	12.88		19740618	19740618	1	0	63	NMS	204	Kolda									[36, 38, 39, 85, 104, 105, 106, 107, 117]							L.Haimberger	0	3.9		5.7	8.38	era5.conv._61698	OSCAR
164	0-20300-0-99010	0	165	6:101348	3	OCEAN WEATHER SHIP E			0	-48.0	35.0		19711111	19711111	1	0	63	NMS	37	None									[38, 85, 104, 105, 106, 107, 117]							L.Haimberger	0	11.1		None	-999.0	era5.conv._6:101348	IGRA2
165	0-20000-0-84203	0	166	84203	3	GUAYAQUIL AEROPUERTO			0	-79.88388888888889	-2.1580555555555554		19781121	19781231	1	0	63	NMS	62	Guayaquil									[36, 38, 39, 85, 104, 105, 106, 107, 117]							L.Haimberger	0	1.0		2.9	6.0	era5.conv._84203	OSCAR
166	0-20000-0-70162	0	167	2:26537	3	UMIAT			0	-152.13333333333333	69.36666666666666		19540501	19540804	1	0	63	NMS	231	College									[104, 105, 106, 107]							L.Haimberger	0	0.4		536.9	117.3	era5.conv._2:26537	OSCAR
167	0-20000-0-54471	0	168	54471	3	YINGKOU			0	122.16666666666669	40.66666666666666		19590920	19591231	1	0	63	NMS	47	Dashiqiao									[36, 38, 39, 85, 104, 105, 106, 107, 117]							L.Haimberger	0	5.4		23.3	5.0	era5.conv._54471	OSCAR
168	0-20000-0-30758	0	169	C:4612	3	CHITA			0	113.48333333333332	52.083333333333336		19541019	19550422	1	0	63	NMS	190	Chita									[38, 39, 85, 104, 105, 106, 107, 117]							L.Haimberger	0	3.7		2.5	670.6	era5.conv._C:4612	OSCAR
169	0-20000-0-42123	0	170	42123	3	GANGANAGAR			0	73.88333333333334	29.916666666666668		19740206	19740627	1	0	63	NMS	104	Ganganagar									[104, 105, 106, 107, 117]							L.Haimberger	0	0.5		0.5	177.0	era5.conv._42123	OSCAR
170	0-20500-0-24048	0	171	2:24048	3	GREYBULL BIG HORN CO			0	-108.07	44.52		19620103	19620103	1	0	63	NMS	231	Sheridan									[38, 85, 104, 105, 106, 107, 117]							L.Haimberger	0	0.0		93.6	1198.7784	era5.conv._2:24048	WBAN
171	0-20000-0-47516	0	172	47516	3	OMINATO AB			0	141.13222222222225	41.23277777777778		19770901	19781223	1	0	63	NMS	113	Mutsu									[104, 105, 106, 107, 117]							L.Haimberger	0	1.5		8.7	10.32	era5.conv._47516	OSCAR
172	0-20300-0-67017	0	173	1:67017	3	VOHEMAR			0	50.0	-13.367		19691203	19771106	1	0	63	NMS	141	Sambava									[104, 105, 106, 107]							L.Haimberger	0	0.3		101.9	5.0	era5.conv._1:67017	IGRA2
173	0-20000-0-62615	0	174	62615	3	HALIB			0	36.65	22.216666666666665		19740727	19740727	1	0	63	NMS	64	Jiddah									[36, 38, 39, 85, 104, 105, 106, 107, 117]							L.Haimberger	0	5.5		271.1	2.0	era5.conv._62615	OSCAR
174	0-20000-0-32540	0	175	C:4574	3	PETROPAVLOVSK-KAMCHATSKIJ (32540-0)			0	158.58333333333334	53.083333333333336		19540419	19540921	1	0	63	NMS	190	Yelizovo									[38, 39, 85, 104, 105, 106, 107, 117]							L.Haimberger	0	17.4		15.6	83.9	era5.conv._C:4574	OSCAR
175	0-20000-0-89070	0	176	88938	3	GABRIEL DE CASTILLA			0	-60.67583333333333	-62.977222222222224		19570923	19580211	1	0	63	NMS	9	None									[104, 105, 106, 107, 117]							L.Haimberger	0	5.4		None	12.0	era5.conv._88938	OSCAR
176	0-20000-0-29594	0	177	29594	3	TAJSHET			0	98.0	55.95		19781225	19781225	1	0	63	NMS	190	Tayshet									[36, 38, 39, 85, 104, 105, 106, 107, 117]							L.Haimberger	0	0.0		1.8	306.8	era5.conv._29594	OSCAR
177	0-20000-0-78365	0	178	78361	3	PUNTA LUCRECIA,  HOLGUIN			0	-75.61666666666666	21.066666666666663		19740821	19740821	1	0	63	NMS	50	Banes									[36, 38, 39, 85, 104, 105, 106, 107, 117]							L.Haimberger	0	11.4		4.6	4.0	era5.conv._78361	OSCAR
178	0-20000-0-30935	0	179	C:4560	3	KRASNYJ CHIKOJ			0	108.75	50.36666666666667		19540419	19540922	1	0	63	NMS	190	Petrovsk-Zabaykalskiy									[38, 39, 85, 104, 105, 106, 107, 117]							L.Haimberger	0	0.4		96.4	770.5	era5.conv._C:4560	OSCAR
179	0-20000-0-47127	0	180	2:43230	3	CHUNGJU			0	127.95277777777778	36.97027777777778		19510219	19510228	1	0	63	NMS	121	Seoul									[104, 105, 106, 107]							L.Haimberger	0	16.1		124.5	116.52	era5.conv._2:43230	OSCAR
180	0-20000-0-62762	0	181	62762	3	SENNAR			0	33.61666666666667	13.55		19740918	19740918	1	0	63	NMS	195	Sinnar									[36, 38, 39, 85, 104, 105, 106, 107, 117]							L.Haimberger	0	5.8		6.6	418.0	era5.conv._62762	OSCAR
181	0-20000-0-76491	0	182	1:76491	3	CIUDAD VICTORIA, TAMPS.			0	-99.17	23.7425		19500401	19620830	1	0	63	NMS	156	Gonzalez									[38, 85, 104, 105, 106, 107, 117]							L.Haimberger	0	6.3		111.2	336.0	era5.conv._1:76491	OSCAR
182	0-20000-0-76903	0	183	76903	3	TAPACHULA, CHIS			0	-92.29638888888888	14.887222222222222		19620304	19630429	1	0	63	NMS	156	Tapachula									[36, 38, 39, 85, 104, 105, 106, 107, 117]							L.Haimberger	0	10.5		9.0	118.0	era5.conv._76903	OSCAR
183	0-20000-0-32071	0	184	32071	3	TYMOVSKOE			0	142.71666666666667	50.73333333333333		19750131	19750131	1	0	63	NMS	190	Aleksandrovsk-Sakhalinskiy									[36, 38, 39, 85, 104, 105, 106, 107, 117]							L.Haimberger	0	3.7		45.4	95.0	era5.conv._32071	OSCAR
184	0-20500-0-26459	0	185	70192	3	POKER FLAT			0	-147.48	65.12		19730207	19730628	1	0	63	NMS	231	College									[36, 38, 39, 85, 104, 105, 106, 107, 117]							L.Haimberger	0	0.0		33.0	196.9008	era5.conv._70192	WBAN
185	0-20300-0-12863	0	186	2:12807	3	BURRWOOD			0	-89.3667	28.9833		19420803	19440205	1	0	63	NMS	231	Estelle									[104, 105, 106, 107]							L.Haimberger	0	3.7		122.3	2.7	era5.conv._2:12807	IGRA2
186	0-20000-0-59985	0	187	59985	3	SANHU DAO			0	111.61666666666666	16.533333333333335		19781229	19781229	1	0	63	NMS	47	Wanning									[36, 38, 39, 85, 104, 105, 106, 107, 117]							L.Haimberger	0	0.5		282.8	5.0	era5.conv._59985	OSCAR
187	0-20000-0-03214	0	188	1:3213	3	WALNEY ISLAND			0	-3.2580555555555555	54.125		19691118	19771214	1	0	63	NMS	76	Whitehaven									[38, 85, 104, 105, 106, 107, 117]							L.Haimberger	0	23.6		28.7	15.0	era5.conv._1:3213	OSCAR
188	0-20000-0-07648	0	189	2:34023	3	SALON DE PROVENCE			0	5.104166666666666	43.60361111111112		19440829	19440905	1	0	63	NMS	74	Salon-De-Provence									[104, 105, 106, 107]							L.Haimberger	0	3.0		1.2	59.0	era5.conv._2:34023	OSCAR
189	0-20300-0-99016	0	190	6:104655	3	OCEAN WEATHER SHIP K			0	-16.0	45.0		19711121	19711121	1	0	63	NMS	67	None									[38, 85, 104, 105, 106, 107, 117]							L.Haimberger	0	15.8		None	-999.0	era5.conv._6:104655	IGRA2
190	0-20000-0-98432	0	191	2:41213	3	AMBULONG			0	121.05	14.083333333333334		19450626	19450907	1	0	63	NMS	176	Lipa									[104, 105, 106, 107]							L.Haimberger	0	14.6		5.6	372.0	era5.conv._2:41213	OSCAR
191	0-20000-0-07471	0	192	1:7470	3	LE PUY-LOUDES			0	3.763888888888889	45.074444444444445		19691018	19721225	1	0	63	NMS	74	Firminy									[38, 85, 104, 105, 106, 107, 117]							L.Haimberger	0	11.1		48.4	833.0	era5.conv._1:7470	OSCAR
192	0-20000-0-60096	0	193	1:60096	3	DAKHLA			0	-15.930833333333332	23.711111111111112		19640814	19751206	1	0	63	NMS	65	Nouadhibou									[104, 105, 106, 107]							L.Haimberger	0	6.3		331.4	8.71	era5.conv._1:60096	OSCAR
193	0-20700-0-63013	0	194	1:63013	3	AGORDAT                  			0	37.88333333333333	15.55		19490203	19570916	1	0	63	NMS	66	Barentu									[38, 104, 105, 106, 107]							L.Haimberger	0	0.4		57.3	-999.0	era5.conv._1:63013	WMO
194	0-20000-0-41739	0	195	1:41739	3	PANJGUR			0	64.1	26.966666666666665		19640607	19770131	1	0	63	NMS	177	Turbat									[38, 85, 104, 105, 106, 107, 117]							L.Haimberger	0	3.7		150.3	981.0	era5.conv._1:41739	OSCAR
195	0-20000-0-17124	0	196	1:17124	3	ESKISEHIR HAVALIMANI			0	30.579722222222223	39.78111111111111		19670513	19680222	1	0	63	NMS	223	Eskisehir									[104, 105, 106, 107]							L.Haimberger	0	5.3		0.7	786.0	era5.conv._1:17124	OSCAR
196	0-20000-0-94393	0	197	10080	3	FREDERICK REEF			0	154.40194444444444	-20.9375		19720508	19720508	1	0	63	NMS	13	Yeppoon									[36, 38, 39, 85, 104, 105, 106, 107, 117]							L.Haimberger	0	4.2		450.8	12.8	era5.conv._10080	OSCAR
197	0-20000-0-31532	0	198	31532	3	CEKUNDA			0	132.25	50.86666666666667		19781202	19781202	1	0	63	NMS	190	Chegdomyn									[36, 38, 39, 85, 104, 105, 106, 107, 117]							L.Haimberger	0	7.7		68.0	271.8	era5.conv._31532	OSCAR
198	0-20000-0-16253	0	199	2:34114	3	GRAZZANISE			0	14.078888888888889	41.06055555555555		19440328	19440512	1	0	63	NMS	109	Teano									[104, 105, 106, 107]							L.Haimberger	0	16.3		6.8	10.0	era5.conv._2:34114	OSCAR
199	0-20000-0-67403	0	200	67403	3	KAWAMBWA			0	29.08333333333333	-9.8		19740603	19740607	1	0	63	NMS	247	Kawambwa									[36, 38, 39, 85, 104, 105, 106, 107, 117]							L.Haimberger	0	1.8		2.6	1324.0	era5.conv._67403	OSCAR
200	0-20000-0-72408	0	201	6:110052	3	PHILADELPHIA/INT., PA.			0	-75.25	39.88333333333333		19700811	19701110	1	0	63	NMS	231	Ardmore									[38, 85, 104, 105, 106, 107, 117]							L.Haimberger	0	13.2		5.7	9.0	era5.conv._6:110052	OSCAR
201	0-20000-0-72507	0	202	2:14713	3	PROVIDENCE/GREEN STATE, RI.			0	-71.43333333333334	41.73333333333333		19440603	19440621	1	0	63	NMS	231	West Warwick									[104, 105, 106, 107]							L.Haimberger	0	3.1		5.2	19.0	era5.conv._2:14713	OSCAR
202	0-20000-0-62440	0	203	C:4941	3	ISMAILIA			0	32.24722222222222	30.591666666666665		19400417	19540329	1	0	63	NMS	64	Ismailia									[104, 105, 106, 107]							L.Haimberger	0	2.5		0.5	12.74	era5.conv._C:4941	OSCAR
203	0-20000-0-64156	0	204	64156	3	KALIMA			0	26.55	-2.6		19740926	19740926	1	0	63	NMS	39	Kindu									[36, 38, 39, 85, 104, 105, 106, 107, 117]							L.Haimberger	0	5.6		82.0	-999.0	era5.conv._64156	OSCAR
204	0-20000-0-61450	0	205	61450	3	TIDJIKJA			0	-11.433333333333334	18.566666666666663		19740914	19740914	1	0	63	NMS	150	Atar									[104, 105, 106, 107, 117]							L.Haimberger	0	0.5		274.5	402.0	era5.conv._61450	OSCAR
205	0-20000-0-47931	0	206	2:42202	3	KADENA			0	127.76777777777778	26.35555555555556		19520906	19530728	1	0	63	NMS	113	Yomitan									[104, 105, 106, 107]							L.Haimberger	0	3.2		2.2	46.59	era5.conv._2:42202	OSCAR
206	0-20300-0-23140	0	207	2:23140	3	COOLIDGE (AAF)			0	-111.4333	32.9333		19441018	19451031	1	0	63	NMS	231	Florence									[104, 105, 106, 107]							L.Haimberger	0	0.5		11.7	481.3	era5.conv._2:23140	IGRA2
207	0-20000-0-38457	0	208	C:4591	3	TASHKENT			0	69.3	41.333333333333336		19540419	19540922	1	0	63	NMS	233	Tashkent									[38, 39, 85, 104, 105, 106, 107, 117]							L.Haimberger	0	0.4		4.4	477.0	era5.conv._C:4591	OSCAR
208	0-20000-0-43185	0	209	43185	3	MACHILIPATNAM/FRANCHPET			0	81.15	16.2		19600707	19610719	1	0	63	NMS	104	Machilipatnam									[104, 105, 106, 107, 117]							L.Haimberger	0	3.1		1.5	9.77	era5.conv._43185	OSCAR
209	0-20700-0-36428	0	210	1:36421	3	ULKEN NARYN              			0	84.0	49.0		19660603	19680430	1	0	63	NMS	124	Zyryanovsk									[104, 105, 106, 107]							L.Haimberger	0	22.2		63.1	-999.0	era5.conv._1:36421	WMO
210	0-20000-0-08190	0	211	1:8181	3	BARCELONA SERVEI			0	2.118055555555556	41.38444444444444		19680705	19720126	1	0	63	NMS	67	El Prat De Llobregat									[38, 85, 104, 105, 106, 107, 117]							L.Haimberger	0	12.0		5.5	5.0	era5.conv._1:8181	OSCAR
211	0-20000-0-07482	0	212	2:34021	3	AMBERIEU			0	5.329444444444444	45.97638888888889		19440911	19440920	1	0	63	NMS	74	Amberieu-En-Bugey									[104, 105, 106, 107]							L.Haimberger	0	0.7		1.6	252.0	era5.conv._2:34021	OSCAR
212	0-20000-0-30054	0	213	C:4596	3	VITIM			0	112.58333333333331	59.45		19540419	19540922	1	0	63	NMS	190	Lensk									[38, 39, 85, 104, 105, 106, 107, 117]							L.Haimberger	0	0.2		193.0	190.0	era5.conv._C:4596	OSCAR
213	0-20000-0-89070	0	214	1:88938	3	GABRIEL DE CASTILLA			0	-60.67583333333333	-62.977222222222224		19530102	19580626	1	0	63	NMS	9	None									[38, 104, 105, 106, 107]							L.Haimberger	0	5.4		None	12.0	era5.conv._1:88938	OSCAR
214	0-20000-0-24343	0	215	C:4660	3	ZHIGANSK			0	123.4	66.76666666666667		19541119	19550422	1	0	63	NMS	190	None									[38, 39, 85, 104, 105, 106, 107, 117]							L.Haimberger	0	0.4		None	92.36	era5.conv._C:4660	OSCAR
215	0-20000-0-72212	0	216	2:12822	3	CROSS CITY/CROSS CITY A., FL.			0	-83.1	29.616666666666667		19431221	19440229	1	0	63	NMS	231	Gainesville									[104, 105, 106, 107]							L.Haimberger	0	2.4		77.0	13.0	era5.conv._2:12822	OSCAR
216	0-20500-0-94141	0	217	2:94141	3	WASHTUCNA			0	-118.33	46.73		19491203	19491204	1	0	63	NMS	231	Walla Walla									[104, 105, 106, 107]							L.Haimberger	0	0.0		74.0	310.896	era5.conv._2:94141	WBAN
217	0-20000-0-07577	0	218	1:7577	3	MONTELIMAR			0	4.733055555555556	44.58111111111111		19691018	19720831	1	0	63	NMS	74	Montelimar									[104, 105, 106, 107]							L.Haimberger	0	0.3		2.9	74.0	era5.conv._1:7577	OSCAR
218	0-20700-0-62801	0	219	62801	3	ER-RENK                  			0	32.78333333333333	11.75		19740724	19740724	1	0	63	NMS	252	Marabba									[104, 105, 106, 107, 117]							L.Haimberger	0	5.8		90.6	-999.0	era5.conv._62801	WMO
219	0-20300-0-99006	0	220	6:100328	3	OCEAN WEATHER SHIP A			0	-33.0	62.0		19710712	19710712	1	0	63	NMS	83	None									[38, 85, 104, 105, 106, 107, 117]							L.Haimberger	0	15.3		None	-999.0	era5.conv._6:100328	IGRA2
220	0-20000-0-42895	0	221	9:1737	3	BALASORE			0	86.93333333333334	21.516666666666666		19450916	19480229	1	0	63	NMS	104	Baleshwar									[104, 105, 106, 107]							L.Haimberger	0	1.9		0.7	18.2	era5.conv._9:1737	OSCAR
221	0-20300-0-99013	0	222	10168	3	OCEAN WEATHER SHIP H			0	-71.0	38.0		19711010	19711010	1	0	63	NMS	231	Brigantine									[36, 38, 39, 85, 104, 105, 106, 107, 117]							L.Haimberger	0	0.0		331.9	-999.0	era5.conv._10168	IGRA2
222	0-20000-0-30650	0	223	30650	3	ROMANOVKA			0	112.78333333333332	53.2		19620809	19641231	1	0	63	NMS	190	Chita									[36, 38, 39, 85, 104, 105, 106, 107, 117]							L.Haimberger	0	5.6		140.9	922.7	era5.conv._30650	OSCAR
223	0-20000-0-72428	0	224	2:93834	3	COLUMBUS/PORT COLUMBUS, OH.			0	-82.88333333333334	40.0		19491002	19500813	1	0	63	NMS	231	Whitehall									[104, 105, 106, 107]							L.Haimberger	0	2.2		1.6	254.0	era5.conv._2:93834	OSCAR
224	0-20000-0-20353	0	225	C:4572	3	MYS ZELANIYA			0	68.55	76.95		19540419	19540922	1	0	63	NMS	190	None									[38, 39, 85, 104, 105, 106, 107, 117]							L.Haimberger	0	0.8		None	8.9	era5.conv._C:4572	OSCAR
225	0-20000-0-65010	0	226	65010	3	SOKOTO			0	5.25	13.016666666666667		19740715	19740823	1	0	63	NMS	163	Sokoto									[36, 38, 39, 85, 104, 105, 106, 107, 117]							L.Haimberger	0	5.7		10.7	350.8	era5.conv._65010	OSCAR
226	0-20000-0-67761	0	227	67761	3	KARIBA			0	28.883333333333333	-16.516666666666666		19730104	19771110	1	0	63	NMS	248	Kariba									[104, 105, 106, 107, 117]							L.Haimberger	0	12.1		3.2	518.0	era5.conv._67761	OSCAR
227	0-20000-0-65208	0	228	65208	3	IBADAN			0	3.9	7.433333333333334		19740808	19740808	1	0	63	NMS	163	Ibadan									[106, 107, 117]							L.Haimberger	0	0.4		4.7	227.2	era5.conv._65208	OSCAR
228	0-20000-0-95805	0	229	94805	3	CAPE BORDA			0	136.59583333333333	-35.755		19710616	19730228	1	0	63	NMS	13	Port Lincoln									[36, 38, 39, 85, 104, 105, 106, 107, 117]							L.Haimberger	0	2.2		136.2	158.3	era5.conv._94805	OSCAR
229	0-20000-0-07168	0	230	1:7160	3	TROYES-BARBEREY			0	4.02	48.32472222222223		19691115	19720817	1	0	63	NMS	74	Romilly-Sur-Seine									[38, 85, 104, 105, 106, 107, 117]							L.Haimberger	0	27.9		2.1	118.0	era5.conv._1:7160	OSCAR
230	0-20000-0-21432	0	231	C:4642	3	OSTROV KOTEL'NYJ			0	137.86666666666667	76.0		19541019	19550422	1	0	63	NMS	190	None									[38, 39, 85, 104, 105, 106, 107, 117]							L.Haimberger	0	0.9		None	14.9	era5.conv._C:4642	OSCAR
231	0-20000-0-64707	0	232	64707	3	MOUSSORO			0	16.5	13.65		19740724	19740724	1	0	63	NMS	213	Moussoro									[104, 105, 106, 107, 117]							L.Haimberger	0	5.5		6.5	-999.0	era5.conv._64707	OSCAR
232	0-20000-0-76499	0	233	76499	3	SOTO LA MARINA,  TAMPS.			0	-98.20805555555556	23.764166666666668		19630402	19680817	1	0	63	NMS	156	Aldama									[36, 38, 39, 85, 104, 105, 106, 107, 117]							L.Haimberger	0	7.2		87.8	21.0	era5.conv._76499	OSCAR
233	0-20300-0-99019	0	234	6:101400	3	OCEAN WEATHER SHIP N			0	-140.0	30.0		19710227	19710923	1	0	63	NMS	231	None									[38, 85, 104, 105, 106, 107, 117]							L.Haimberger	0	0.0		None	-999.0	era5.conv._6:101400	IGRA2
234	0-20600-0-88959	0	235	6:88957	3	Horseshoe Island (operated by UK)			0	-67.25	-67.8		19560412	19580604	1	0	63	NMS	10	None									[38, 104, 105, 106, 107]							L.Haimberger	0	2.6		None	-999.0	era5.conv._6:88957	SCHROEDER
235	0-20000-0-72636	0	236	14840	3	MUSKEGON/COUNTY, MI.			0	-86.25	43.16666666666666		19570901	19590331	1	0	63	NMS	231	Norton Shores									[104, 105, 106, 107, 117]							L.Haimberger	0	1.7		2.8	193.0	era5.conv._14840	OSCAR
236	0-20300-0-25173	0	237	C:4769	3	MYS SHMIDTA			0	-179.48	68.92		19480311	19480630	1	0	63	NMS	190	None									[38, 39, 85, 117]							L.Haimberger	0	0.4		None	2.0	era5.conv._C:4769	IGRA2
237	0-20000-0-80405	0	238	80405	3	LA ORCHILA			0	-66.18333333333334	11.8		19740817	19740819	1	0	63	NMS	236	Caraballeda									[104, 105, 106, 107, 117]							L.Haimberger	0	1.8		148.0	3.0	era5.conv._80405	OSCAR
238	0-20000-0-66285	0	239	C:5974	3	LUENA (LUSO)			0	19.916666666666668	-11.783333333333331		19521111	19521231	1	0	63	NMS	8	Luena									[104, 105, 106, 107]							L.Haimberger	0	1.9		1.9	1357.0	era5.conv._C:5974	OSCAR
239	0-20300-0-99018	0	240	10106	3	OCEAN WEATHER SHIP M			0	2.0	66.0		19710627	19710627	1	0	63	NMS	166	None									[36, 38, 39, 85, 104, 105, 106, 107, 117]							L.Haimberger	0	0.0		None	7.010400000000001	era5.conv._10106	IGRA2
240	0-20000-0-82184	0	241	82184	3	PORTO DE MOZ			0	-52.23333333333333	-1.7333333333333334		19740901	19740901	1	0	63	NMS	30	Almeirim									[106, 107, 117]							L.Haimberger	0	10.5		41.8	16.0	era5.conv._82184	OSCAR
241	0-20500-0-41610	0	242	2:41610	3	RONGELAP MARSHALL IS			0	166.85	11.15		19580317	19580710	1	0	63	NMS	142	None									[104, 105, 106, 107]							L.Haimberger	0	0.0		None	2.1336	era5.conv._2:41610	WBAN
242	0-20300-0-03138	0	243	3138	3	SHOSHONE			0	-116.2667	35.9667		19570901	19570923	1	0	63	NMS	231	Pahrump									[104, 105, 106, 107, 117]							L.Haimberger	0	0.5		37.0	481.9	era5.conv._03138	IGRA2
243	0-20300-0-99008	0	244	6:100356	3	OCEAN WEATHER SHIP C			0	-35.5	52.75		19710923	19710923	1	0	63	NMS	83	None									[38, 85, 104, 105, 106, 107, 117]							L.Haimberger	0	8.8		None	-999.0	era5.conv._6:100356	IGRA2
244	0-20000-0-60560	0	245	60560	3	AIN-SEFRA			0	-0.6	32.766666666666666		19570901	19580212	1	0	63	NMS	61	Aflu									[104, 105, 106, 107, 117]							L.Haimberger	0	1.8		293.0	1065.0	era5.conv._60560	OSCAR
245	0-20000-0-91629	0	246	80707	3	ARORAE			0	176.83333333333334	-2.6666666666666665		19650704	19650905	1	0	63	NMS	225	Bairiki									[36, 38, 39, 85, 104, 105, 106, 107, 117]							L.Haimberger	0	9.5		606.4	7.0	era5.conv._80707	OSCAR
246	0-20000-0-59278	0	247	59278	3	GAOYAO			0	112.46666666666668	23.05		19710102	19730512	1	0	63	NMS	47	Zhaoqing									[36, 38, 39, 85, 104, 105, 106, 107, 117]							L.Haimberger	0	0.3		1.1	41.9	era5.conv._59278	OSCAR
247	0-20000-0-42623	0	248	6:42623	3	IMPHAL/TULIHAL			0	93.9	24.766666666666666		19641101	19710404	1	0	63	NMS	104	Imphal									[104, 105, 106, 107]							L.Haimberger	0	0.4		7.2	774.0	era5.conv._6:42623	OSCAR
248	0-20000-0-37747	0	249	1:37747	3	EVLAKH AIRPORT			0	47.15	40.61666666666667		19660520	19740215	1	0	63	NMS	16	Yevlax									[104, 105, 106, 107]							L.Haimberger	0	4.6		1.0	15.0	era5.conv._1:37747	OSCAR
249	0-20300-0-89557	0	250	1:89557	3	SOVIETSKAVA			0	87.583	-78.4		19580316	19581231	1	0	63	NMS	9	None									[38, 85, 104, 105, 106, 107, 117]							L.Haimberger	0	0.1		None	3571.0	era5.conv._1:89557	IGRA2
250	0-20000-0-72434	0	251	6:110011	3	ST.LOUIS/LAMBERT,  ST.LOUIS INT., MO.			0	-90.36666666666666	38.75		19700612	19701202	1	0	63	NMS	231	Spanish Lake									[38, 85, 104, 105, 106, 107, 117]							L.Haimberger	0	12.1		2.3	172.0	era5.conv._6:110011	OSCAR
251	0-20000-0-07168	0	252	7160	3	TROYES-BARBEREY			0	4.02	48.32472222222223		19691114	19730530	1	0	63	NMS	74	Romilly-Sur-Seine									[36, 38, 39, 85, 104, 105, 106, 107, 117]							L.Haimberger	0	27.9		2.1	118.0	era5.conv._07160	OSCAR
252	0-20000-0-10655	0	253	2:34163	3	WUERZBURG			0	9.957777777777777	49.77027777777778		19470601	19470716	1	0	63	NMS	56	Kitzingen									[104, 105, 106, 107]							L.Haimberger	0	17.6		3.0	271.77	era5.conv._2:34163	OSCAR
253	0-20000-0-48972	0	254	48972	3	STUNG TRENG			0	105.96666666666668	13.516666666666667		19691021	19700127	1	0	63	NMS	116	Lumphat									[36, 38, 39, 85, 104, 105, 106, 107, 117]							L.Haimberger	0	0.5		109.7	54.0	era5.conv._48972	OSCAR
254	0-20000-0-60720	0	255	2:33104	3	KELIBIA			0	11.083333333333334	36.85		19430527	19430528	1	0	63	NMS	221	Manzil Tamim									[104, 105, 106, 107]							L.Haimberger	0	10.8		1.1	30.0	era5.conv._2:33104	OSCAR
255	0-20000-0-63471	0	256	2:30401	3	DIREDAWA			0	41.85	9.6		19650220	19661204	1	0	63	NMS	68	Dire Dawa									[38, 85, 104, 105, 106, 107, 117]							L.Haimberger	0	2.2		0.9	1260.0	era5.conv._2:30401	OSCAR
256	0-20000-0-47930	0	257	2:42206	3	NAHA AIRPORT			0	127.64583333333334	26.195833333333333		19520915	19530212	1	0	63	NMS	113	Tomigusuku									[104, 105, 106, 107]							L.Haimberger	0	0.6		3.0	6.36	era5.conv._2:42206	OSCAR
257	0-20000-0-97760	0	258	1:97760	3	KAIMANA/UTAROM			0	133.69694444444443	-3.6438888888888887		19590303	19620718	1	0	63	NMS	100	Nabire									[38, 104, 105, 106, 107]							L.Haimberger	0	6.6		195.5	3.0	era5.conv._1:97760	OSCAR
258	0-20000-0-64387	0	259	64387	3	KIGALI			0	30.13277777777778	-1.965		19740606	19751115	1	0	63	NMS	191	Kigali									[36, 38, 39, 85, 104, 105, 106, 107, 117]							L.Haimberger	0	1.5		6.9	1497.47	era5.conv._64387	OSCAR
259	0-20300-0-99015	0	260	6:100197	3	OCEAN WEATHER SHIP J			0	-20.0	52.5		19710521	19710521	1	0	63	NMS	101	None									[38, 85, 104, 105, 106, 107, 117]							L.Haimberger	0	23.2		None	-999.0	era5.conv._6:100197	IGRA2
260	0-20500-0-81307	0	261	81307	3	RANTYIRRITY POINT			0	135.9	-14.18		19640410	19640426	1	0	63	NMS	13	Katherine									[36, 38, 39, 85, 104, 105, 106, 107, 117]							L.Haimberger	0	0.0		393.6	8.2296	era5.conv._81307	WBAN
261	0-20000-0-41506	0	262	41506	3	CHITRAL			0	71.83333333333333	35.85		19730620	19781231	1	0	63	NMS	177	Chitral									[104, 105, 106, 107, 117]							L.Haimberger	0	0.3		4.0	1500.0	era5.conv._41506	OSCAR
262	0-20000-0-30692	0	263	C:4587	3	SKOVORODINO			0	123.96666666666668	54.0		19540419	19540922	1	0	63	NMS	190	Skovorodino									[38, 39, 85, 104, 105, 106, 107, 117]							L.Haimberger	0	0.2		4.0	397.27	era5.conv._C:4587	OSCAR
263	0-20000-0-74545	0	264	74545	3	SMOKEY HILL GUNNERY RANGE, KS.			0	-97.8	38.65		19700211	19720830	1	0	63	NMS	231	Salina									[36, 38, 39, 85, 104, 105, 106, 107, 117]							L.Haimberger	0	5.6		22.6	383.0	era5.conv._74545	OSCAR
264	0-20000-0-28676	0	265	28679	3	PETROPAVLOVSK (28676-0)			0	69.11749999999999	54.7925		19660610	19680430	1	0	63	NMS	124	Petropavl									[36, 38, 39, 85, 104, 105, 106, 107, 117]							L.Haimberger	0	4.7		5.1	101.0	era5.conv._28679	OSCAR
265	0-20000-0-06260	0	266	C:5013	3	DE BILT AWS			0	5.179722222222223	52.098888888888894		19400101	19400513	1	0	63	NMS	165	Zeist									[104, 105, 106, 107]							L.Haimberger	0	7.7		4.7	3.5	era5.conv._C:5013	OSCAR
266	0-20000-0-80234	0	267	80234	3	VILLAVICENCIO/VANGUARDIA			0	-73.61666666666666	4.166666666666667		19740920	19740920	1	0	63	NMS	48	Villavicencio									[104, 105, 106, 107, 117]							L.Haimberger	0	4.1		7.1	431.0	era5.conv._80234	OSCAR
267	0-20000-0-91355	0	268	2:40608	3	KOSRAE AIRPORT AWS, CAROLINE IS.			0	162.95	5.35		19641021	19650114	1	0	63	NMS	72	None									[38, 85, 104, 105, 106, 107, 117]							L.Haimberger	0	2.2		None	2.0	era5.conv._2:40608	OSCAR
268	0-20000-0-59362	0	269	46699	3	HUALIAN			0	121.61666666666666	24.016666666666666		19610703	19620726	1	0	63	NMS	226	Puli									[104, 105, 106, 107, 117]							L.Haimberger	0	5.2		66.4	14.0	era5.conv._46699	OSCAR
269	0-20000-0-91155	0	270	91155	3	FRENCH FRIGATE SHOALS			0	-166.28333333333333	23.866666666666667		19620918	19621030	1	0	63	NMS	231	None									[36, 38, 39, 85, 104, 105, 106, 107, 117]							L.Haimberger	0	4.1		None	2.1336	era5.conv._91155	OSCAR
270	0-20000-0-41480	0	271	6:20303	3	ADEN			0	45.03333333333333	12.833333333333334		19440102	19481229	1	0	63	NMS	243	Aden									[104, 105, 106, 107]							L.Haimberger	0	1.5		4.5	3.0	era5.conv._6:20303	OSCAR
271	0-20300-0-99006	0	272	6:100332	3	OCEAN WEATHER SHIP A			0	-33.0	62.0		19711006	19711006	1	0	63	NMS	83	None									[38, 85, 104, 105, 106, 107, 117]							L.Haimberger	0	15.3		None	-999.0	era5.conv._6:100332	IGRA2
272	0-20000-0-78347	0	273	78347	3	CAMILO CIENFUEGOS,  CIEGO DE AVILA			0	-78.75	22.15		19740724	19740724	1	0	63	NMS	50	Moron									[36, 38, 39, 85, 104, 105, 106, 107, 117]							L.Haimberger	0	16.4		3.0	16.0	era5.conv._78347	OSCAR
273	0-20000-0-42260	0	274	42260	3	AGRA (42260-0)			0	77.96666666666667	27.15		19710106	19750813	1	0	63	NMS	104	Agra									[36, 38, 39, 85, 104, 105, 106, 107, 117]							L.Haimberger	0	0.3		6.7	168.0	era5.conv._42260	OSCAR
274	0-20000-0-71849	0	275	14996	3	WINNIPEG 'A' CS, MAN			0	-97.23333333333332	49.9		19570901	19580212	1	0	63	NMS	37	Winnipeg									[104, 105, 106, 107, 117]							L.Haimberger	0	0.2		4.9	238.7	era5.conv._14996	OSCAR
275	0-20500-0-26610	0	276	2:26610	3	AKULURAK			0	-164.42	62.5		19440201	19440829	1	0	63	NMS	231	None									[104, 105, 106, 107]							L.Haimberger	0	0.0		None	9.144	era5.conv._2:26610	WBAN
276	0-20000-0-60355	0	277	1:60355	3	SKIKDA			0	6.9	36.88333333333333		19760120	19760429	1	0	63	NMS	61	Constantine									[104, 105, 106, 107]							L.Haimberger	0	4.7		63.6	3.0	era5.conv._1:60355	OSCAR
277	0-20600-0-54765	0	278	9:1427	3	Yantai / Chefoo (pibals made by US Navy), China			0	121.4	37.54		19570303	19591231	1	0	63	NMS	47	Yantai									[104, 105, 106, 107]							L.Haimberger	0	2.9		3.2	-999.0	era5.conv._9:1427	SCHROEDER
278	0-20000-0-70296	0	279	2:26402	3	CORDOVA/MILE 13			0	-145.5	60.5		19420723	19421216	1	0	63	NMS	231	Anchorage									[104, 105, 106, 107]							L.Haimberger	0	18.9		259.3	13.0	era5.conv._2:26402	OSCAR
279	0-20000-0-63866	0	280	1:63866	3	MOROGORO			0	37.65	-6.833333333333333		19730814	19770708	1	0	63	NMS	227	Morogoro									[104, 105, 106, 107]							L.Haimberger	0	0.4		2.4	526.0	era5.conv._1:63866	OSCAR
280	0-20000-0-12566	0	281	1:12566	3	KRAKOW-BALICE			0	19.801944444444445	50.08027777777778		19670309	19721231	1	0	63	NMS	178	Cracow									[104, 105, 106, 107]							L.Haimberger	0	0.1		8.4	241.5	era5.conv._1:12566	OSCAR
281	0-20000-0-38616	0	282	C:4677	3	KARA-SUU			0	72.9	40.7		19560728	19560821	1	0	63	NMS	233	Andijon									[38, 39, 85, 104, 105, 106, 107, 117]							L.Haimberger	0	11.5		37.5	868.0	era5.conv._C:4677	OSCAR
282	0-20300-0-99010	0	283	6:101398	3	OCEAN WEATHER SHIP E			0	-48.0	35.0		19710503	19710503	1	0	63	NMS	37	None									[38, 85, 104, 105, 106, 107, 117]							L.Haimberger	0	0.0		None	-999.0	era5.conv._6:101398	IGRA2
283	0-20000-0-15235	0	284	15300	3	FAGARAS			0	24.935277777777777	45.83638888888889		19730915	19781019	1	0	63	NMS	188	Fagaras									[104, 105, 106, 107, 117]							L.Haimberger	0	18.5		20.2	429.2	era5.conv._15300	OSCAR
284	0-20000-0-95717	0	285	94717	3	PARKES AIRPORT AWS			0	148.24277777777775	-33.128055555555555		19740507	19740507	1	0	63	NMS	13	Parkes									[104, 105, 106, 107, 117]							L.Haimberger	0	5.9		0.9	324.0	era5.conv._94717	OSCAR
285	0-20000-0-25551	0	286	C:4628	3	MARKOVO			0	170.41666666666666	64.68333333333334		19541019	19550422	1	0	63	NMS	190	None									[38, 39, 85, 104, 105, 106, 107, 117]							L.Haimberger	0	0.4		None	26.24	era5.conv._C:4628	OSCAR
286	0-20000-0-60566	0	287	1:60565	3	GHARDAIA			0	3.8	32.4		19570701	19581225	1	0	63	NMS	61	Warqla									[38, 104, 105, 106, 107]							L.Haimberger	0	14.5		166.3	469.0	era5.conv._1:60565	OSCAR
287	0-20000-0-80241	0	288	1:80241	3	LAS GAVIOTAS			0	-70.91666666666667	4.55		19730607	19731213	1	0	63	NMS	48	Villanueva									[38, 85, 104, 105, 106, 107, 117]							L.Haimberger	0	22.5		164.0	167.0	era5.conv._1:80241	OSCAR
288	0-20000-0-10860	0	289	1:10862	3	INGOLSTADT (FLUGPLATZ)			0	11.536111111111111	48.71111111111112		19760728	19771228	1	0	63	NMS	56	Abensberg									[104, 105, 106, 107]							L.Haimberger	0	19.9		8.3	364.0	era5.conv._1:10862	OSCAR
289	0-20000-0-92035	0	290	9:4129	3	PORT MORESBY W.O.			0	147.21666666666667	-9.383333333333333		19440305	19771001	1	0	63	NMS	175	Port Moresby									[85, 117]							L.Haimberger	0	5.2		4.3	48.0	era5.conv._9:4129	OSCAR
290	0-20000-0-31004	0	291	C:4539	3	ALDAN			0	125.36666666666666	58.61666666666667		19540419	19540822	1	0	63	NMS	190	Aldan									[38, 39, 85, 104, 105, 106, 107, 117]							L.Haimberger	0	0.4		2.2	679.14	era5.conv._C:4539	OSCAR
291	0-20000-0-72221	0	292	3862	3	VALPARAISO/EGLIN AFB, FL.			0	-86.51666666666667	30.48333333333333		19601005	19640929	1	0	63	NMS	231	Wright									[104, 105, 106, 107, 117]							L.Haimberger	0	27.2		15.8	29.0	era5.conv._03862	OSCAR
292	0-20000-0-32509	0	293	1:32509	3	SEMYACHIK			0	159.98333333333332	54.11666666666667		19650903	19671227	1	0	63	NMS	190	Yelizovo									[104, 105, 106, 107]							L.Haimberger	0	4.6		143.7	27.0	era5.conv._1:32509	OSCAR
293	0-20300-0-04876	0	294	1:71916	3	CHESTERFIELD INLET			0	-90.7	63.5		19620303	19701216	1	0	63	NMS	37	None									[38, 85, 104, 105, 106, 107, 117]							L.Haimberger	0	22.3		None	9.4	era5.conv._1:71916	IGRA2
294	0-20000-0-36397	0	295	36403	3	ZHALGYZTOBE			0	81.21666666666667	49.21666666666667		19670101	19680430	1	0	63	NMS	124	Oskemen									[36, 38, 39, 85, 104, 105, 106, 107, 117]							L.Haimberger	0	13.5		123.1	455.0	era5.conv._36403	OSCAR
295	0-20000-0-81250	0	296	81250	3	TAFELBERG			0	-56.15	3.783333333333333		19740425	19781221	1	0	63	NMS	206	Lelydorp									[36, 38, 39, 85, 104, 105, 106, 107, 117]							L.Haimberger	0	0.4		235.4	323.0	era5.conv._81250	OSCAR
296	0-20000-0-71087	0	297	2:26104	3	FORT PROVIDENCE, NWT			0	-117.60194444444444	61.316944444444445		19430915	19431220	1	0	63	NMS	37	Yellowknife									[104, 105, 106, 107]							L.Haimberger	0	3.9		214.6	161.5	era5.conv._2:26104	OSCAR
297	0-20600-0-51706	0	298	9:1406	3	Tejan, China			0	76.35	39.7		19570301	19591103	1	0	63	NMS	47	Kashi									[104, 105, 106, 107]							L.Haimberger	0	0.0		41.9	-999.0	era5.conv._9:1406	SCHROEDER
298	0-20000-0-81873	0	299	82686	3	IGUATU (81873-0)			0	-39.27027777777778	-6.396666666666667		19740918	19740918	1	0	63	NMS	30	Iguatu									[106, 107, 117]							L.Haimberger	0	3.3		3.7	217.0	era5.conv._82686	OSCAR
299	0-20000-0-17609	0	300	17609	3	LARNACA AIRPORT			0	33.617222222222225	34.873333333333335		19780109	19781231	1	0	63	NMS	53	Larnaca									[104, 105, 106, 107, 117]							L.Haimberger	0	1.4		4.1	11.69	era5.conv._17609	OSCAR
300	0-20000-0-62671	0	301	62671	3	TOKAR			0	37.73333333333333	18.433333333333334		19740617	19740617	1	0	63	NMS	195	Tawkar									[36, 38, 39, 85, 104, 105, 106, 107, 117]							L.Haimberger	0	5.1		5.1	19.0	era5.conv._62671	OSCAR
301	0-20000-0-71036	0	302	25009	3	DAUPHIN, MAN			0	-100.0525	51.10083333333333		19570901	19580212	1	0	63	NMS	37	Brandon									[104, 105, 106, 107, 117]							L.Haimberger	0	0.2		141.1	304.5	era5.conv._25009	OSCAR
302	0-20000-0-72312	0	303	3873	3	GREENVILLE/GREENVILLE SPARTANBURG, SC.			0	-82.21666666666667	34.9		19630717	19630815	1	0	63	NMS	231	Spartanburg									[36, 38, 39, 85, 104, 105, 106, 107, 117]							L.Haimberger	0	21.3		6.6	296.0	era5.conv._03873	OSCAR
303	0-20700-0-96533	0	304	96533	3	SINGKAWANG II            			0	109.66666666666669	1.0833333333333333		19780201	19781018	1	0	63	NMS	100	Singkawang									[104, 105, 106, 107, 117]							L.Haimberger	0	0.5		77.2	-999.0	era5.conv._96533	WMO
304	0-20000-0-91367	0	305	91367	3	AILINGLAPALAP ATOLL, MARSHALL IS.			0	168.83333333333334	7.266666666666667		19740121	19750701	1	0	63	NMS	142	None									[104, 105, 106, 107, 117]							L.Haimberger	0	0.5		None	3.0	era5.conv._91367	OSCAR
305	0-20001-0-10739	0	306	1:10738	3	STUTTGART/SCHNARRENBERG (10739-1)			0	9.2	48.833333333333336		19570101	19570228	1	0	63	NMS	56	Filderstadt									[38, 85, 104, 105, 106, 107, 117]							L.Haimberger	0	17.1		1.9	391.36	era5.conv._1:10738	OSCAR
306	0-20000-0-42105	0	307	1:42105	3	CHANDIGARH			0	76.88333333333334	30.73333333333333		19760601	19770607	1	0	63	NMS	104	Chandigarh									[104, 105, 106, 107]							L.Haimberger	0	0.5		8.3	347.0	era5.conv._1:42105	OSCAR
307	0-20000-0-91554	0	308	1:91554	3	PEKOA AIRPORT (SANTO)			0	167.21666666666667	-15.516666666666667		19660513	19721229	1	0	63	NMS	240	Luganville									[104, 105, 106, 107]							L.Haimberger	0	9.3		4.2	44.0	era5.conv._1:91554	OSCAR
308	0-20000-0-48877	0	309	2:41015	3	NHA TRANG			0	109.21666666666668	12.216666666666669		19680402	19690604	1	0	63	NMS	239	Cam Ranh									[38, 85, 104, 105, 106, 107, 117]							L.Haimberger	0	27.3		11.7	4.0	era5.conv._2:41015	OSCAR
309	0-20000-0-91533	0	310	2:80606	3	BANABA			0	169.53333333333333	-0.9		19650416	19650730	1	0	63	NMS	168	Bairiki									[38, 85, 104, 105, 106, 107, 117]							L.Haimberger	0	6.2		447.9	66.0	era5.conv._2:80606	OSCAR
310	0-20000-0-16261	0	311	2:34107	3	AMENDOLA			0	15.713888888888889	41.53805555555555		19440505	19440731	1	0	63	NMS	109	San Severo									[104, 105, 106, 107]							L.Haimberger	0	29.7		4.3	60.0	era5.conv._2:34107	OSCAR
311	0-20000-0-08330	0	312	1:8330	3	BADAJOZ/TALAVERA LA REAL			0	-6.813888888888889	38.88333333333333		19680103	19711127	1	0	63	NMS	67	Badajoz									[38, 85, 104, 105, 106, 107, 117]							L.Haimberger	0	0.6		13.1	192.0	era5.conv._1:8330	OSCAR
312	0-20000-0-68240	0	313	1:68244	3	SERETSE KHAMA INTERNATIONAL AIRPORT			0	25.916666666666668	-24.55		19700408	19720929	1	0	63	NMS	34	Gaborone									[104, 105, 106, 107]							L.Haimberger	0	12.2		1.5	1005.0	era5.conv._1:68244	OSCAR
313	0-20000-0-12295	0	314	1:12295	3	BIALYSTOK			0	23.172222222222224	53.10833333333333		19731007	19740808	1	0	63	NMS	178	Bialystok									[104, 105, 106, 107]							L.Haimberger	0	0.9		3.9	150.09	era5.conv._1:12295	OSCAR
314	0-20000-0-07180	0	315	2:34016	3	NANCY-ESSEY			0	6.221388888888889	48.687777777777775		19441117	19441127	1	0	63	NMS	74	Vandoeuvre-Les-Nancy									[104, 105, 106, 107]							L.Haimberger	0	2.5		1.8	213.0	era5.conv._2:34016	OSCAR
315	0-20000-0-98430	0	316	2:41208	3	SCIENCE GARDEN			0	121.04444444444444	14.646666666666668		19450301	19450331	1	0	63	NMS	176	Manila									[104, 105, 106, 107]							L.Haimberger	0	4.0		4.4	13.0	era5.conv._2:41208	OSCAR
316	0-20300-0-03138	0	317	3142	3	SHOSHONE			0	-116.2667	35.9667		19571206	19580208	1	0	63	NMS	231	Pahrump									[104, 105, 106, 107, 117]							L.Haimberger	0	1.3		37.6	481.9	era5.conv._03142	IGRA2
317	0-20000-0-16261	0	318	2:34123	3	AMENDOLA			0	15.713888888888889	41.53805555555555		19440201	19440824	1	0	63	NMS	109	San Giovanni Rotondo									[104, 105, 106, 107]							L.Haimberger	0	1.4		16.7	60.0	era5.conv._2:34123	OSCAR
318	0-20300-0-99019	0	319	10930	3	OCEAN WEATHER SHIP N			0	-140.0	30.0		19710107	19710107	1	0	63	NMS	231	None									[36, 38, 39, 85, 104, 105, 106, 107, 117]							L.Haimberger	0	0.0		None	-999.0	era5.conv._10930	IGRA2
319	0-20300-0-96853	0	320	1:96853	3	ADISUCIPTO/JOGYAKAR			0	110.433	-7.783		19660902	19720929	1	0	63	NMS	100	Yogyakarta									[38, 85, 104, 105, 106, 107, 117]							L.Haimberger	0	0.5		7.6	107.0	era5.conv._1:96853	IGRA2
320	0-20000-0-20353	0	321	C:4770	3	MYS ZELANIYA			0	68.55	76.95		19480102	19480630	1	0	63	NMS	190	None									[38, 39, 85, 117]							L.Haimberger	0	11.2		None	8.9	era5.conv._C:4770	OSCAR
321	0-20000-0-32540	0	322	C:4636	3	PETROPAVLOVSK-KAMCHATSKIJ (32540-0)			0	158.58333333333334	53.083333333333336		19541019	19550421	1	0	63	NMS	190	Yelizovo									[38, 39, 85, 104, 105, 106, 107, 117]							L.Haimberger	0	17.4		15.6	83.9	era5.conv._C:4636	OSCAR
322	0-20300-0-99015	0	323	6:108229	3	OCEAN WEATHER SHIP J			0	-20.0	52.5		19710517	19711021	1	0	63	NMS	101	None									[38, 85, 104, 105, 106, 107, 117]							L.Haimberger	0	13.0		None	-999.0	era5.conv._6:108229	IGRA2
323	0-20000-0-26063	0	324	9:3836	3	ST.PETERSBURG (VOEJKOVO) (26063-0)			0	30.3	59.96666666666667		19540103	19561231	1	0	63	NMS	190	Saint Petersburg									[85, 117]							L.Haimberger	0	4.1		4.7	6.0	era5.conv._9:3836	OSCAR
324	0-20300-0-99007	0	325	6:109565	3	OCEAN WEATHER SHIP B			0	-51.0	56.5		19710406	19710406	1	0	63	NMS	83	None									[38, 85, 104, 105, 106, 107, 117]							L.Haimberger	0	0.0		None	-999.0	era5.conv._6:109565	IGRA2
325	0-20000-0-61099	0	326	61099	3	GAYA (61099-0)			0	3.45	11.883333333333333		19740603	19740603	1	0	63	NMS	161	Gaya									[104, 105, 106, 107, 117]							L.Haimberger	0	5.8		6.0	203.0	era5.conv._61099	OSCAR
326	0-20000-0-56586	0	327	2:42018	3	ZHAOTONG			0	103.75	27.33333333333333		19450118	19450227	1	0	63	NMS	47	Zhaotong									[104, 105, 106, 107]							L.Haimberger	0	7.9		4.8	1950.0	era5.conv._2:42018	OSCAR
327	0-20000-0-10658	0	328	2:35107	3	BAD KISSINGEN			0	10.079166666666666	50.22416666666667		19471001	19471029	1	0	63	NMS	56	Schweinfurt									[104, 105, 106, 107]							L.Haimberger	0	20.4		4.5	281.4	era5.conv._2:35107	OSCAR
328	0-20300-0-99016	0	329	6:100158	3	OCEAN WEATHER SHIP K			0	-16.0	45.0		19711006	19711006	1	0	63	NMS	67	None									[38, 85, 104, 105, 106, 107, 117]							L.Haimberger	0	15.8		None	-999.0	era5.conv._6:100158	IGRA2
329	0-20000-0-38328	0	330	1:38328	3	SHYMKENT			0	69.71000000000001	42.34777777777778		19660610	19680429	1	0	63	NMS	124	Shymkent									[104, 105, 106, 107]							L.Haimberger	0	10.5		0.0	604.0	era5.conv._1:38328	OSCAR
330	0-20000-0-87178	0	331	87178	3	POSADAS AERO			0	-55.96694444444445	-27.391111111111112		19570901	19700130	1	0	63	NMS	10	Posadas									[36, 38, 39, 85, 104, 105, 106, 107, 117]							L.Haimberger	0	2.4		7.3	125.0	era5.conv._87178	OSCAR
331	0-20700-0-36428	0	332	36421	3	ULKEN NARYN              			0	84.0	49.0		19660603	19680430	1	0	63	NMS	124	Zyryanovsk									[36, 38, 39, 85, 104, 105, 106, 107, 117]							L.Haimberger	0	22.2		63.1	-999.0	era5.conv._36421	WMO
332	0-20500-0-33015	0	333	2:33015	3	DJEDEIDA MU 8			0	9.9	36.87		19430801	19431026	1	0	63	NMS	221	Taburbah									[104, 105, 106, 107]							L.Haimberger	0	0.0		7.0	49.0728	era5.conv._2:33015	WBAN
333	0-20000-0-64550	0	334	64550	3	MOUILA			0	11.016666666666667	-1.8666666666666667		19740822	19740912	1	0	63	NMS	75	Mouila									[36, 38, 39, 85, 104, 105, 106, 107, 117]							L.Haimberger	0	4.1		4.1	89.0	era5.conv._64550	OSCAR
334	0-20700-0-34398	0	335	1:34398	3	FURMANOVO                			0	49.48333333333333	49.66666666666666		19661211	19680430	1	0	63	NMS	124	Novouzensk									[104, 105, 106, 107]							L.Haimberger	0	0.4		129.9	-999.0	era5.conv._1:34398	WMO
335	0-20000-0-72572	0	336	2:24116	3	SALT LAKE CITY/INTNL UT.			0	-111.95527777777778	40.77222222222222		19410804	19420730	1	0	63	NMS	231	Salt Lake City									[104, 105, 106, 107]							L.Haimberger	0	2.3		4.0	1289.0	era5.conv._2:24116	OSCAR
336	0-20300-0-37409	0	337	37409	3	SAKARA			0	43.033	42.133		19691101	19781225	1	0	63	NMS	78	Tkibuli									[36, 38, 39, 85, 104, 105, 106, 107, 117]							L.Haimberger	0	0.4		24.0	148.0	era5.conv._37409	IGRA2
337	0-20500-0-3136	0	338	3136	3	TEMPIUTE TM 4			0	-115.7	37.68		19570901	19570923	1	0	63	NMS	231	Pahrump									[104, 105, 106, 107, 117]							L.Haimberger	0	0.0		165.3	1477.9752	era5.conv._03136	WBAN
338	0-20300-0-99009	0	339	6:100407	3	OCEAN WEATHER SHIP D			0	-41.0	44.0		19710513	19711119	1	0	63	NMS	37	None									[38, 85, 104, 105, 106, 107, 117]							L.Haimberger	0	24.1		None	-999.0	era5.conv._6:100407	IGRA2
339	0-20000-0-71023	0	340	71127	3	JIMMY LAKE AWOS, SASK			0	-109.96194444444444	54.90833333333333		19700413	19781219	1	0	63	NMS	37	Grand Centre									[36, 38, 39, 85, 104, 105, 106, 107, 117]							L.Haimberger	0	1.4		60.3	637.1	era5.conv._71127	OSCAR
340	0-20000-0-85141	0	341	C:4838	3	RURRENABAQUE			0	-67.56666666666666	-14.466666666666669		19460603	19461231	1	0	63	NMS	29	Rurrenabaque									[104, 105, 106, 107]							L.Haimberger	0	4.4		4.4	204.0	era5.conv._C:4838	OSCAR
341	0-20000-0-48972	0	342	1:48972	3	STUNG TRENG			0	105.96666666666668	13.516666666666667		19691021	19700127	1	0	63	NMS	116	Lumphat									[104, 105, 106, 107]							L.Haimberger	0	0.5		109.7	54.0	era5.conv._1:48972	OSCAR
342	0-20000-0-71401	0	343	2:94115	3	WARFIELD RCS			0	-117.7388888888889	49.11194444444445		19550703	19581224	1	0	63	NMS	37	Penticton									[104, 105, 106, 107]							L.Haimberger	0	13.9		127.0	566.9	era5.conv._2:94115	OSCAR
343	0-20500-0-12962	0	344	2:12903	3	HONDO WSMO AIRPORT			0	-99.17	29.35		19450315	19450621	1	0	63	NMS	231	Uvalde									[104, 105, 106, 107]							L.Haimberger	0	0.0		61.8	283.464	era5.conv._2:12903	WBAN
344	0-20300-0-26520	0	345	3153	3	CA SANTA ANA/ORANGE COUNTY AAF			0	-117.833	33.7		19650516	19650528	1	0	63	NMS	231	Lake Forest									[36, 38, 39, 85, 104, 105, 106, 107, 117]							L.Haimberger	0	11.0		3.9	18.0	era5.conv._03153	IGRA2
345	0-20000-0-63870	0	346	63870	3	ZANZIBAR/KISAUNI			0	39.21666666666667	-6.216666666666667		19740826	19740826	1	0	63	NMS	227	Zanzibar									[104, 105, 106, 107, 117]							L.Haimberger	0	2.6		4.1	15.0	era5.conv._63870	OSCAR
346	0-20000-0-07015	0	347	1:7015	3	LILLE-LESQUIN			0	3.0975	50.57		19660406	19670530	1	0	63	NMS	74	Ronchin									[104, 105, 106, 107]							L.Haimberger	0	0.2		3.3	47.0	era5.conv._1:7015	OSCAR
347	0-20000-0-64751	0	348	64751	3	ATI			0	18.316666666666663	13.216666666666669		19740623	19740912	1	0	63	NMS	213	Ati									[36, 38, 39, 85, 104, 105, 106, 107, 117]							L.Haimberger	0	2.6		4.1	334.0	era5.conv._64751	OSCAR
348	0-20500-0-23184	0	349	23184	3	PRESCOTT LOVE FIELD			0	-112.43	34.65		19570901	19590331	1	0	63	NMS	231	Prescott Valley									[104, 105, 106, 107, 117]							L.Haimberger	0	0.0		11.4	1531.0104	era5.conv._23184	WBAN
349	0-20300-0-25173	0	350	C:4743	3	MYS SHMIDTA			0	-179.48	68.92		19400101	19400630	1	0	63	NMS	190	None									[38, 39, 85, 117]							L.Haimberger	0	0.4		None	2.0	era5.conv._C:4743	IGRA2
350	0-20000-0-65271	0	351	65271	3	MAKURDI			0	8.533333333333333	7.733333333333333		19631122	19770107	1	0	63	NMS	163	Makurdi									[36, 38, 39, 85, 104, 105, 106, 107, 117]							L.Haimberger	0	8.2		10.7	112.9	era5.conv._65271	OSCAR
351	0-20500-0-3150	0	352	2:3150	3	TOPOCK			0	-114.42	34.78		19640522	19640525	1	0	63	NMS	231	Lake Havasu City									[38, 85, 104, 105, 106, 107, 117]							L.Haimberger	0	0.0		34.1	334.97520000000003	era5.conv._2:3150	WBAN
352	0-404-300-472781389CO63741	0	353	63742	3	DAGORETTI CORNER			0	36.75972222222222	-1.301388888888889		19610313	19630923	1	0	63	NMS	114	Nairobi									[104, 105, 106, 107, 117]							L.Haimberger	0	7.0		4.1	1639.26	era5.conv._63742	OSCAR
353	0-20500-0-23105	0	354	2:23105	3	DESERT CENTER AAF			0	-115.33	33.75		19431120	19440205	1	0	63	NMS	231	Blythe									[104, 105, 106, 107]							L.Haimberger	0	0.0		69.8	164.8968	era5.conv._2:23105	WBAN
354	0-20000-0-38616	0	355	C:4678	3	KARA-SUU			0	72.9	40.7		19570831	19570927	1	0	63	NMS	233	Andijon									[38, 39, 85, 104, 105, 106, 107, 117]							L.Haimberger	0	11.5		37.5	868.0	era5.conv._C:4678	OSCAR
355	0-20300-0-46746	0	356	1:46746	3	CHIAYI (TW-AFB)			0	120.383	23.467		19741216	19760114	1	0	63	NMS	226	Taipao									[38, 85, 104, 105, 106, 107, 117]							L.Haimberger	0	0.5		4.9	25.0	era5.conv._1:46746	IGRA2
356	0-20300-0-58321	0	357	58322	3	HEFEI			0	117.233	31.867		19570901	19580212	1	0	63	NMS	47	Hefei									[36, 38, 39, 85, 104, 105, 106, 107, 117]							L.Haimberger	0	22.4		17.9	36.0	era5.conv._58322	IGRA2
357	0-20000-0-70265	0	358	26407	3	FAIRBANKS/EIELSON AFB			0	-147.06666666666666	64.65		19640713	19640713	1	0	63	NMS	231	Fairbanks									[36, 38, 39, 85, 104, 105, 106, 107, 117]							L.Haimberger	0	3.4		35.0	167.0	era5.conv._26407	OSCAR
358	0-20300-0-20357	0	359	9:3778	3	RUSSKAJA GAVAN			0	62.5667	76.1833		19530219	19541231	1	0	63	NMS	190	None									[117]							L.Haimberger	0	26.5		None	9.0	era5.conv._9:3778	IGRA2
359	0-20000-0-64454	0	360	64454	3	GAMBOMA			0	15.85	-1.9		19740627	19740627	1	0	63	NMS	39	Gamboma									[104, 105, 106, 107, 117]							L.Haimberger	0	5.6		4.7	377.0	era5.conv._64454	OSCAR
360	0-20500-0-24107	0	361	2:24107	3	MONIDA			0	-112.32	44.57		19440503	19440730	1	0	63	NMS	231	Rexburg									[104, 105, 106, 107]							L.Haimberger	0	0.0		92.9	2068.9824000000003	era5.conv._2:24107	WBAN
361	0-20000-0-70266	0	362	70267	3	FORT GREELY, AK			0	-145.7	63.96666666666667		19741113	19750910	1	0	63	NMS	231	Fairbanks									[36, 38, 39, 85, 104, 105, 106, 107, 117]							L.Haimberger	0	4.0		133.7	391.0	era5.conv._70267	OSCAR
362	0-20300-0-99010	0	363	6:100480	3	OCEAN WEATHER SHIP E			0	-48.0	35.0		19710421	19711109	1	0	63	NMS	37	None									[38, 85, 104, 105, 106, 107, 117]							L.Haimberger	0	11.1		None	-999.0	era5.conv._6:100480	IGRA2
363	0-20500-0-94109	0	364	94109	3	CARMI			0	-119.08	49.5		19570901	19580211	1	0	63	NMS	37	Penticton									[104, 105, 106, 107, 117]							L.Haimberger	0	0.0		36.5	245.0592	era5.conv._94109	WBAN
364	0-20300-0-03371	0	365	9:3371	3	SEWASTOPOL			0	33.53	44.62		19461204	19491129	1	0	63	NMS	228	Bakhchysaray									[85, 117]							L.Haimberger	0	0.0		30.0	8.0	era5.conv._9:3371	IGRA2
365	0-20000-0-11968	0	366	1:11968	3	KOSICE			0	21.216666666666665	48.66666666666666		19760105	19760125	1	0	63	NMS	201	Kosice									[38, 85, 104, 105, 106, 107, 117]							L.Haimberger	0	5.4		2.4	231.0	era5.conv._1:11968	OSCAR
366	0-20500-0-41022	0	367	41022	3	PHAN RANG			0	108.95	11.62		19680317	19680509	1	0	63	NMS	239	Phan Rang									[36, 38, 39, 85, 104, 105, 106, 107, 117]							L.Haimberger	0	0.0		6.9	17.0688	era5.conv._41022	WBAN
367	0-20000-0-40233	0	368	1:62338	3	GAZA			0	34.45	31.5		19630805	19670430	1	0	63	NMS	182	Sederot									[104, 105, 106, 107]							L.Haimberger	0	0.0		14.2	-999.0	era5.conv._1:62338	OSCAR
368	0-20500-0-30305	0	369	30305	3	MAJI			0	35.67	5.75		19660103	19670213	1	0	63	NMS	68	Bako									[36, 38, 39, 85, 104, 105, 106, 107, 117]							L.Haimberger	0	0.0		99.4	747.0648	era5.conv._30305	WBAN
369	0-20000-0-91348	0	370	40506	3	WEATHER SERVICE OFFICE, POHNPEI, CAROLINE IS.			0	158.20666666666665	6.961944444444445		19620323	19620625	1	0	63	NMS	72	None									[36, 38, 39, 85, 104, 105, 106, 107, 117]							L.Haimberger	0	1.7		None	37.8	era5.conv._40506	OSCAR
370	0-20600-0-89596	0	371	1:89596	3	Komsomolskaya (operated by USSR), Antarctica			0	97.48	-74.08		19571128	19580109	1	0	63	NMS	9	None									[38, 85, 104, 105, 106, 107, 117]							L.Haimberger	0	0.0		None	-999.0	era5.conv._1:89596	SCHROEDER
371	0-20000-0-62378	0	372	C:4939	3	HELWAN			0	31.349166666666665	29.86277777777778		19400204	19530107	1	0	63	NMS	64	Cairo									[104, 105, 106, 107]							L.Haimberger	0	28.9		16.4	74.5	era5.conv._C:4939	OSCAR
372	0-20000-0-80214	0	373	80214	3	IBAGUE/PERALES			0	-75.15	4.433333333333334		19740904	19740904	1	0	63	NMS	48	Ibague									[36, 38, 39, 85, 104, 105, 106, 107, 117]							L.Haimberger	0	6.7		15.3	928.0	era5.conv._80214	OSCAR
373	0-20000-0-04063	0	374	2:16101	3	AKUREYRI			0	-18.08333333333333	65.68333333333334		19440206	19440731	1	0	63	NMS	108	Akureyri									[104, 105, 106, 107]							L.Haimberger	0	1.5		1.0	27.0	era5.conv._2:16101	OSCAR
374	0-20000-0-16597	0	375	16597	3	LUQA			0	14.483333333333333	35.85		19740922	19740922	1	0	63	NMS	152	Qormi									[36, 38, 39, 85, 104, 105, 106, 107, 117]							L.Haimberger	0	0.3		3.2	91.0	era5.conv._16597	OSCAR
375	0-20400-0-4699	0	376	C:4699	3	Turk			0	71.18	41.05		19531211	19540327	1	0	63	NMS	233	Pop									[38, 39, 85, 104, 105, 106, 107, 117]							L.Haimberger	0	0.0		20.5	-999.0	era5.conv._C:4699	CHUAN
376	0-20000-0-87395	0	377	1:87395	3	CONCORDIA AERO			0	-58.00138888888889	-31.302222222222223		19490120	19540925	1	0	63	NMS	10	Concordia									[38, 104, 105, 106, 107]							L.Haimberger	0	1.8		10.3	38.0	era5.conv._1:87395	OSCAR
377	0-20000-0-59559	0	378	46752	3	HENGCHUN			0	120.75	22.0		19570901	19570916	1	0	63	NMS	226	Tungkang									[36, 38, 39, 85, 104, 105, 106, 107, 117]							L.Haimberger	0	0.0		53.7	24.0	era5.conv._46752	OSCAR
378	0-20000-0-07145	0	379	7149	3	TRAPPES			0	2.0097222222222224	48.77444444444444		19741001	19750425	1	0	63	NMS	74	Villeneuve-Le-Roi									[104, 105, 106, 107, 117]							L.Haimberger	0	29.1		0.8	90.0	era5.conv._07149	OSCAR
379	0-20300-0-26636	0	380	1:70107	3	CAPE THOMPSON			0	-165.7667	68.1		19620509	19621228	1	0	63	NMS	231	None									[38, 85, 104, 105, 106, 107, 117]							L.Haimberger	0	0.3		None	11.0	era5.conv._1:70107	IGRA2
380	0-20000-0-36535	0	381	1:36535	3	KOKPEKTY			0	82.36666666666666	48.75		19680120	19680429	1	0	63	NMS	124	Serebryansk									[104, 105, 106, 107]							L.Haimberger	0	0.2		124.4	512.0	era5.conv._1:36535	OSCAR
381	0-20000-0-62770	0	382	C:4947	3	GENINA			0	22.45	13.483333333333333		19470105	19550317	1	0	63	NMS	195	Adre									[104, 105, 106, 107]							L.Haimberger	0	3.7		27.1	805.0	era5.conv._C:4947	OSCAR
382	0-20300-0-99009	0	383	6:100411	3	OCEAN WEATHER SHIP D			0	-41.0	44.0		19710519	19710519	1	0	63	NMS	37	None									[38, 85, 104, 105, 106, 107, 117]							L.Haimberger	0	13.7		None	-999.0	era5.conv._6:100411	IGRA2
383	0-20300-0-99016	0	384	6:104656	3	OCEAN WEATHER SHIP K			0	-16.0	45.0		19711021	19711021	1	0	63	NMS	67	None									[38, 85, 104, 105, 106, 107, 117]							L.Haimberger	0	11.1		None	-999.0	era5.conv._6:104656	IGRA2
384	0-20300-0-99018	0	385	6:100016	3	OCEAN WEATHER SHIP M			0	2.0	66.0		19710519	19710806	1	0	63	NMS	166	None									[38, 85, 104, 105, 106, 107, 117]							L.Haimberger	0	21.3		None	7.010400000000001	era5.conv._6:100016	IGRA2
385	0-20000-0-38687	0	386	C:4669	3	TURKMENABAT			0	63.6	39.083333333333336		19570219	19570308	1	0	63	NMS	220	Turkmenabat									[38, 39, 85, 104, 105, 106, 107, 117]							L.Haimberger	0	0.4		3.2	190.0	era5.conv._C:4669	OSCAR
386	0-20000-0-27459	0	387	C:4614	3	NIZHNIJ NOVGOROD			0	44.0	56.266666666666666		19541019	19550422	1	0	63	NMS	190	Nizhniy Novgorod									[38, 39, 85, 104, 105, 106, 107, 117]							L.Haimberger	0	0.4		6.4	157.3	era5.conv._C:4614	OSCAR
387	0-20000-0-80044	0	388	80044	3	COROZAL/LAS BRUJAS			0	-75.28333333333333	9.333333333333334		19740711	19740830	1	0	63	NMS	48	Corozal									[36, 38, 39, 85, 104, 105, 106, 107, 117]							L.Haimberger	0	4.1		1.8	86.0	era5.conv._80044	OSCAR
388	0-20000-0-27612	0	389	C:4567	3	MOSKVA VDNH			0	37.61666666666667	55.833333333333336		19540419	19540922	1	0	63	NMS	190	Dolgoprudnyy									[38, 39, 85, 104, 105, 106, 107, 117]							L.Haimberger	0	12.3		3.8	156.7	era5.conv._C:4567	OSCAR
389	0-20300-0-99016	0	390	6:100159	3	OCEAN WEATHER SHIP K			0	-16.0	45.0		19710519	19711015	1	0	63	NMS	67	None									[38, 85, 104, 105, 106, 107, 117]							L.Haimberger	0	23.6		None	-999.0	era5.conv._6:100159	IGRA2
390	0-20000-0-65502	0	391	65502	3	OUAHIGOUYA			0	-2.4333333333333336	13.583333333333334		19740624	19740630	1	0	63	NMS	21	Ouahigouya									[104, 105, 106, 107, 117]							L.Haimberger	0	4.1		2.6	329.0	era5.conv._65502	OSCAR
391	0-20500-0-40302	0	392	2:40302	3	FANI ISLAND AAF			0	131.27	1.08		19441207	19450127	1	0	63	NMS	100	Sorong									[104, 105, 106, 107]							L.Haimberger	0	0.0		217.1	2.1336	era5.conv._2:40302	WBAN
392	0-20500-0-3116	0	393	2:3116	3	GROOM MINE			0	-115.7	37.33		19511119	19511130	1	0	63	NMS	231	Pahrump									[104, 105, 106, 107]							L.Haimberger	0	0.0		127.0	1599.8952000000002	era5.conv._2:3116	WBAN
393	0-20000-0-87270	0	394	87270	3	RECONQUISTA AERO			0	-59.69333333333333	-29.205		19570909	19571215	1	0	63	NMS	10	Reconquista									[104, 105, 106, 107, 117]							L.Haimberger	0	3.6		3.9	53.0	era5.conv._87270	OSCAR
394	0-20000-0-72209	0	395	72209	3	FT. STEWART, GA			0	-81.56666666666666	31.883333333333333		19770505	19780519	1	0	63	NMS	231	Hinesville									[36, 38, 39, 85, 104, 105, 106, 107, 117]							L.Haimberger	0	0.5		4.4	27.0	era5.conv._72209	OSCAR
395	0-20000-0-65467	0	396	65467	3	TAKORADI			0	-1.7666666666666666	4.883333333333333		19660527	19781219	1	0	63	NMS	81	Takoradi									[36, 38, 39, 85, 104, 105, 106, 107, 117]							L.Haimberger	0	0.8		5.8	4.6	era5.conv._65467	OSCAR
396	0-20000-0-68054	0	397	68054	3	FRANCISTOWN			0	27.469166666666663	-21.323888888888888		19730626	19761027	1	0	63	NMS	34	Francistown									[104, 105, 106, 107, 117]							L.Haimberger	0	11.9		6.2	1009.43	era5.conv._68054	OSCAR
397	0-20000-0-06484	0	398	9:1555	3	BUZENOL			0	5.5875	49.62027777777778		19490113	19500731	1	0	63	NMS	20	Virton									[104, 105, 106, 107]							L.Haimberger	0	7.9		3.2	324.0	era5.conv._9:1555	OSCAR
398	0-20000-0-42103	0	399	9:4196	3	AMBALA			0	76.76666666666667	30.383333333333333		19400102	19400613	1	0	63	NMS	104	Ambala									[38, 85, 117]							L.Haimberger	0	5.3		3.9	273.0	era5.conv._9:4196	OSCAR
399	0-20000-0-71853	0	400	1:72853	3	SHILO, MAN			0	-99.64305555555556	49.782777777777774		19681121	19731231	1	0	63	NMS	37	Brandon									[38, 85, 104, 105, 106, 107, 117]							L.Haimberger	0	4.2		21.6	375.2	era5.conv._1:72853	OSCAR
400	0-20300-0-63641	0	401	1:63641	3	MARSABIT			0	37.983	2.333		19680201	19690508	1	0	63	NMS	114	Marsabit									[38, 85, 104, 105, 106, 107, 117]							L.Haimberger	0	9.9		10.0	1345.0	era5.conv._1:63641	IGRA2
401	0-20000-0-43555	0	402	1:43555	3	MALE			0	73.52916666666667	4.191666666666667		19661025	19690202	1	0	63	NMS	154	Male									[38, 85, 104, 105, 106, 107, 117]							L.Haimberger	0	4.0		0.4	2.73	era5.conv._1:43555	OSCAR
402	0-20300-0-99019	0	403	6:109300	3	OCEAN WEATHER SHIP N			0	-140.0	30.0		19710107	19710107	1	0	63	NMS	231	None									[38, 85, 104, 105, 106, 107, 117]							L.Haimberger	0	0.0		None	-999.0	era5.conv._6:109300	IGRA2
403	0-20000-0-74732	0	404	2:93039	3	HOLLOMAN AFB, NM			0	-106.1	32.85		19480713	19480714	1	0	63	NMS	231	Alamogordo									[104, 105, 106, 107]							L.Haimberger	0	26.8		17.1	1258.0	era5.conv._2:93039	OSCAR
404	0-20000-0-84008	0	405	50804	3	SAN CRISTOBAL (GALAPAGOS)			0	-89.6	-0.9		19570912	19571026	1	0	63	NMS	62	None									[104, 105, 106, 107, 117]							L.Haimberger	0	2.2		None	18.0	era5.conv._50804	OSCAR
405	0-20000-0-48900	0	406	2:41002	3	TAN SON HOA			0	106.66666666666669	10.816666666666666		19460411	19460630	1	0	63	NMS	239	Ho Chi Minh City									[104, 105, 106, 107]							L.Haimberger	0	4.1		3.3	5.0	era5.conv._2:41002	OSCAR
406	0-20000-0-78108	0	407	78107	3	ABRAHAM'S BAY, MAYAGUANA			0	-73.01666666666667	22.383333333333333		19620304	19650724	1	0	63	NMS	31	Port-De-Paix									[36, 38, 39, 85, 104, 105, 106, 107, 117]							L.Haimberger	0	2.0		268.7	3.0	era5.conv._78107	OSCAR
407	0-20000-0-48375	0	408	48375	3	MAE SOT			0	98.54166666666669	16.7025		19781220	19781220	1	0	63	NMS	216	Mae Sot									[104, 105, 106, 107, 117]							L.Haimberger	0	3.7		5.5	197.45	era5.conv._48375	OSCAR
408	0-20000-0-07650	0	409	7650	3	MARIGNANE			0	5.216111111111111	43.437777777777775		19620505	19651024	1	0	63	NMS	74	Vitrolles									[36, 38, 39, 85, 104, 105, 106, 107, 117]							L.Haimberger	0	1.4		2.2	32.0	era5.conv._07650	OSCAR
409	0-20000-0-64452	0	410	64452	3	M'POUYA			0	16.216666666666665	-2.6166666666666667		19740712	19740901	1	0	63	NMS	39	Bolobo									[36, 38, 39, 85, 104, 105, 106, 107, 117]							L.Haimberger	0	2.6		48.1	313.0	era5.conv._64452	OSCAR
410	0-20000-0-71702	0	411	14645	3	SUMMERSIDE, PEI			0	-63.837500000000006	46.44138888888889		19570901	19580212	1	0	63	NMS	37	Summerside									[104, 105, 106, 107, 117]							L.Haimberger	0	1.4		4.9	12.2	era5.conv._14645	OSCAR
411	0-20000-0-71299	0	412	1:71831	3	KAPUSKASING CDA ON, ONT			0	-82.44305555555556	49.405277777777776		19620308	19620915	1	0	63	NMS	37	Timmins									[104, 105, 106, 107]							L.Haimberger	0	3.2		129.9	226.5	era5.conv._1:71831	OSCAR
412	0-20000-0-85799	0	413	54701	3	PUERTO MONTT			0	-73.09777777777778	-41.435		19580211	19580212	1	0	63	NMS	45	Puerto Montt									[104, 105, 106, 107, 117]							L.Haimberger	0	23.5		10.4	84.0	era5.conv._54701	OSCAR
413	0-20000-0-41923	0	414	1:41920	3	DHAKA			0	90.38333333333334	23.766666666666666		19620701	19630131	1	0	63	NMS	19	Dhaka									[38, 85, 117]							L.Haimberger	0	0.5		6.0	9.0	era5.conv._1:41920	OSCAR
414	0-20000-0-07491	0	415	2:34011	3	CHAMBERY-AIX-LES-BAINS			0	5.878055555555556	45.64138888888889		19440906	19440916	1	0	63	NMS	74	Voiron									[104, 105, 106, 107]							L.Haimberger	0	29.8		27.2	235.0	era5.conv._2:34011	OSCAR
415	0-20000-0-40233	0	416	62338	3	GAZA			0	34.45	31.5		19630805	19670430	1	0	63	NMS	182	Sederot									[36, 38, 39, 85, 104, 105, 106, 107, 117]							L.Haimberger	0	0.0		14.2	-999.0	era5.conv._62338	OSCAR
416	0-20000-0-08302	0	417	8301	3	MALLORCA-SON BONET			0	2.706666666666667	39.60583333333334		19670309	19691208	1	0	63	NMS	67	Palma									[36, 38, 39, 85, 104, 105, 106, 107, 117]							L.Haimberger	0	9.7		4.1	5.0	era5.conv._08301	OSCAR
417	0-20400-0-5977	0	418	C:5977	3	Abu Halfa			0	32.77	17.72		19470105	19510702	1	0	63	NMS	195	Marawi									[104, 105, 106, 107]							L.Haimberger	0	0.0		131.6	422.0	era5.conv._C:5977	CHUAN
418	0-20000-0-67107	0	419	67107	3	ANTSIRABE			0	47.06666666666667	-19.816666666666663		19691215	19781229	1	0	63	NMS	141	Antsirabe									[36, 38, 39, 85, 104, 105, 106, 107, 117]							L.Haimberger	0	0.5		8.9	1532.0	era5.conv._67107	OSCAR
419	0-20000-0-95719	0	420	94719	3	DUBBO AIRPORT AWS			0	148.5752777777778	-32.22055555555556		19781227	19781227	1	0	63	NMS	13	Dubbo									[104, 105, 106, 107, 117]							L.Haimberger	0	2.6		1.5	285.0	era5.conv._94719	OSCAR
420	0-20500-0-80436	0	421	2:80436	3	GAROVE ISLAND			0	149.43	-4.8		19630106	19630417	1	0	63	NMS	175	Kimbe									[38, 85, 104, 105, 106, 107, 117]							L.Haimberger	0	0.0		115.1	2.1336	era5.conv._2:80436	WBAN
421	0-20000-0-47764	0	422	47764	3	IWAKUNI			0	132.24694444444444	34.145		19660524	19710826	1	0	63	NMS	113	Iwakuni									[36, 38, 39, 85, 104, 105, 106, 107, 117]							L.Haimberger	0	1.7		4.3	6.05	era5.conv._47764	OSCAR
422	0-20000-0-82100	0	423	82100	3	PARI-CACHOEIRA			0	-69.96666666666667	-0.1666666666666666		19740911	19740911	1	0	63	NMS	30	Sao Gabriel Da Cachoeira									[104, 105, 106, 107, 117]							L.Haimberger	0	8.3		313.6	-999.0	era5.conv._82100	OSCAR
423	0-20000-0-48351	0	424	48351	3	UTTARADIT			0	100.09694444444445	17.624444444444446		19740111	19740207	1	0	63	NMS	216	Uttaradit									[104, 105, 106, 107, 117]							L.Haimberger	0	0.6		0.9	64.0	era5.conv._48351	OSCAR
424	0-20300-0-23111	0	425	3149	3	PHOENIX (LUKE FIELD)			0	-112.3667	33.55		19630813	19631022	1	0	63	NMS	231	Goodyear									[36, 38, 39, 85, 104, 105, 106, 107, 117]							L.Haimberger	0	13.3		1.3	333.8	era5.conv._03149	IGRA2
425	0-20400-0-4701	0	426	C:4701	3	Brichmulla			0	70.13	41.58		19560511	19560610	1	0	63	NMS	233	Gazalkent									[38, 39, 85, 104, 105, 106, 107, 117]							L.Haimberger	0	0.0		30.1	-999.0	era5.conv._C:4701	CHUAN
426	0-20000-0-64405	0	427	64405	3	SIBITI			0	13.35	-3.6833333333333336		19740625	19740828	1	0	63	NMS	39	Sibiti									[36, 38, 39, 85, 104, 105, 106, 107, 117]							L.Haimberger	0	5.9		6.2	530.0	era5.conv._64405	OSCAR
427	0-20000-0-15335	0	428	15335	3	TULCEA			0	28.824166666666667	45.19055555555556		19731110	19771209	1	0	63	NMS	188	Tulcea									[104, 105, 106, 107, 117]							L.Haimberger	0	1.2		2.2	30.0	era5.conv._15335	OSCAR
428	0-20300-0-99014	0	429	6:100192	3	OCEAN WEATHER SHIP I			0	-19.0	59.0		19710923	19711006	1	0	63	NMS	108	None									[38, 85, 104, 105, 106, 107, 117]							L.Haimberger	0	25.1		None	-999.0	era5.conv._6:100192	IGRA2
429	0-20000-0-83576	0	430	83576	3	UBERABA (AERO)			0	-47.96666666666667	-19.75		19710902	19731230	1	0	63	NMS	30	Uberaba									[36, 38, 39, 85, 104, 105, 106, 107, 117]							L.Haimberger	0	2.8		3.7	807.0	era5.conv._83576	OSCAR
430	0-20000-0-72221	0	431	2:3843	3	VALPARAISO/EGLIN AFB, FL.			0	-86.51666666666667	30.48333333333333		19490920	19491102	1	0	63	NMS	231	Niceville									[104, 105, 106, 107]							L.Haimberger	0	9.3		5.0	29.0	era5.conv._2:3843	OSCAR
431	0-20000-0-60729	0	432	2:33105	3	ZAGHOUAN			0	10.083333333333334	36.43333333333333		19430822	19431231	1	0	63	NMS	221	Maqrin									[104, 105, 106, 107]							L.Haimberger	0	3.5		39.1	156.0	era5.conv._2:33105	OSCAR
432	0-20000-0-96751	0	433	96755	3	BOGOR/CITEKO			0	106.95083333333334	-6.7		19590323	19781226	1	0	63	NMS	100	Sukaraja									[36, 38, 39, 85, 104, 105, 106, 107, 117]							L.Haimberger	0	17.5		8.1	104.0	era5.conv._96755	OSCAR
433	0-20300-0-99008	0	434	6:100355	3	OCEAN WEATHER SHIP C			0	-35.5	52.75		19710509	19710728	1	0	63	NMS	83	None									[38, 85, 104, 105, 106, 107, 117]							L.Haimberger	0	5.6		None	-999.0	era5.conv._6:100355	IGRA2
434	0-20000-0-61721	0	435	61721	3	JANJANGBUREH (GEORGETOWN)			0	-14.76888888888889	13.539166666666668		19740721	19740721	1	0	63	NMS	84	Kuntaur									[36, 38, 39, 85, 104, 105, 106, 107, 117]							L.Haimberger	0	5.5		18.1	-999.0	era5.conv._61721	OSCAR
435	0-20000-0-47102	0	436	2:43226	3	BAENGNYEONGDO			0	124.7125	37.973888888888894		19510511	19510906	1	0	63	NMS	121	Seoul									[104, 105, 106, 107]							L.Haimberger	0	19.5		203.9	146.21	era5.conv._2:43226	OSCAR
436	0-20000-0-78397	0	437	C:5482	3	KINGSTON/NORMAN MANLEY			0	-76.78333333333333	17.933333333333334		19400127	19410112	1	0	63	NMS	111	Half Way Tree									[104, 105, 106, 107]							L.Haimberger	0	5.5		2.2	14.0	era5.conv._C:5482	OSCAR
437	0-20000-0-43367	0	438	C:5432	3	CAR NICOBAR			0	92.83333333333331	9.166666666666666		19400422	19420227	1	0	63	NMS	104	Port Blair									[104, 105, 106, 107]							L.Haimberger	0	2.4		278.5	10.1	era5.conv._C:5432	OSCAR
438	0-20000-0-72310	0	439	2:93833	3	COLUMBIA, SC.			0	-81.11666666666666	33.95		19450301	19450928	1	0	63	NMS	231	Forest Acres									[104, 105, 106, 107]							L.Haimberger	0	29.5		20.7	69.0	era5.conv._2:93833	OSCAR
439	0-20600-0-32247	0	440	9:4180	3	(made up station ID) Belorechensk / Kichiga, Russia			0	163.4	59.81		19400512	19400512	1	0	63	NMS	190	None									[85, 117]							L.Haimberger	0	0.0		None	-999.0	era5.conv._9:4180	SCHROEDER
440	0-20000-0-34737	0	441	34737	3	KUSHCHEVSKAJA			0	39.61666666666667	46.53333333333333		19781204	19781204	1	0	63	NMS	190	Kushchevskaya									[36, 38, 39, 85, 104, 105, 106, 107, 117]							L.Haimberger	0	4.2		1.1	21.71	era5.conv._34737	OSCAR
441	0-20000-0-65472	0	442	65449	3	ACCRA			0	-0.1666666666666666	5.6		19630704	19640627	1	0	63	NMS	81	Teshie									[36, 38, 39, 85, 104, 105, 106, 107, 117]							L.Haimberger	0	7.4		1.8	67.7	era5.conv._65449	OSCAR
442	0-20300-0-26520	0	443	2:3153	3	CA SANTA ANA/ORANGE COUNTY AAF			0	-117.833	33.7		19650516	19650528	1	0	63	NMS	231	Lake Forest									[38, 85, 104, 105, 106, 107, 117]							L.Haimberger	0	11.0		3.9	18.0	era5.conv._2:3153	IGRA2
443	0-20000-0-15410	0	444	1:15410	3	DROBETA-TURNU SEVERIN			0	22.62611111111111	44.62638888888889		19730523	19771223	1	0	63	NMS	189	Drobeta-Turnu Severin									[38, 85, 104, 105, 106, 107, 117]							L.Haimberger	0	0.5		2.1	77.0	era5.conv._1:15410	OSCAR
444	0-20000-0-48062	0	445	9:1745	3	SITTWE			0	92.88333333333334	20.133333333333333		19460502	19481224	1	0	63	NMS	145	Akyab									[104, 105, 106, 107]							L.Haimberger	0	3.9		3.0	5.0	era5.conv._9:1745	OSCAR
445	0-20000-0-40439	0	446	40439	3	YENBO			0	38.06666666666667	24.133333333333333		19740629	19740926	1	0	63	NMS	192	Umm Lajj									[36, 38, 39, 85, 104, 105, 106, 107, 117]							L.Haimberger	0	5.0		132.3	10.0	era5.conv._40439	OSCAR
446	0-20000-0-74755	0	447	1:74755	3	CLAIBORNE RANGE, LA. (AFS)			0	-92.56666666666666	31.133333333333333		19710901	19721229	1	0	63	NMS	231	Alexandria									[104, 105, 106, 107]							L.Haimberger	0	0.5		22.8	67.0	era5.conv._1:74755	OSCAR
