	primary_id	primary_id_scheme	record_number	secondary_id	secondary_id_scheme	station_name	station_abbreviation	alternative_name	station_crs	longitude	latitude	local_gravity	start_date	end_date	station_type	platform_type	platform_sub_type	operating_institute	operating_territory	city	contact	role	observing_frequency	reporting_time	telecommunication_method	station_automation	measuring_system_model	measuring_system_id	observed_variables	comment	optional_data	bbox_min_longitude	bbox_max_longitude	bbox_min_latitude	bbox_max_latitude	metadata_contact	metadata_contact_role	distance_km	distance_km_minusLat	city_dist_km	elevation	file	inventory
0	0-20000-0-66450	0	1	66450	3	BAIA DOS TIGRES			0	11.716666666666669	-16.6		20141023	20141023	1	0	63	NMS	8	Namibe									['38', '85', '106', '107']							L.Haimberger	0	0.4		162.1	1.0	uadb_windc_66450.txt	OSCAR
1	0-20700-0-36428	0	2	36421	3	ULKEN NARYN              			0	84.0	49.0		19660603	19680430	1	0	63	NMS	124	Zyryanovsk									['38', '85', '106', '107']							L.Haimberger	0	22.2		63.1	-999.0	uadb_windc_36421.txt	WMO
2	0-20000-0-31174	0	3	31174	3	BOL'SHOJ SHANTAR			0	137.53333333333333	54.833333333333336		19620314	19630630	1	0	63	NMS	190	Nikolayevsk-Na-Amure									['38', '85', '106', '107']							L.Haimberger	0	4.3		281.1	9.0	uadb_windc_31174.txt	OSCAR
3	0-20000-0-64705	0	4	64705	3	BOUSSO			0	16.716666666666665	10.483333333333333		20121220	20121220	1	0	63	NMS	213	Bousso									['38', '85', '106', '107']							L.Haimberger	0	0.5		0.5	336.0	uadb_windc_64705.txt	OSCAR
4	0-20000-0-60355	0	5	60355	3	SKIKDA			0	6.9	36.88333333333333		19760120	20030712	1	0	63	NMS	61	Constantine									['38', '85', '106', '107']							L.Haimberger	0	4.7		63.6	3.0	uadb_windc_60355.txt	OSCAR
5	0-20300-0-89593	0	6	89593	3	PIONERSKAVA			0	95.05	-69.73		19580313	19581231	1	0	63	NMS	9	None									['38', '85', '106', '107']							L.Haimberger	0	0.0		None	2701.0	uadb_trhc_89593.txt	IGRA2
6	0-20000-0-47101	0	7	47101	3	CHUNCHEON			0	127.73583333333332	37.9025		20120906	20200117	1	0	63	NMS	121	Seoul									['38', '85', '106', '107']							L.Haimberger	0	0.5		75.0	78.71	uadb_trhc_47101.txt	OSCAR
7	0-20000-0-74734	0	8	74733	3	White Sands Space Harbor			0	-106.46416666666669	32.88111111111111		20210316	20230424	1	0	63	NMS	231	Alamogordo									['38', '85', '106', '107']							L.Haimberger	0	6.4		41.2	1258.0	uadb_trhc_74733.txt	OSCAR
8	0-20000-0-96529	0	9	96529	3	TANJUNG REDEP/KALIMARAU			0	117.4327777777778	2.1438888888888887		20090330	20110103	1	0	63	NMS	100	Tarakan									['38', '85', '106', '107']							L.Haimberger	0	3.3		132.1	26.0	uadb_trhc_96529.txt	OSCAR
9	0-20000-0-51765	0	10	51765	3	TIKANLIK			0	87.7	40.63333333333333		19660825	19911029	1	0	63	NMS	47	Korla									['38', '85', '106', '107']							L.Haimberger	0	0.4		180.9	847.0	uadb_trhc_51765.txt	OSCAR
10	0-20000-0-60607	0	11	60607	3	TIMIMOUN			0	0.2833333333333333	29.25		19840319	19890820	1	0	63	NMS	61	Adrar									['38', '85', '106', '107']							L.Haimberger	0	0.3		159.4	317.0	uadb_trhc_60607.txt	OSCAR
11	0-20000-0-40233	0	12	62338	3	GAZA			0	34.45	31.5		19630805	20031223	1	0	63	NMS	182	Sederot									['38', '85', '106', '107']							L.Haimberger	0	0.0		14.2	-999.0	uadb_windc_62338.txt	OSCAR
12	0-20000-0-64387	0	13	64387	3	KIGALI			0	30.13277777777778	-1.965		19810722	19920204	1	0	63	NMS	191	Kigali									['38', '85', '106', '107']							L.Haimberger	0	1.5		6.9	1497.47	uadb_windc_64387.txt	OSCAR
13	0-20000-0-67037	0	14	67037	3	BESALAMPY			0	44.48333333333333	-16.75		19670704	20020314	1	0	63	NMS	141	Mahajanga									['38', '85', '106', '107']							L.Haimberger	0	0.4		222.6	36.0	uadb_windc_67037.txt	OSCAR
14	0-20300-0-20047	0	15	20047	3	BUKHTA TIKHAYA/GUKER IS.			0	52.8	80.45		19550305	19610312	1	0	63	NMS	190	None									['38', '85', '106', '107']							L.Haimberger	0	0.0		None	5.0	uadb_windc_20047.txt	IGRA2
15	0-20000-0-47101	0	16	47101	3	CHUNCHEON			0	127.73583333333332	37.9025		20120906	20200117	1	0	63	NMS	121	Seoul									['38', '85', '106', '107']							L.Haimberger	0	0.5		75.0	78.71	uadb_windc_47101.txt	OSCAR
16	0-20500-0-41006	0	17	48910	3	VINH LONG			0	105.95	10.25		19710616	20010818	1	0	63	NMS	239	Vinh Long									['38', '85', '106', '107']							L.Haimberger	0	0.0		6.6	5.1816	uadb_windc_48910.txt	WBAN
17	0-20000-0-57265	0	18	57265	3	LAOHEKOU			0	111.73333333333332	32.43333333333333		19571031	20000614	1	0	63	NMS	47	Laohekou									['38', '85', '106', '107']							L.Haimberger	0	6.1		3.9	128.8	uadb_trhc_57265.txt	OSCAR
18	0-20500-0-43015	0	19	52856	3	QINGHAI PROV AIR SAM			0	100.92	36.27		19660527	19990830	1	0	63	NMS	47	Xining									['38', '85', '106', '107']							L.Haimberger	0	27.0		109.8	3810.0	uadb_trhc_52856.txt	WBAN
19	0-20000-0-62752	0	20	62752	3	GEDAREF			0	35.4	14.033333333333331		19691018	19750605	1	0	63	NMS	195	Doka									['38', '85', '106', '107']							L.Haimberger	0	0.4		69.3	599.0	uadb_windc_62752.txt	OSCAR
20	0-20000-0-48870	0	21	48870	3	QUY NHON			0	109.21666666666668	13.766666666666667		19680102	20110103	1	0	63	NMS	239	Qui Nhon									['38', '85', '106', '107']							L.Haimberger	0	0.5		1.5	6.0	uadb_trhc_48870.txt	OSCAR
21	0-20000-0-60607	0	22	60606	3	TIMIMOUN			0	0.2833333333333333	29.25		19570701	19581231	1	0	63	NMS	61	Adrar									['38', '85', '106', '107']							L.Haimberger	0	5.2		157.8	317.0	uadb_windc_60606.txt	OSCAR
22	0-20000-0-60220	0	23	60220	3	ESSAOUIRA			0	-9.773333333333332	31.51		19681105	19700528	1	0	63	NMS	136	Asfi									['38', '85', '106', '107']							L.Haimberger	0	1.3		100.5	8.0	uadb_windc_60220.txt	OSCAR
23	0-20000-0-41529	0	24	41529	3	PESHAWAR			0	71.93333333333334	34.03333333333333		20141002	20141002	1	0	63	NMS	177	Amangarh									['38', '85', '106', '107']							L.Haimberger	0	0.5		2.7	329.0	uadb_trhc_41529.txt	OSCAR
24	0-20000-0-96491	0	25	96491	3	SANDAKAN			0	118.06666666666666	5.9		19700930	20101213	1	0	63	NMS	157	Sandakan									['38', '85', '106', '107']							L.Haimberger	0	0.4		8.5	13.0	uadb_trhc_96491.txt	OSCAR
25	0-20000-0-38328	0	26	38328	3	SHYMKENT			0	69.71000000000001	42.34777777777778		19660610	19680429	1	0	63	NMS	124	Shymkent									['38', '85', '106', '107']							L.Haimberger	0	10.5		0.0	604.0	uadb_windc_38328.txt	OSCAR
26	0-20000-0-71879	0	27	72879	3	EDMONTON CITY CENTRE AWOS, ALTA			0	-113.51944444444445	53.57194444444445		19540101	19620420	1	0	63	NMS	37	Edmonton									['38', '85', '106', '107']							L.Haimberger	0	0.2		2.6	671.4	uadb_trhc_72879.txt	OSCAR
27	0-20000-0-70222	0	28	70222	3	GALENA A.			0	-156.93333333333334	64.73333333333333		19620311	19790718	1	0	63	NMS	231	None									['38', '85', '106', '107']							L.Haimberger	0	0.4		None	49.0	uadb_trhc_70222.txt	OSCAR
28	0-20000-0-55279	0	29	55279	3	BAINGOIN			0	90.01666666666667	31.366666666666667		19730429	19970702	1	0	63	NMS	47	Lasa									['38', '85', '106', '107']							L.Haimberger	0	0.5		217.0	4701.0	uadb_trhc_55279.txt	OSCAR
29	0-20000-0-63844	0	30	63844	3	TANGA			0	39.06666666666667	-5.083333333333333		19760121	19910704	1	0	63	NMS	227	Tanga									['38', '85', '106', '107']							L.Haimberger	0	0.5		3.6	35.0	uadb_windc_63844.txt	OSCAR
30	0-20000-0-37735	0	31	37735	3	GANDJA			0	46.41666666666666	40.71666666666667		19700407	19911013	1	0	63	NMS	16	Xanlar									['38', '85', '106', '107']							L.Haimberger	0	0.5		15.2	311.0	uadb_trhc_37735.txt	OSCAR
31	0-20000-0-56778	0	32	56779	3	KUNMING			0	102.68333333333334	25.016666666666666		19600407	19620828	1	0	63	NMS	47	Kunming									['38', '85', '106', '107']							L.Haimberger	0	14.9		12.1	1892.0	uadb_trhc_56779.txt	OSCAR
32	0-20000-0-61600	0	33	61600	3	SAINT-LOUIS			0	-16.449722222222224	16.05		19680410	20140131	1	0	63	NMS	204	Saint-Louis									['38', '85', '106', '107']							L.Haimberger	0	0.0		5.9	2.16	uadb_trhc_61600.txt	OSCAR
33	0-20300-0-70489	0	34	70489	3	DUTCH HARBOR			0	-166.53	53.9		19510202	19540327	1	0	63	NMS	231	None									['38', '85', '106', '107']							L.Haimberger	0	0.0		None	7.0	uadb_windc_70489.txt	IGRA2
34	0-20600-0-55228	0	35	55228	3	Garbiutangka, China			0	80.07	32.12		19730222	19911027	1	0	63	NMS	47	Joshimath									['38', '85', '106', '107']							L.Haimberger	0	0.0		178.8	-999.0	uadb_trhc_55228.txt	SCHROEDER
35	0-20000-0-62751	0	36	62751	3	WAD MEDANI			0	33.483333333333334	14.4		19650604	19750713	1	0	63	NMS	195	Wad Madani									['38', '85', '106', '107']							L.Haimberger	0	0.4		5.8	408.0	uadb_windc_62751.txt	OSCAR
36	0-20000-0-22768	0	37	22768	3	SHENKURSK			0	42.9	62.1		19530216	19541231	1	0	63	NMS	190	Mirnyy									['38', '85', '106', '107']							L.Haimberger	0	0.0		121.6	44.8	uadb_windc_22768.txt	OSCAR
37	0-20000-0-41416	0	38	40588	3	KAMARAN			0	42.583333333333336	15.366666666666667		19490217	19541112	1	0	63	NMS	243	Bajil									['38', '85', '106', '107']							L.Haimberger	0	5.7		77.0	-999.0	uadb_windc_40588.txt	OSCAR
38	0-20000-0-62062	0	39	62063	3	TOBRUK			0	23.95888888888889	32.09555555555556		19640711	19840417	1	0	63	NMS	135	Tubruq									['38', '85', '106', '107']							L.Haimberger	0	22.4		26.4	51.0	uadb_windc_62063.txt	OSCAR
39	0-20000-0-62795	0	40	62795	3	ABU NA'AMA			0	34.13333333333333	12.733333333333333		19660705	19710623	1	0	63	NMS	195	Sinjah									['38', '85', '106', '107']							L.Haimberger	0	0.5		51.1	445.0	uadb_windc_62795.txt	OSCAR
40	0-20500-0-94109	0	41	71885	3	CARMI			0	-119.08	49.5		19620312	19620910	1	0	63	NMS	37	Penticton									['38', '85', '106', '107']							L.Haimberger	0	5.8		42.3	245.0592	uadb_windc_71885.txt	WBAN
41	0-20000-0-54423	0	42	54423	3	CHENGDE			0	117.91666666666669	40.96666666666667		19641007	19881022	1	0	63	NMS	47	Chengde									['38', '85', '106', '107']							L.Haimberger	0	7.3		36.2	423.5	uadb_trhc_54423.txt	OSCAR
42	0-20000-0-63533	0	43	63533	3	NEGHELLE			0	39.56666666666667	5.333333333333333		19940224	20081006	1	0	63	NMS	68	Shakiso									['38', '85', '106', '107']							L.Haimberger	0	21.2		106.0	1544.0	uadb_trhc_63533.txt	OSCAR
43	0-20000-0-67131	0	44	67131	3	MOROMBE			0	43.36666666666667	-21.75		19700405	19810909	1	0	63	NMS	141	Ankazoabo									['38', '85', '106', '107']							L.Haimberger	0	0.3		133.2	4.0	uadb_windc_67131.txt	OSCAR
44	0-20300-0-60535	0	45	60535	3	DJELFA			0	3.25	34.6833		19810521	19870621	1	0	63	NMS	61	Birin									['38', '85', '106', '107']							L.Haimberger	0	0.4		106.0	1144.0	uadb_trhc_60535.txt	IGRA2
45	0-20000-0-50603	0	46	50603	3	XIN BARAG YOUQI			0	116.81	48.678888888888885		19730409	19911029	1	0	63	NMS	47	Manzhouli									['38', '85', '106', '107']							L.Haimberger	0	1.2		112.7	556.7	uadb_trhc_50603.txt	OSCAR
46	0-20000-0-67975	0	47	67975	3	MASVINGO			0	30.866666666666667	-20.066666666666663		19811107	20100810	1	0	63	NMS	248	Masvingo									['38', '85', '106', '107']							L.Haimberger	0	0.5		4.1	1095.0	uadb_trhc_67975.txt	OSCAR
47	0-20000-0-60360	0	48	60360	3	ANNABA			0	7.816666666666666	36.833333333333336		19620312	19911028	1	0	63	NMS	61	Tabarqah									['38', '85', '106', '107']							L.Haimberger	0	0.5		84.7	8.0	uadb_trhc_60360.txt	OSCAR
48	0-20000-0-37004	0	49	37004	3	GELENDZHIK			0	38.083333333333336	44.56666666666667		19770422	20021231	1	0	63	NMS	190	Gelendzhik									['38', '85', '106', '107']							L.Haimberger	0	0.5		0.9	14.7	uadb_trhc_37004.txt	OSCAR
49	0-20000-0-51379	0	50	51379	3	QITAI			0	89.56666666666666	44.016666666666666		19740812	19901104	1	0	63	NMS	47	Urumqi									['38', '85', '106', '107']							L.Haimberger	0	0.5		160.1	795.0	uadb_trhc_51379.txt	OSCAR
50	0-20000-0-30822	0	51	30822	3	BABUSKIN			0	105.85194444444444	51.708333333333336		19670922	19680618	1	0	63	NMS	190	Selenginsk									['38', '85', '106', '107']							L.Haimberger	0	1.8		75.6	467.6	uadb_windc_30822.txt	OSCAR
51	0-20000-0-97810	0	52	97810	3	TUAL/DUMATUBUN			0	132.7361111111111	-5.663611111111112		19911002	20110104	1	0	63	NMS	100	Tual									['38', '85', '106', '107']							L.Haimberger	0	2.4		1.5	12.0	uadb_trhc_97810.txt	OSCAR
52	0-20000-0-72306	0	53	72306	3	RALEIGH/RALEIGH-DURHAM, NC.			0	-78.78333333333333	35.86666666666667		19630904	19741214	1	0	63	NMS	231	Cary									['38', '85', '106', '107']							L.Haimberger	0	0.5		8.7	134.0	uadb_trhc_72306.txt	OSCAR
53	0-20000-0-54027	0	54	54027	3	LINDONG			0	119.31666666666666	43.95		19800731	19870622	1	0	63	NMS	47	Chifeng									['38', '85', '106', '107']							L.Haimberger	0	7.5		193.4	485.0	uadb_trhc_54027.txt	OSCAR
54	0-20000-0-48877	0	55	48877	3	NHA TRANG			0	109.21666666666668	12.216666666666669		19680510	20110102	1	0	63	NMS	239	Nha Trang									['38', '85', '106', '107']							L.Haimberger	0	4.1		1.8	4.0	uadb_trhc_48877.txt	OSCAR
55	0-20000-0-91190	0	56	91190	3	KAHULUI AIRPORT, MAUI, HAWAII			0	-156.43333333333334	20.9		19680616	19911029	1	0	63	NMS	231	Kahului									['38', '85', '106', '107']							L.Haimberger	0	0.3		4.2	20.0	uadb_trhc_91190.txt	OSCAR
56	0-20000-0-53529	0	57	53529	3	OTOG QI			0	107.98333333333332	39.1		19710119	19870622	1	0	63	NMS	47	Wuda									['38', '85', '106', '107']							L.Haimberger	0	0.3		118.1	1381.0	uadb_trhc_53529.txt	OSCAR
57	0-20000-0-84200	0	58	84111	3	SALINAS AEROPUERTO			0	-80.98583333333333	-2.207777777777778		19431031	19450910	1	0	63	NMS	62	Salinas									['38', '85', '106', '107']							L.Haimberger	0	1.8		4.1	6.0	uadb_trhc_84111.txt	OSCAR
58	0-20300-0-91945	0	59	91945	3	HEREHERETUE			0	-144.9494	-19.9061		19700415	20101128	1	0	63	NMS	174	Papara									['38', '85', '106', '107']							L.Haimberger	0	6.6		533.9	2.0	uadb_trhc_91945.txt	IGRA2
59	0-20000-0-91348	0	60	91347	3	WEATHER SERVICE OFFICE, POHNPEI, CAROLINE IS.			0	158.20666666666665	6.961944444444445		19900902	19930723	1	0	63	NMS	72	None									['38', '85', '106', '107']							L.Haimberger	0	1.7		None	37.8	uadb_trhc_91347.txt	OSCAR
60	0-20000-0-96073	0	61	96073	3	SIBOLGA/PINANGSORI			0	98.88333333333334	1.5533333333333337		19840530	20110105	1	0	63	NMS	100	Sibolga									['38', '85', '106', '107']							L.Haimberger	0	0.5		24.1	3.0	uadb_trhc_96073.txt	OSCAR
61	0-20000-0-60120	0	62	60120	3	KENITRA			0	-6.594722222222222	34.30027777777777		19491127	20020203	1	0	63	NMS	136	Kenitra									['38', '85', '106', '107']							L.Haimberger	0	0.5		4.7	4.0	uadb_windc_60120.txt	OSCAR
62	0-20000-0-78730	0	63	78730	3	PUERTO CABEZAS			0	-83.63333333333334	14.066666666666666		19750828	19970418	1	0	63	NMS	164	Puerto Cabezas									['38', '85', '106', '107']							L.Haimberger	0	25.5		1.8	20.0	uadb_trhc_78730.txt	OSCAR
63	0-20000-0-91176	0	64	91176	3	KANEOHE BAY (MCAS),  OAHU, HAWAII			0	-157.76666666666668	21.45		19850207	20080709	1	0	63	NMS	231	Kaneohe									['38', '85', '106', '107']							L.Haimberger	0	0.3		5.0	5.0	uadb_trhc_91176.txt	OSCAR
64	0-20000-0-55472	0	65	55472	3	XAINZA			0	88.63333333333334	30.95		19770410	19911029	1	0	63	NMS	47	Lasa									['38', '85', '106', '107']							L.Haimberger	0	0.3		277.9	4670.0	uadb_trhc_55472.txt	OSCAR
65	0-20000-0-57922	0	66	57922	3	DUSHAN			0	107.55	25.83333333333333		19580628	19591231	1	0	63	NMS	47	Xiaoweizhai									['38', '85', '106', '107']							L.Haimberger	0	2.0		40.0	1015.5	uadb_windc_57922.txt	OSCAR
66	0-20000-0-63866	0	67	63866	3	MOROGORO			0	37.65	-6.833333333333333		19730814	19960925	1	0	63	NMS	227	Morogoro									['38', '85', '106', '107']							L.Haimberger	0	0.4		2.4	526.0	uadb_windc_63866.txt	OSCAR
67	0-20000-0-97686	0	68	97686	3	WAMENA			0	138.95027777777776	-4.095833333333333		19911003	20231226	1	0	63	NMS	100	Vanimo									['38', '85', '106', '107']							L.Haimberger	0	2.9		300.6	1660.0	uadb_trhc_97686.txt	OSCAR
68	0-20000-0-54843	0	69	54843	3	WEIFANG			0	119.18333333333334	36.766666666666666		19600618	19610314	1	0	63	NMS	47	Weifang									['38', '85', '106', '107']							L.Haimberger	0	9.3		2.0	22.0	uadb_trhc_54843.txt	OSCAR
69	0-20000-0-67843	0	70	67843	3	VICTORIA FALLS			0	25.85	-18.1		19810819	19961009	1	0	63	NMS	248	Victoria Falls									['38', '85', '106', '107']							L.Haimberger	0	0.0		18.5	1062.0	uadb_trhc_67843.txt	OSCAR
70	0-20000-0-63654	0	71	63654	3	MASINDI			0	31.716666666666665	1.6833333333333331		19631002	19780121	1	0	63	NMS	229	Masindi									['38', '85', '106', '107']							L.Haimberger	0	0.5		0.8	1147.0	uadb_windc_63654.txt	OSCAR
71	0-20000-0-54539	0	72	54539	3	LETING			0	118.9	39.43333333333333		19710223	19980222	1	0	63	NMS	47	Changli									['38', '85', '106', '107']							L.Haimberger	0	1.5		38.2	12.0	uadb_trhc_54539.txt	OSCAR
72	0-20000-0-57766	0	73	57766	3	SHAOYANG			0	111.45	27.183333333333334		19591001	19591130	1	0	63	NMS	47	Shaoyang									['38', '85', '106', '107']							L.Haimberger	0	10.1		34.4	310.4	uadb_windc_57766.txt	OSCAR
73	0-20000-0-47407	0	74	47407	3	ASAHIKAWA			0	142.37222222222223	43.75694444444444		19220710	19410721	1	0	63	NMS	113	Asahikawa									['38', '85', '106', '107']							L.Haimberger	0	1.5		0.2	140.3	uadb_windc_47407.txt	OSCAR
74	0-20000-0-54909	0	75	54906	3	DINGTAO			0	115.51666666666668	35.083333333333336		19710509	19870621	1	0	63	NMS	47	Heze									['38', '85', '106', '107']							L.Haimberger	0	20.1		1.3	51.7	uadb_trhc_54906.txt	OSCAR
75	0-20000-0-96781	0	76	96781	3	BANDUNG/HUSEIN			0	107.58333333333331	-6.9		19610303	19920915	1	0	63	NMS	100	Bandung									['38', '85', '106', '107']							L.Haimberger	0	0.4		4.3	740.0	uadb_trhc_96781.txt	OSCAR
76	0-20000-0-40672	0	77	40672	3	DIWANIYA			0	44.95	31.95		19490202	19560531	1	0	63	NMS	106	Baghdad									['38', '85', '106', '107']							L.Haimberger	0	4.4		160.4	20.0	uadb_windc_40672.txt	OSCAR
77	0-20300-0-46736	0	78	46736	3	CHINMEM/SHATOU(AFB)			0	118.433	24.433		19720923	19911027	1	0	63	NMS	226	Xiamen									['38', '85', '106', '107']							L.Haimberger	0	0.5		35.7	12.0	uadb_trhc_46736.txt	IGRA2
78	0-20000-0-65123	0	79	65123	3	MINNA			0	6.533333333333333	9.616666666666667		19631201	19830726	1	0	63	NMS	163	Minna									['38', '85', '106', '107']							L.Haimberger	0	4.1		3.0	256.4	uadb_windc_65123.txt	OSCAR
79	0-20000-0-47616	0	80	47616	3	FUKUI			0	136.2225	36.05555555555555		19380601	19410625	1	0	63	NMS	113	Maruoka									['38', '85', '106', '107']							L.Haimberger	0	0.9		11.6	17.42	uadb_windc_47616.txt	OSCAR
80	0-20000-0-12465	0	81	12465	3	LODZ-LUBLINEK			0	19.399444444444445	51.723333333333336		19691016	19941212	1	0	63	NMS	178	Konstantynow Lodzki									['38', '85', '106', '107']							L.Haimberger	0	2.6		5.1	190.34	uadb_windc_12465.txt	OSCAR
81	0-20000-0-30683	0	82	30683	3	EROFEJ PAVLOVIC			0	121.93333333333334	53.96666666666667		19730414	19971120	1	0	63	NMS	190	Skovorodino									['38', '85', '106', '107']							L.Haimberger	0	0.4		127.7	521.8	uadb_windc_30683.txt	OSCAR
82	0-20000-0-42105	0	83	42105	3	CHANDIGARH			0	76.88333333333334	30.73333333333333		20160101	20190607	1	0	63	NMS	104	Chandigarh									['38', '85', '106', '107']							L.Haimberger	0	0.5		8.3	347.0	uadb_windc_42105.txt	OSCAR
83	0-20000-0-65467	0	84	65467	3	TAKORADI			0	-1.7666666666666666	4.883333333333333		19660527	20000913	1	0	63	NMS	81	Takoradi									['38', '85', '106', '107']							L.Haimberger	0	0.5		5.8	4.6	uadb_windc_65467.txt	OSCAR
84	0-20000-0-60566	0	85	60566	3	GHARDAIA			0	3.8	32.4		19751028	19911029	1	0	63	NMS	61	Warqla									['38', '85', '106', '107']							L.Haimberger	0	2.9		149.7	469.0	uadb_trhc_60566.txt	OSCAR
85	0-20600-0-30954	0	86	30954	3	Duldurga, Russia			0	113.58	50.68		19740924	20010807	1	0	63	NMS	190	Aginskoye									['38', '85', '106', '107']							L.Haimberger	0	0.0		81.7	-999.0	uadb_trhc_30954.txt	SCHROEDER
86	0-20000-0-67002	0	87	67002	3	HAHAYA INT. AIRPORT			0	43.266666666666666	-11.533333333333331		20180226	20231230	1	0	63	NMS	118	Moroni									['38', '85', '106', '107']							L.Haimberger	0	0.5		19.5	29.0	uadb_windc_67002.txt	OSCAR
87	0-20000-0-91492	0	88	91492	3	CHRISTMAS ISLAND (91492-0)			0	-157.4	2.0		19870325	19911029	1	0	63	NMS	117	None									['38', '85', '106', '107']							L.Haimberger	0	0.0		None	3.0	uadb_trhc_91492.txt	OSCAR
88	0-20000-0-96925	0	89	96925	3	SANGKAPURA (BAWEAN IS.)			0	112.65777777777778	-5.850833333333333		19690715	20110105	1	0	63	NMS	100	Paciran									['38', '85', '106', '107']							L.Haimberger	0	3.1		117.1	3.0	uadb_trhc_96925.txt	OSCAR
89	0-20000-0-78925	0	90	78925	3	LAMENTIN-AERO			0	-60.99555555555556	14.595277777777778		19750926	19870622	1	0	63	NMS	74	Le Lamentin									['38', '85', '106', '107']							L.Haimberger	0	0.7		0.0	8.0	uadb_trhc_78925.txt	OSCAR
90	0-20000-0-43367	0	91	43367	3	CAR NICOBAR			0	92.83333333333331	9.166666666666666		19550102	19621031	1	0	63	NMS	104	Port Blair									['38', '85', '106', '107']							L.Haimberger	0	0.5		276.3	10.1	uadb_windc_43367.txt	OSCAR
91	0-20000-0-71851	0	92	71851	3	PORTAGE SOUTHPORT, MAN			0	-98.28388888888888	49.903055555555554		19980304	20030911	1	0	63	NMS	37	Winnipeg									['38', '85', '106', '107']							L.Haimberger	0	1.1		79.3	272.7	uadb_windc_71851.txt	OSCAR
92	0-20000-0-65082	0	93	65082	3	MAIDUGURI			0	13.083333333333334	11.85		20130318	20130318	1	0	63	NMS	163	Maiduguri									['38', '85', '106', '107']							L.Haimberger	0	0.4		8.8	353.8	uadb_trhc_65082.txt	OSCAR
93	0-20300-0-53420	0	94	53420	3	XAMBA			0	107.17	40.97		19560820	19581205	1	0	63	NMS	47	Haibowan									['38', '85', '106', '107']							L.Haimberger	0	0.0		148.1	1057.0	uadb_windc_53420.txt	IGRA2
94	0-20000-0-48500	0	95	48500	3	PRACHUAP KHIRIKHAN			0	99.81027777777776	11.835		19680107	20110104	1	0	63	NMS	216	Prachuap Khiri Khan									['38', '85', '106', '107']							L.Haimberger	0	4.0		1.0	5.9	uadb_trhc_48500.txt	OSCAR
95	0-20000-0-74631	0	96	74631	3	White Sands Rhodes Canyon			0	-106.48916666666666	33.16277777777778		20201119	20231214	1	0	63	NMS	231	Alamogordo									['38', '85', '106', '107']							L.Haimberger	0	1.2		57.1	1235.0	uadb_trhc_74631.txt	OSCAR
96	0-20000-0-63260	0	97	63260	3	MOGADISCIO			0	45.35	2.033333333333333		19650504	19930103	1	0	63	NMS	205	Mogadishu									['38', '85', '106', '107']							L.Haimberger	0	1.5		4.5	9.0	uadb_windc_63260.txt	OSCAR
97	0-20000-0-07024	0	98	7024	3	MAUPERTUS GONNEVILLE			0	-1.463611111111111	49.65277777777778		19691016	19900908	1	0	63	NMS	74	Tourlaville									['38', '85', '106', '107']							L.Haimberger	0	0.6		7.1	138.0	uadb_windc_7024.txt	OSCAR
98	0-20000-0-61080	0	99	61080	3	MARADI			0	7.083333333333333	13.466666666666669		19870325	20030517	1	0	63	NMS	161	Maradi									['38', '85', '106', '107']							L.Haimberger	0	0.5		3.0	373.0	uadb_trhc_61080.txt	OSCAR
99	0-20000-0-17609	0	100	17609	3	LARNACA AIRPORT			0	33.617222222222225	34.873333333333335		19810701	20110105	1	0	63	NMS	53	Larnaca									['38', '85', '106', '107']							L.Haimberger	0	1.4		4.1	11.69	uadb_trhc_17609.txt	OSCAR
100	0-20000-0-67004	0	101	67004	3	OUANI (ANJOUAN)			0	44.43333333333333	-12.116666666666667		19660510	19830515	1	0	63	NMS	118	Mutsamudu									['38', '85', '106', '107']							L.Haimberger	0	4.1		6.9	12.0	uadb_windc_67004.txt	OSCAR
101	0-20000-0-41710	0	102	41710	3	NOKKUNDI			0	62.75	28.816666666666663		19691016	20181222	1	0	63	NMS	177	Rudbar									['38', '85', '106', '107']							L.Haimberger	0	5.2		148.1	683.0	uadb_windc_41710.txt	OSCAR
102	0-20000-0-88986	0	103	88946	3	SOUTH THULE IS.			0	-27.316666666666663	-59.45		19800605	19811230	1	0	63	NMS	89	None									['38', '85', '106', '107']							L.Haimberger	0	3.2		None	268.0	uadb_trhc_88946.txt	OSCAR
103	0-20000-0-42591	0	104	42591	3	GAYA (42591-0)			0	84.95	24.75		19770207	20110103	1	0	63	NMS	104	Gaya									['38', '85', '106', '107']							L.Haimberger	0	0.0		6.3	116.0	uadb_trhc_42591.txt	OSCAR
104	0-20000-0-48078	0	105	48078	3	TOUNGOO			0	96.46666666666668	18.916666666666668		19700212	19980928	1	0	63	NMS	145	Toungoo									['38', '85', '106', '107']							L.Haimberger	0	0.5		4.1	49.0	uadb_windc_48078.txt	OSCAR
105	0-20300-0-67019	0	106	67019	3	ANALALAVA			0	47.767	-14.633		19660510	20000421	1	0	63	NMS	141	Antsohihy									['38', '85', '106', '107']							L.Haimberger	0	0.5		35.6	57.0	uadb_windc_67019.txt	IGRA2
106	0-20000-0-60191	0	107	60190	3	BENI-MELLAL			0	-6.4	32.36666666666667		19570702	20050314	1	0	63	NMS	136	Mrirt									['38', '85', '106', '107']							L.Haimberger	0	28.6		91.2	507.0	uadb_windc_60190.txt	OSCAR
107	0-20000-0-96839	0	108	96839	3	SEMARANG/AHMAD YANI			0	110.38333333333334	-6.983333333333333		19731216	20110105	1	0	63	NMS	100	Semarang									['38', '85', '106', '107']							L.Haimberger	0	0.5		4.7	3.0	uadb_trhc_96839.txt	OSCAR
108	0-20000-0-47830	0	109	47830	3	MIYAZAKI			0	131.41416666666666	31.938333333333333		19270106	19410613	1	0	63	NMS	113	Sadowara									['38', '85', '106', '107']							L.Haimberger	0	2.1		12.6	15.0	uadb_windc_47830.txt	OSCAR
109	0-20000-0-57902	0	110	57902	3	XINGREN			0	105.18333333333334	25.433333333333334		19690222	19870622	1	0	63	NMS	47	Xingyi									['38', '85', '106', '107']							L.Haimberger	0	0.5		46.5	1379.0	uadb_trhc_57902.txt	OSCAR
110	0-20000-0-97028	0	111	97028	3	TOLI-TOLI/LALOS			0	120.79416666666668	1.121388888888889		19911002	20110104	1	0	63	NMS	100	Palu									['38', '85', '106', '107']							L.Haimberger	0	11.2		235.3	2.0	uadb_trhc_97028.txt	OSCAR
111	0-20300-0-70204	0	112	70204	3	GAMBELL			0	-171.6	63.85		19490225	19520630	1	0	63	NMS	190	None									['38', '85', '106', '107']							L.Haimberger	0	0.0		None	10.0	uadb_trhc_70204.txt	IGRA2
112	0-20000-0-91929	0	113	91930	3	BORA-BORA-MOTU-AERO			0	-151.75194444444443	-16.44527777777778		19680417	19911029	1	0	63	NMS	174	Faaa									['38', '85', '106', '107']							L.Haimberger	0	3.8		257.7	3.0	uadb_trhc_91930.txt	OSCAR
113	0-20000-0-17248	0	114	17248	3	EREGLI/KONYA			0	34.04861111111111	37.52555555555556		19750710	20030509	1	0	63	NMS	223	Eregli									['38', '85', '106', '107']							L.Haimberger	0	3.4		2.4	1044.0	uadb_windc_17248.txt	OSCAR
114	0-20000-0-58754	0	115	58754	3	FUDING			0	120.2	27.33333333333333		19710319	19870622	1	0	63	NMS	47	Jinxiang									['38', '85', '106', '107']							L.Haimberger	0	0.4		39.9	38.0	uadb_trhc_58754.txt	OSCAR
115	0-20000-0-51334	0	116	51334	3	JINGHE (51334-0)			0	82.81666666666666	44.56666666666667		19660720	20000912	1	0	63	NMS	47	Yining									['38', '85', '106', '107']							L.Haimberger	0	8.9		155.5	330.2	uadb_trhc_51334.txt	OSCAR
116	0-20000-0-59082	0	117	59082	3	SHAOGUAN			0	113.6	24.666666666666668		19580719	19610314	1	0	63	NMS	47	Shaoguan									['38', '85', '106', '107']							L.Haimberger	0	20.7		9.1	122.0	uadb_trhc_59082.txt	OSCAR
117	0-404-300-472781389CO63741	0	118	63742	3	DAGORETTI CORNER			0	36.75972222222222	-1.301388888888889		19610313	19630923	1	0	63	NMS	114	Nairobi									['38', '85', '106', '107']							L.Haimberger	0	7.0		4.1	1639.26	uadb_windc_63742.txt	OSCAR
118	0-20000-0-04231	0	119	4231	3	MITTARFIK KANGERLUSSUAQ (SDR. STROEMFJORD LUFTHAVN)			0	-50.71666666666667	67.01666666666667		19490103	19651205	1	0	63	NMS	83	Nuuk									['38', '85', '106', '107']							L.Haimberger	0	4.1		317.1	53.0	uadb_windc_4231.txt	OSCAR
119	0-20000-0-42361	0	120	42359	3	GWALIOR			0	78.25	26.23333333333333		19640609	19670731	1	0	63	NMS	104	Morar									['38', '85', '106', '107']							L.Haimberger	0	5.5		6.0	207.0	uadb_windc_42359.txt	OSCAR
120	0-20600-0-53853	0	121	53853	3	Xixian, China			0	110.93	36.7		19761111	19870620	1	0	63	NMS	47	Xinzhi									['38', '85', '106', '107']							L.Haimberger	0	0.0		72.8	-999.0	uadb_trhc_53853.txt	SCHROEDER
121	0-20000-0-48914	0	122	48914	3	CA MAU			0	105.15	9.183333333333334		19770418	20110104	1	0	63	NMS	239	Ca Mau									['38', '85', '106', '107']							L.Haimberger	0	0.4		2.3	2.0	uadb_trhc_48914.txt	OSCAR
122	0-20000-0-51716	0	123	51716	3	BACHU			0	78.56666666666666	39.8		19740409	19870622	1	0	63	NMS	47	Shache									['38', '85', '106', '107']							L.Haimberger	0	0.3		191.8	1117.0	uadb_trhc_51716.txt	OSCAR
123	0-20000-0-96179	0	124	96179	3	SINGKEP/DABO			0	104.57777777777775	-0.4788888888888889		19810916	20110104	1	0	63	NMS	100	Simpang									['38', '85', '106', '107']							L.Haimberger	0	0.3		103.1	31.0	uadb_trhc_96179.txt	OSCAR
124	0-20000-0-96973	0	125	96973	3	KALIANGET (MADURA IS)			0	113.91583333333334	-7.041388888888889		20090325	20110104	1	0	63	NMS	100	Kalianget									['38', '85', '106', '107']							L.Haimberger	0	6.1		4.1	3.0	uadb_trhc_96973.txt	OSCAR
125	0-20000-0-93247	0	126	93246	3	ROTORUA AERO AWS			0	176.31472222222223	-38.10583333333334		19870325	19911025	1	0	63	NMS	170	Tokoroa									['38', '85', '106', '107']							L.Haimberger	0	1.6		41.7	286.1	uadb_trhc_93246.txt	OSCAR
126	0-20000-0-96009	0	127	96009	3	LHOKSEUMAWE/MALIKUSSALEH			0	96.9475	5.228611111111111		19831108	20110105	1	0	63	NMS	100	Lhokseumawe									['38', '85', '106', '107']							L.Haimberger	0	27.0		7.8	87.0	uadb_trhc_96009.txt	OSCAR
127	0-20000-0-37395	0	128	37395	3	KUTAISI			0	42.62833333333333	42.25361111111111		19661109	19861130	1	0	63	NMS	78	Tskaltubo									['38', '85', '106', '107']							L.Haimberger	0	7.8		8.2	113.0	uadb_windc_37395.txt	OSCAR
128	0-20000-0-60566	0	129	60565	3	GHARDAIA			0	3.8	32.4		19570701	19581225	1	0	63	NMS	61	Warqla									['38', '85', '106', '107']							L.Haimberger	0	14.5		166.3	469.0	uadb_windc_60565.txt	OSCAR
129	0-20000-0-60425	0	130	60425	3	CHLEF			0	1.3333333333333333	36.21666666666667		19570701	19770715	1	0	63	NMS	61	Sidi Ali									['38', '85', '106', '107']							L.Haimberger	0	3.5		81.4	163.0	uadb_windc_60425.txt	OSCAR
130	0-20000-0-47777	0	131	47777	3	WAKAYAMA			0	135.16416666666666	34.22888888888889		19371111	19410227	1	0	63	NMS	113	Kainan									['38', '85', '106', '107']							L.Haimberger	0	0.6		9.3	18.37	uadb_windc_47777.txt	OSCAR
131	0-20000-0-42367	0	132	42367	3	KANPUR/CHAKERI			0	80.4	26.4		19760910	20160318	1	0	63	NMS	104	Kanpur									['38', '85', '106', '107']							L.Haimberger	0	0.0		8.9	126.0	uadb_windc_42367.txt	OSCAR
132	0-20001-0-72520	0	133	74479	3	PITTSBURGH, PA.			0	-80.21722222222222	40.531666666666666		19711115	19730511	1	0	63	NMS	231	Pittsburgh									['38', '85', '106', '107']							L.Haimberger	0	23.5		1.2	359.0	uadb_trhc_74479.txt	OSCAR
133	0-20000-0-16687	0	134	16689	3	ARAXOS (AIRPORT)			0	21.422222222222224	38.149166666666666		19491001	19530221	1	0	63	NMS	88	Patrai									['38', '85', '106', '107']							L.Haimberger	0	29.2		0.7	11.0	uadb_windc_16689.txt	OSCAR
134	0-20300-0-54339	0	135	54339	3	AN SHAN			0	122.95	41.1167		19600602	19620828	1	0	63	NMS	47	Jiupu									['38', '85', '106', '107']							L.Haimberger	0	17.2		19.2	122.0	uadb_trhc_54339.txt	IGRA2
135	0-20000-0-68104	0	136	68100	3	WALVIS BAY (PELICAN POINT)			0	14.433333333333334	-22.883333333333333		19570701	19581231	1	0	63	NMS	159	Swakopmund									['38', '85', '106', '107']							L.Haimberger	0	24.2		1.4	7.0	uadb_trhc_68100.txt	OSCAR
136	0-20000-0-91170	0	137	91170	3	WAHIAWA (WHEELER/SCHOFIELD), OAHU,  HAWAII			0	-158.03333333333333	21.48333333333333		19720908	19901211	1	0	63	NMS	231	Wahiawa									['38', '85', '106', '107']							L.Haimberger	0	0.5		2.6	5.0	uadb_trhc_91170.txt	OSCAR
137	0-20000-0-47159	0	138	47154	3	BUSAN			0	129.03194444444446	35.10472222222222		19620304	19920701	1	0	63	NMS	121	Fukuma									['38', '85', '106', '107']							L.Haimberger	0	11.5		198.3	70.96	uadb_windc_47154.txt	OSCAR
138	0-20000-0-63125	0	139	69004	3	DJIBOUTI			0	43.15	11.55		20180119	20211224	1	0	63	NMS	57	Jibuti									['38', '85', '106', '107']							L.Haimberger	0	1.1		5.1	19.0	uadb_trhc_69004.txt	OSCAR
139	0-20000-0-56951	0	140	56951	3	LINCANG			0	100.16666666666669	23.95		19670922	19870622	1	0	63	NMS	47	Simao									['38', '85', '106', '107']							L.Haimberger	0	10.4		150.0	1503.0	uadb_trhc_56951.txt	OSCAR
140	0-20000-0-27459	0	141	27467	3	NIZHNIJ NOVGOROD			0	44.0	56.266666666666666		19500514	19530215	1	0	63	NMS	190	Nizhniy Novgorod									['38', '85', '106', '107']							L.Haimberger	0	0.4		6.4	157.3	uadb_windc_27467.txt	OSCAR
141	0-20000-0-93615	0	142	93614	3	HOKITIKA AERO AWS			0	170.98444444444442	-42.71305555555556		19740406	20090421	1	0	63	NMS	170	Christchurch									['38', '85', '106', '107']							L.Haimberger	0	0.9		162.1	40.35	uadb_trhc_93614.txt	OSCAR
142	0-20000-0-67009	0	143	67009	3	ANTSIRANANA			0	49.3	-12.35		19770116	19960519	1	0	63	NMS	141	Ambilobe									['38', '85', '106', '107']							L.Haimberger	0	0.0		97.9	105.0	uadb_trhc_67009.txt	OSCAR
143	0-20000-0-15490	0	144	15490	3	TURNU-MAGURELE			0	24.87833333333333	43.76027777777778		20130323	20130323	1	0	63	NMS	188	Turnu Magurele									['38', '85', '106', '107']							L.Haimberger	0	1.3		2.2	31.64	uadb_trhc_15490.txt	OSCAR
144	0-20000-0-72537	0	145	72537	3	DETROIT/METROPOLITAN, MI.			0	-83.33333333333333	42.23333333333333		19720908	19730227	1	0	63	NMS	231	Romulus									['38', '85', '106', '107']							L.Haimberger	0	6.6		3.9	202.0	uadb_trhc_72537.txt	OSCAR
145	0-20000-0-57046	0	146	57046	3	HUA SHAN			0	110.08333333333331	34.483333333333334		19730118	19850429	1	0	63	NMS	47	Weinan									['38', '85', '106', '107']							L.Haimberger	0	3.4		56.2	2063.0	uadb_trhc_57046.txt	OSCAR
146	0-20000-0-54836	0	147	54836	3	YIYUAN			0	118.15	36.18333333333333		19641007	19870709	1	0	63	NMS	47	Linqu									['38', '85', '106', '107']							L.Haimberger	0	0.4		23.4	302.0	uadb_trhc_54836.txt	OSCAR
147	0-20000-0-47772	0	148	47772	3	OSAKA			0	135.51916666666668	34.68222222222222		19621029	20020101	1	0	63	NMS	113	Moriguchi									['38', '85', '106', '107']							L.Haimberger	0	1.0		6.8	83.0	uadb_trhc_47772.txt	OSCAR
148	0-20000-0-40621	0	149	40621	3	KIRKUK			0	44.4	35.46666666666667		19490303	19530802	1	0	63	NMS	106	Kirkuk									['38', '85', '106', '107']							L.Haimberger	0	0.4		0.7	331.0	uadb_windc_40621.txt	OSCAR
149	0-20000-0-98426	0	150	98426	3	SUBIC BAY WEATHER STATION			0	120.275	14.808333333333334		19890630	19920113	1	0	63	NMS	176	Olongapo									['38', '85', '106', '107']							L.Haimberger	0	1.1		4.5	19.0	uadb_trhc_98426.txt	OSCAR
150	0-20000-0-59358	0	151	46743	3	TAINAN			0	120.21666666666668	23.0		19870207	19981026	1	0	63	NMS	226	Tainan									['38', '85', '106', '107']							L.Haimberger	0	5.8		4.8	14.0	uadb_trhc_46743.txt	OSCAR
151	0-20000-0-57662	0	152	57662	3	CHANGDE			0	111.68333333333334	29.05		19710409	19870618	1	0	63	NMS	47	Changde									['38', '85', '106', '107']							L.Haimberger	0	14.8		25.2	151.4	uadb_trhc_57662.txt	OSCAR
152	0-20000-0-70381	0	153	70381	3	JUNEAU			0	-134.58333333333334	58.36666666666667		19490225	19520630	1	0	63	NMS	231	Juneau									['38', '85', '106', '107']							L.Haimberger	0	0.4		12.1	7.0	uadb_trhc_70381.txt	OSCAR
153	0-20700-0-35925	0	154	35925	3	SAM                      			0	56.1	45.45		19680413	19691125	1	0	63	NMS	124	Beyneu									['38', '85', '106', '107']							L.Haimberger	0	9.6		78.9	-999.0	uadb_windc_35925.txt	WMO
154	0-20000-0-47606	0	155	47606	3	FUSHIKI			0	137.05611111111114	36.79222222222222		19330413	19400805	1	0	63	NMS	113	Shimminato									['38', '85', '106', '107']							L.Haimberger	0	1.5		1.5	13.1	uadb_windc_47606.txt	OSCAR
155	0-20000-0-72221	0	156	74777	3	VALPARAISO/EGLIN AFB, FL.			0	-86.51666666666667	30.48333333333333		19870616	20120412	1	0	63	NMS	231	Wright									['38', '85', '106', '107']							L.Haimberger	0	17.2		5.6	29.0	uadb_trhc_74777.txt	OSCAR
156	0-20000-0-33587	0	157	33587	3	Uman			0	30.232777777777777	48.76694444444444		19500104	19501031	1	0	63	NMS	228	Zhashkiv									['38', '85', '106', '107']							L.Haimberger	0	0.4		53.6	216.0	uadb_trhc_33587.txt	OSCAR
157	0-20300-0-70204	0	158	70204	3	GAMBELL			0	-171.6	63.85		19510202	19520627	1	0	63	NMS	190	None									['38', '85', '106', '107']							L.Haimberger	0	0.0		None	10.0	uadb_windc_70204.txt	IGRA2
158	0-20000-0-53898	0	159	53898	3	ANYANG			0	114.13333333333334	36.05		19660527	20020603	1	0	63	NMS	47	Anyang									['38', '85', '106', '107']							L.Haimberger	0	19.8		4.3	195.7	uadb_trhc_53898.txt	OSCAR
159	0-20000-0-37747	0	160	37747	3	EVLAKH AIRPORT			0	47.15	40.61666666666667		19660520	19740215	1	0	63	NMS	16	Yevlax									['38', '85', '106', '107']							L.Haimberger	0	4.6		1.0	15.0	uadb_windc_37747.txt	OSCAR
160	0-20000-0-57297	0	161	57297	3	XINYANG			0	114.05	32.13333333333333		19661026	19890418	1	0	63	NMS	47	Xinyang									['38', '85', '106', '107']							L.Haimberger	0	1.9		4.7	115.0	uadb_trhc_57297.txt	OSCAR
161	0-20000-0-41598	0	162	41598	3	JHELUM			0	73.71666666666667	32.93333333333333		20180930	20231224	1	0	63	NMS	177	Jhelum									['38', '85', '106', '107']							L.Haimberger	0	0.5		0.7	234.0	uadb_windc_41598.txt	OSCAR
162	0-20000-0-41950	0	163	41932	3	BARISAL			0	90.36666666666666	22.75		19671114	19820121	1	0	63	NMS	19	Barisal									['38', '85', '106', '107']							L.Haimberger	0	3.3		0.3	4.0	uadb_windc_41932.txt	OSCAR
163	0-20000-2-29842	0	164	29843	3	Novokuznetsk			0	87.10166666666666	53.89527777777778		19550102	19561230	1	0	63	NMS	190	Novokuznetsk									['38', '85', '106', '107']							L.Haimberger	0	16.3		8.1	215.0	uadb_windc_29843.txt	OSCAR
164	0-20000-0-30688	0	165	30688	3	POKROVKA			0	121.55	53.35		19620813	19641228	1	0	63	NMS	190	Mogocha									['38', '85', '106', '107']							L.Haimberger	0	6.5		124.7	314.4	uadb_windc_30688.txt	OSCAR
165	0-20000-0-62650	0	166	62650	3	DONGOLA			0	30.48333333333333	19.166666666666668		19731210	20090407	1	0	63	NMS	195	Marawi									['38', '85', '106', '107']							L.Haimberger	0	0.5		163.4	226.0	uadb_trhc_62650.txt	OSCAR
166	0-20000-0-60402	0	167	60402	3	BEJAIA-AEROPORT			0	5.066666666666666	36.71666666666667		19780106	19870611	1	0	63	NMS	61	Timizart									['38', '85', '106', '107']							L.Haimberger	0	4.0		65.7	7.0	uadb_trhc_60402.txt	OSCAR
167	0-20000-0-28676	0	168	28679	3	PETROPAVLOVSK (28676-0)			0	69.11749999999999	54.7925		19660610	20010202	1	0	63	NMS	124	Petropavl									['38', '85', '106', '107']							L.Haimberger	0	4.7		5.1	101.0	uadb_windc_28679.txt	OSCAR
168	0-20000-0-50353	0	169	50353	3	HUMA			0	126.63333333333334	51.73333333333333		19631216	19900129	1	0	63	NMS	47	Shimanovsk									['38', '85', '106', '107']							L.Haimberger	0	1.9		78.8	175.6	uadb_trhc_50353.txt	OSCAR
169	0-20300-0-03992	0	170	48901	3	AN LOC			0	106.97	10.83		19520301	19541130	1	0	63	NMS	239	Bien Hoa									['38', '85', '106', '107']							L.Haimberger	0	0.0		21.4	11.0	uadb_windc_48901.txt	IGRA2
170	0-20000-0-40980	0	171	40980	3	MOKUR			0	67.78333333333333	32.833333333333336		19570701	19611130	1	0	63	NMS	2	Gazni									['38', '85', '106', '107']							L.Haimberger	0	4.4		97.2	2000.0	uadb_windc_40980.txt	OSCAR
171	0-20000-0-63671	0	172	63671	3	WAJIR			0	40.05916666666666	1.7475		19800212	20080713	1	0	63	NMS	114	Wajir									['38', '85', '106', '107']							L.Haimberger	0	1.2		0.3	224.0	uadb_windc_63671.txt	OSCAR
172	0-20300-0-67194	0	173	67194	3	FAUX-CAP			0	45.533	-25.55		19700310	19790329	1	0	63	NMS	141	Tsihombe									['38', '85', '106', '107']							L.Haimberger	0	0.3		33.3	22.0	uadb_windc_67194.txt	IGRA2
173	0-20000-0-72514	0	174	5555	3	WILLIAMSPORT/LYCOMING COUNTY, PA.			0	-76.91666666666667	41.25		19620303	19630703	1	0	63	NMS	231	Williamsport									['38', '85', '106', '107']							L.Haimberger	0	5.7		9.7	160.0	uadb_windc_5555.txt	OSCAR
174	0-20000-0-07072	0	175	7070	3	REIMS-PRUNAY			0	4.155277777777778	49.20972222222223		19680407	19720911	1	0	63	NMS	74	Reims									['38', '85', '106', '107']							L.Haimberger	0	13.6		5.6	95.0	uadb_windc_7070.txt	OSCAR
175	0-20000-0-93546	0	176	93545	3	NELSON AERO AWS			0	173.21583333333334	-41.30055555555556		19820127	19911028	1	0	63	NMS	170	Nelson									['38', '85', '106', '107']							L.Haimberger	0	0.4		5.6	6.47	uadb_trhc_93545.txt	OSCAR
176	0-20000-0-15302	0	177	15302	3	PREDEAL			0	25.58361111111111	45.506388888888885		19760204	19980115	1	0	63	NMS	188	Rasnov									['38', '85', '106', '107']							L.Haimberger	0	0.8		13.7	1091.3	uadb_windc_15302.txt	OSCAR
177	0-20000-0-40676	0	178	40676	3	NASIRIYA			0	46.23333333333333	31.016666666666666		19490202	19791013	1	0	63	NMS	106	Susangerd									['38', '85', '106', '107']							L.Haimberger	0	3.7		195.4	5.0	uadb_windc_40676.txt	OSCAR
178	0-20000-0-53564	0	179	53564	3	HEQU			0	111.21166666666667	39.365		19671215	19900301	1	0	63	NMS	47	Dongsheng									['38', '85', '106', '107']							L.Haimberger	0	10.7		108.3	1037.0	uadb_trhc_53564.txt	OSCAR
179	0-20000-0-47607	0	180	47607	3	TOYAMA			0	137.2025	36.70944444444445		19420630	19460909	1	0	63	NMS	113	Kosugi									['38', '85', '106', '107']							L.Haimberger	0	1.1		9.1	17.33	uadb_windc_47607.txt	OSCAR
180	0-20000-0-60540	0	181	60540	3	EL-KHEITER			0	0.0666666666666666	34.15		19570701	19581229	1	0	63	NMS	61	Wahran									['38', '85', '106', '107']							L.Haimberger	0	2.5		185.3	1001.0	uadb_windc_60540.txt	OSCAR
181	0-20600-0-30954	0	182	30954	3	Duldurga, Russia			0	113.58	50.68		19741211	20010807	1	0	63	NMS	190	Aginskoye									['38', '85', '106', '107']							L.Haimberger	0	0.0		81.7	-999.0	uadb_windc_30954.txt	SCHROEDER
182	0-20000-0-63125	0	183	69004	3	DJIBOUTI			0	43.15	11.55		20180119	20211224	1	0	63	NMS	57	Jibuti									['38', '85', '106', '107']							L.Haimberger	0	1.1		5.1	19.0	uadb_windc_69004.txt	OSCAR
183	0-20000-0-37686	0	184	37686	3	GYUMRI			0	43.85583333333334	40.76277777777778		19680403	19790922	1	0	63	NMS	6	Gyumri									['38', '85', '106', '107']							L.Haimberger	0	2.6		1.8	1512.69	uadb_windc_37686.txt	OSCAR
184	0-20000-0-31989	0	185	31989	3	PREOBRAZHENIE			0	133.9	42.9		19750105	19930604	1	0	63	NMS	190	Partizansk									['38', '85', '106', '107']							L.Haimberger	0	0.0		67.3	42.8	uadb_trhc_31989.txt	OSCAR
185	0-20000-0-03414	0	186	3414	3	SHAWBURY			0	-2.664722222222222	52.79472222222222		19990908	20060228	1	0	63	NMS	76	Shrewsbury									['38', '85', '106', '107']							L.Haimberger	0	0.7		10.2	72.0	uadb_windc_3414.txt	OSCAR
186	0-20000-0-51811	0	187	51811	3	SHACHE			0	77.26666666666667	38.43333333333333		19730623	19930923	1	0	63	NMS	47	Shache									['38', '85', '106', '107']							L.Haimberger	0	0.5		0.9	1232.0	uadb_trhc_51811.txt	OSCAR
187	0-20000-0-67489	0	188	67489	3	MZUZU			0	34.016666666666666	-11.45		19740623	20020813	1	0	63	NMS	155	Nkhata Bay									['38', '85', '106', '107']							L.Haimberger	0	0.4		34.8	1253.0	uadb_windc_67489.txt	OSCAR
188	0-20300-0-52313	0	189	52313	3	XING-XING-XIA			0	95.1333	41.7833		19590101	19591016	1	0	63	NMS	47	Hami									['38', '85', '106', '107']							L.Haimberger	0	1.2		178.3	1935.0	uadb_trhc_52313.txt	IGRA2
189	0-20000-0-94791	0	190	94791	3	COFFS HARBOUR MO			0	153.1186111111111	-30.31083333333333		19680207	19911029	1	0	63	NMS	13	Coffs Harbour									['38', '85', '106', '107']							L.Haimberger	0	1.0		1.6	6.0	uadb_trhc_94791.txt	OSCAR
190	0-20000-0-63230	0	191	63230	3	GALCAYO			0	47.266666666666666	6.85		19570630	19581231	1	0	63	NMS	205	Hobyo									['38', '85', '106', '107']							L.Haimberger	0	0.4		216.3	302.0	uadb_windc_63230.txt	OSCAR
191	0-20000-0-54094	0	192	54094	3	MUDANJIANG			0	129.66666666666666	44.5		19730611	19870622	1	0	63	NMS	47	Mudanjiang									['38', '85', '106', '107']							L.Haimberger	0	9.4		7.4	306.5	uadb_trhc_54094.txt	OSCAR
192	0-20000-0-54753	0	193	54753	3	LONGKOU			0	120.31666666666666	37.61666666666667		19740914	19870622	1	0	63	NMS	47	Longkou									['38', '85', '106', '107']							L.Haimberger	0	0.5		3.5	5.0	uadb_trhc_54753.txt	OSCAR
193	0-20000-0-60735	0	194	60735	3	KAIROUAN			0	10.1	35.666666666666664		19731226	19980814	1	0	63	NMS	221	Masakin									['38', '85', '106', '107']							L.Haimberger	0	0.4		44.0	68.0	uadb_trhc_60735.txt	OSCAR
194	0-20000-0-68240	0	195	68244	3	SERETSE KHAMA INTERNATIONAL AIRPORT			0	25.916666666666668	-24.55		19700408	19841221	1	0	63	NMS	34	Gaborone									['38', '85', '106', '107']							L.Haimberger	0	13.3		1.5	1005.0	uadb_windc_68244.txt	OSCAR
195	0-20000-0-16641	0	196	16641	3	KERKYRA (AIRPORT)			0	19.913888888888888	39.60805555555556		19520702	19630724	1	0	63	NMS	88	Kerkira									['38', '85', '106', '107']							L.Haimberger	0	1.4		0.0	1.9	uadb_windc_16641.txt	OSCAR
196	0-20000-0-37579	0	197	37575	3	ALIBAY			0	46.71666666666667	41.65		19661202	19780705	1	0	63	NMS	16	Zaqatala									['38', '85', '106', '107']							L.Haimberger	0	5.7		0.7	490.0	uadb_windc_37575.txt	OSCAR
197	0-20000-0-72303	0	198	72303	3	POPE AFB, NC.			0	-79.03333333333333	35.166666666666664		19691021	19900806	1	0	63	NMS	231	Fayetteville									['38', '85', '106', '107']							L.Haimberger	0	3.9		19.0	61.0	uadb_windc_72303.txt	OSCAR
198	0-20000-0-72312	0	199	72312	3	GREENVILLE/GREENVILLE SPARTANBURG, SC.			0	-82.21666666666667	34.9		19620306	19650129	1	0	63	NMS	231	Mauldin									['38', '85', '106', '107']							L.Haimberger	0	13.5		2.6	296.0	uadb_windc_72312.txt	OSCAR
199	0-20000-0-67441	0	200	67441	3	MWINILUNGA			0	24.433333333333334	-11.75		19701006	19830120	1	0	63	NMS	247	Mwinilunga									['38', '85', '106', '107']							L.Haimberger	0	0.4		1.9	1363.0	uadb_windc_67441.txt	OSCAR
200	0-20000-0-41768	0	201	41768	3	CHHOR			0	69.78333333333333	25.516666666666666		19790104	20110105	1	0	63	NMS	177	Chor									['38', '85', '106', '107']							L.Haimberger	0	0.5		1.4	6.0	uadb_trhc_41768.txt	OSCAR
201	0-20000-0-71299	0	202	71831	3	KAPUSKASING CDA ON, ONT			0	-82.44305555555556	49.405277777777776		19620308	19620915	1	0	63	NMS	37	Timmins									['38', '85', '106', '107']							L.Haimberger	0	3.2		129.9	226.5	uadb_windc_71831.txt	OSCAR
202	0-20000-0-15014	0	203	15014	3	BAIA MARE			0	23.473333333333333	47.66083333333333		19760204	19891201	1	0	63	NMS	188	Baia Mare									['38', '85', '106', '107']							L.Haimberger	0	8.1		0.4	187.4	uadb_windc_15014.txt	OSCAR
203	0-20000-0-70381	0	204	70381	3	JUNEAU			0	-134.58333333333334	58.36666666666667		19490225	19520630	1	0	63	NMS	231	Juneau									['38', '85', '106', '107']							L.Haimberger	0	0.4		12.1	7.0	uadb_windc_70381.txt	OSCAR
204	0-20000-0-60445	0	205	60445	3	SETIF/AIN ARNAT			0	5.316666666666666	36.16666666666666		19860628	19870623	1	0	63	NMS	61	Tazmalt									['38', '85', '106', '107']							L.Haimberger	0	9.4		94.3	1015.0	uadb_trhc_60445.txt	OSCAR
205	0-20300-0-27331	0	206	27331	3	JAROSLAVL			0	39.58	57.58		19500112	19530215	1	0	63	NMS	190	Yaroslavl									['38', '85', '106', '107']							L.Haimberger	0	0.0		17.0	103.0	uadb_trhc_27331.txt	IGRA2
206	0-20000-0-30802	0	207	30802	3	MONDY			0	100.98333333333332	51.68333333333333		19620813	19641230	1	0	63	NMS	190	Slyudyanka									['38', '85', '106', '107']							L.Haimberger	0	10.9		194.4	1304.2	uadb_windc_30802.txt	OSCAR
207	0-20000-0-67073	0	208	67073	3	MAINTIRANO			0	44.03333333333333	-18.05		19660713	20040314	1	0	63	NMS	141	Miandrivazo									['38', '85', '106', '107']							L.Haimberger	0	0.4		220.2	23.0	uadb_windc_67073.txt	OSCAR
208	0-20600-0-58040	0	209	58044	3	Xugou, China			0	119.35	34.75		19560820	19580911	1	0	63	NMS	47	Xinpu									['38', '85', '106', '107']							L.Haimberger	0	21.0		8.6	-999.0	uadb_windc_58044.txt	SCHROEDER
209	0-20000-0-71036	0	210	71855	3	DAUPHIN, MAN			0	-100.0525	51.10083333333333		19620305	19940826	1	0	63	NMS	37	Brandon									['38', '85', '106', '107']							L.Haimberger	0	0.2		140.9	304.5	uadb_windc_71855.txt	OSCAR
210	0-20000-0-67597	0	211	67597	3	SALIMA			0	34.583333333333336	-13.75		19891002	20000911	1	0	63	NMS	155	Salima									['38', '85', '106', '107']							L.Haimberger	0	0.4		16.3	513.0	uadb_windc_67597.txt	OSCAR
211	0-20000-0-94346	0	212	94346	3	LONGREACH AERO			0	144.27694444444447	-23.43722222222222		19700113	19911029	1	0	63	NMS	13	Townsville									['38', '85', '106', '107']							L.Haimberger	0	4.6		531.7	192.5	uadb_trhc_94346.txt	OSCAR
212	0-20300-0-32195	0	213	32195	3	SIMUSIR			0	151.8667	46.85		19530222	19620919	1	0	63	NMS	190	None									['38', '85', '106', '107']							L.Haimberger	0	0.3		None	26.0	uadb_windc_32195.txt	IGRA2
213	0-20000-0-97748	0	214	97748	3	GESER			0	130.89555555555555	-3.8866666666666663		19910204	20110104	1	0	63	NMS	100	Amahai									['38', '85', '106', '107']							L.Haimberger	0	0.9		228.5	3.0	uadb_trhc_97748.txt	OSCAR
214	0-20600-0-63478	0	215	63478	3	Gode, Ethiopia			0	44.58	5.1		19861005	19881217	1	0	63	NMS	68	Xuddur									['38', '85', '106', '107']							L.Haimberger	0	0.0		132.4	-999.0	uadb_windc_63478.txt	SCHROEDER
215	0-20000-0-96145	0	216	96145	3	TAREMPA			0	106.21972222222225	3.2150000000000003		19911003	20101221	1	0	63	NMS	100	Mersing									['38', '85', '106', '107']							L.Haimberger	0	3.8		281.1	3.0	uadb_trhc_96145.txt	OSCAR
216	0-20000-0-70291	0	217	70291	3	NORTHWAY			0	-141.93333333333334	62.96666666666667		19500709	19520630	1	0	63	NMS	231	None									['38', '85', '106', '107']							L.Haimberger	0	1.4		None	525.0	uadb_trhc_70291.txt	OSCAR
217	0-20000-0-91385	0	218	91385	3	PALMYRA ISLAND			0	-162.05	5.883333333333333		19510330	19621030	1	0	63	NMS	117	None									['38', '85', '106', '107']							L.Haimberger	0	14.0		None	2.0	uadb_trhc_91385.txt	OSCAR
218	0-20000-0-71861	0	219	71861	3	BROADVIEW, SASK			0	-102.57083333333333	50.36805555555556		19870327	20001015	1	0	63	NMS	37	Yorkton									['38', '85', '106', '107']							L.Haimberger	0	7.9		93.4	599.8	uadb_trhc_71861.txt	OSCAR
219	0-20300-0-63619	0	220	63619	3	MOYALE			0	39.05	3.533		19880929	19910908	1	0	63	NMS	68	Moyale									['38', '85', '106', '107']							L.Haimberger	0	0.3		2.6	1113.0	uadb_windc_63619.txt	IGRA2
220	0-20000-0-15350	0	221	15350	3	BUZAU			0	26.851666666666667	45.132777777777775		19730527	19971116	1	0	63	NMS	188	Buzau									['38', '85', '106', '107']							L.Haimberger	0	3.1		1.0	96.0	uadb_windc_15350.txt	OSCAR
221	0-20000-0-48383	0	222	48947	3	MUKDAHAN			0	104.71666666666668	16.533333333333335		19710616	19770310	1	0	63	NMS	216	Savannakhet									['38', '85', '106', '107']							L.Haimberger	0	11.6		0.0	145.0	uadb_windc_48947.txt	OSCAR
222	0-20000-0-71123	0	223	71123	3	EDMONTON INT'L A, ALTA			0	-113.58333333333331	53.31666666666667		19710617	19850603	1	0	63	NMS	37	Leduc									['38', '85', '106', '107']							L.Haimberger	0	0.4		6.7	723.3	uadb_windc_71123.txt	OSCAR
223	0-20000-0-30729	0	224	30729	3	KABANSK			0	106.64166666666668	52.05416666666667		19620809	19641231	1	0	63	NMS	190	Selenginsk									['38', '85', '106', '107']							L.Haimberger	0	6.7		18.2	467.34	uadb_windc_30729.txt	OSCAR
224	0-20000-0-60602	0	225	60600	3	BENI-ABBES			0	-2.1666666666666665	30.133333333333333		19570717	19690527	1	0	63	NMS	61	Adrar									['38', '85', '106', '107']							L.Haimberger	0	4.9		308.0	505.0	uadb_windc_60600.txt	OSCAR
225	0-20000-0-58527	0	226	58527	3	JINGDEZHEN			0	117.16861111111112	29.31222222222222		19700103	20020220	1	0	63	NMS	47	Jingdezhen									['38', '85', '106', '107']							L.Haimberger	0	3.3		1.0	94.7	uadb_trhc_58527.txt	OSCAR
226	0-20000-0-41571	0	227	41571	3	ISLAMABAD AIRPORT			0	73.1	33.61666666666667		19761217	20090629	1	0	63	NMS	177	Rawalpindi									['38', '85', '106', '107']							L.Haimberger	0	0.4		3.7	508.0	uadb_trhc_41571.txt	OSCAR
227	0-20000-0-40938	0	228	40938	3	HERAT			0	62.21666666666667	34.21666666666667		19780601	19880220	1	0	63	NMS	2	Herat									['38', '85', '106', '107']							L.Haimberger	0	0.5		14.3	964.0	uadb_trhc_40938.txt	OSCAR
228	0-20000-0-25282	0	229	25282	3	MYS VANKAREM			0	-175.83333333333334	67.83333333333333		19800322	20001231	1	0	63	NMS	190	None									['38', '85', '106', '107']							L.Haimberger	0	1.9		None	4.8	uadb_trhc_25282.txt	OSCAR
229	0-20000-0-72305	0	230	72309	3	NEWPORT, NC.			0	-76.87666666666667	34.77611111111111		19620506	19710614	1	0	63	NMS	231	Havelock									['38', '85', '106', '107']							L.Haimberger	0	8.2		3.8	13.0	uadb_windc_72309.txt	OSCAR
230	0-20000-0-41529	0	231	41529	3	PESHAWAR			0	71.93333333333334	34.03333333333333		20180101	20221028	1	0	63	NMS	177	Amangarh									['38', '85', '106', '107']							L.Haimberger	0	0.5		2.7	329.0	uadb_windc_41529.txt	OSCAR
231	0-20000-0-42895	0	232	42895	3	BALASORE			0	86.93333333333334	21.516666666666666		19770622	19880222	1	0	63	NMS	104	Baleshwar									['38', '85', '106', '107']							L.Haimberger	0	1.9		0.7	18.2	uadb_trhc_42895.txt	OSCAR
232	0-20000-0-56106	0	233	56106	3	SOG XIAN			0	93.78333333333332	31.883333333333333		19740218	19960812	1	0	63	NMS	47	Lasa									['38', '85', '106', '107']							L.Haimberger	0	2.4		354.8	4024.0	uadb_trhc_56106.txt	OSCAR
233	0-20000-0-61695	0	234	61695	3	ZIGUINCHOR			0	-16.26972222222222	12.55		19731130	19911029	1	0	63	NMS	204	Ziguinchor									['38', '85', '106', '107']							L.Haimberger	0	0.0		3.7	19.3	uadb_trhc_61695.txt	OSCAR
234	0-20000-0-67113	0	235	67113	3	MAHANORO			0	48.8	-19.83333333333333		19660510	20040820	1	0	63	NMS	141	Mahanoro									['38', '85', '106', '107']							L.Haimberger	0	0.4		7.7	5.0	uadb_windc_67113.txt	OSCAR
235	0-20000-0-61766	0	236	61766	3	BISSAU AEROPORTO			0	-15.65	11.883333333333333		19650420	19670616	1	0	63	NMS	92	Bissau									['38', '85', '106', '107']							L.Haimberger	0	0.4		8.0	36.0	uadb_windc_61766.txt	OSCAR
236	0-20300-0-51895	0	237	51895	3	MANGYA			0	91.65	37.85		19571201	19610226	1	0	63	NMS	47	Hami									['38', '85', '106', '107']							L.Haimberger	0	0.0		570.5	3060.0	uadb_windc_51895.txt	IGRA2
237	0-20000-0-93891	0	238	93890	3	DUNEDIN AERO AWS			0	170.19666666666666	-45.92666666666666		19700428	19911028	1	0	63	NMS	170	Dunedin									['38', '85', '106', '107']							L.Haimberger	0	0.5		24.3	2.2	uadb_trhc_93890.txt	OSCAR
238	0-20000-0-97048	0	239	97048	3	GORONTALO/JALALUDDIN			0	122.85138888888888	0.6391666666666667		19870325	20110105	1	0	63	NMS	100	Gorontalo									['38', '85', '106', '107']							L.Haimberger	0	27.7		2.6	2.0	uadb_trhc_97048.txt	OSCAR
239	0-20000-0-96195	0	240	96195	3	JAMBI/SULTAN TAHA			0	103.65	-1.6333333333333333		19770120	20110103	1	0	63	NMS	100	Jambi									['38', '85', '106', '107']							L.Haimberger	0	0.4		5.0	25.0	uadb_trhc_96195.txt	OSCAR
240	0-20300-0-62056	0	241	62056	3	SHAHAT			0	21.883	32.8		19630808	19850604	1	0	63	NMS	135	Darnah									['38', '85', '106', '107']							L.Haimberger	0	3.8		74.2	648.0	uadb_windc_62056.txt	IGRA2
241	0-20000-0-35188	0	242	35188	3	ASTANA			0	71.39416666666668	51.17027777777778		19740816	19931022	1	0	63	NMS	124	Astana									['38', '85', '106', '107']							L.Haimberger	0	4.8		5.7	350.0	uadb_trhc_35188.txt	OSCAR
242	0-20000-0-60135	0	243	60135	3	RABAT-SALE			0	-6.758055555555556	34.04611111111111		19570701	19691219	1	0	63	NMS	136	Rabat									['38', '85', '106', '107']							L.Haimberger	0	1.2		7.9	79.0	uadb_windc_60135.txt	OSCAR
243	0-20000-0-11968	0	244	11968	3	KOSICE			0	21.216666666666665	48.66666666666666		20170308	20170308	1	0	63	NMS	201	Kosice									['38', '85', '106', '107']							L.Haimberger	0	5.4		2.4	231.0	uadb_windc_11968.txt	OSCAR
244	0-20000-0-65536	0	245	65536	3	KORHOGO			0	-5.551666666666667	9.391388888888889		19790520	19880724	1	0	63	NMS	43	Korhogo									['38', '85', '106', '107']							L.Haimberger	0	8.1		4.3	381.0	uadb_trhc_65536.txt	OSCAR
245	0-20000-0-71869	0	246	71869	3	PRINCE ALBERT A, SASK			0	-105.66666666666669	53.21666666666667		19640129	19911028	1	0	63	NMS	37	Prince Albert									['38', '85', '106', '107']							L.Haimberger	0	1.0		5.2	428.2	uadb_trhc_71869.txt	OSCAR
246	0-20000-0-54602	0	247	54602	3	BAODING			0	115.48333333333332	38.73333333333333		19670403	20011203	1	0	63	NMS	47	Baoding									['38', '85', '106', '107']							L.Haimberger	0	11.2		7.3	17.9	uadb_trhc_54602.txt	OSCAR
247	0-20000-0-53487	0	248	53487	3	DATONG			0	113.41666666666669	40.083333333333336		19641007	19871116	1	0	63	NMS	47	Datong									['38', '85', '106', '107']							L.Haimberger	0	7.6		3.4	1054.0	uadb_trhc_53487.txt	OSCAR
248	0-20000-0-41744	0	249	41744	3	KHUZDAR			0	66.63333333333334	27.83333333333333		19730613	20110103	1	0	63	NMS	177	Khuzdar									['38', '85', '106', '107']							L.Haimberger	0	0.5		10.2	1232.0	uadb_trhc_41744.txt	OSCAR
249	0-20000-0-41950	0	250	41950	3	BARISAL			0	90.36666666666666	22.75		19691016	20110105	1	0	63	NMS	19	Teknaf									['38', '85', '106', '107']							L.Haimberger	0	0.3		71.2	4.0	uadb_trhc_41950.txt	OSCAR
250	0-20000-0-72469	0	251	74530	3	DENVER/STAPLETON INT., CO.			0	-104.86944444444444	39.7675		19710701	19730316	1	0	63	NMS	231	Denver									['38', '85', '106', '107']							L.Haimberger	0	9.6		4.5	1612.0	uadb_trhc_74530.txt	OSCAR
251	0-20300-0-48867	0	252	48867	3	AN KHE (VVAK)			0	108.65	13.9667		19661119	19701110	1	0	63	NMS	239	Qui Nhon									['38', '85', '106', '107']							L.Haimberger	0	0.4		66.9	495.0	uadb_trhc_48867.txt	IGRA2
252	0-20000-0-56374	0	253	56374	3	KANGDING			0	101.96666666666668	30.05		19730108	20010508	1	0	63	NMS	47	Yaan									['38', '85', '106', '107']							L.Haimberger	0	7.0		94.4	2617.0	uadb_trhc_56374.txt	OSCAR
253	0-20000-0-72409	0	254	72409	3	LAKEHURST/NAS, NJ.			0	-74.31666666666666	40.03333333333333		19620303	19690131	1	0	63	NMS	231	Lakewood									['38', '85', '106', '107']							L.Haimberger	0	0.7		10.9	24.0	uadb_windc_72409.txt	OSCAR
254	0-20000-0-97530	0	255	97530	3	MANOKWARI/RENDANI			0	134.05055555555558	-0.8922222222222221		20090417	20110104	1	0	63	NMS	100	Manokwari									['38', '85', '106', '107']							L.Haimberger	0	1.4		4.0	3.0	uadb_trhc_97530.txt	OSCAR
255	0-20000-0-38232	0	256	38232	3	AKKUDUK			0	54.095	42.97055555555556		19620318	19691125	1	0	63	NMS	124	Zhanaozen									['38', '85', '106', '107']							L.Haimberger	0	2.0		113.5	78.0	uadb_windc_38232.txt	OSCAR
256	0-20600-0-51706	0	257	51706	3	Tejan, China			0	76.35	39.7		19560822	19580524	1	0	63	NMS	47	Kashi									['38', '85', '106', '107']							L.Haimberger	0	28.6		13.3	1288.0	uadb_trhc_51706.txt	SCHROEDER
257	0-20000-0-44272	0	258	44272	3	ULIASTAI (44272-0)			0	96.8475	47.727222222222224		19700602	20020928	1	0	63	NMS	146	Moron									['38', '85', '106', '107']							L.Haimberger	0	2.5		321.8	1759.0	uadb_trhc_44272.txt	OSCAR
258	0-20000-0-63630	0	259	63630	3	GULU			0	32.333333333333336	2.75		19570701	19770419	1	0	63	NMS	229	Gulu									['38', '85', '106', '107']							L.Haimberger	0	0.4		3.3	1105.0	uadb_windc_63630.txt	OSCAR
259	0-20000-0-61257	0	260	61257	3	KAYES			0	-11.433333333333334	14.433333333333334		19731227	19961017	1	0	63	NMS	144	Kayes									['38', '85', '106', '107']							L.Haimberger	0	0.5		2.2	47.0	uadb_trhc_61257.txt	OSCAR
260	0-20000-0-47764	0	261	47764	3	IWAKUNI			0	132.24694444444444	34.145		19660524	20060824	1	0	63	NMS	113	Iwakuni									['38', '85', '106', '107']							L.Haimberger	0	1.7		4.3	6.05	uadb_windc_47764.txt	OSCAR
261	0-20500-0-26460	0	262	70268	3	BLAIR LKS BMB RNG AF			0	-147.65	64.33		19780425	19900502	1	0	63	NMS	231	Fairbanks									['38', '85', '106', '107']							L.Haimberger	0	0.0		56.7	220.98	uadb_windc_70268.txt	WBAN
262	0-20000-0-10637	0	263	10639	3	FRANKFURT/MAIN			0	8.52138888888889	50.02583333333333		19720804	19731025	1	0	63	NMS	56	Darmstadt									['38', '85', '106', '107']							L.Haimberger	0	19.6		0.1	104.13	uadb_trhc_10639.txt	OSCAR
263	0-20300-0-53420	0	264	53420	3	XAMBA			0	107.17	40.97		19560820	19581228	1	0	63	NMS	47	Haibowan									['38', '85', '106', '107']							L.Haimberger	0	0.0		148.1	1057.0	uadb_trhc_53420.txt	IGRA2
264	0-20000-0-15090	0	265	15090	3	IASI			0	27.627222222222223	47.16333333333333		19730327	19960513	1	0	63	NMS	188	Iasi									['38', '85', '106', '107']							L.Haimberger	0	2.2		1.6	400.0	uadb_windc_15090.txt	OSCAR
265	0-20000-0-61265	0	266	61265	3	MOPTI			0	-4.1	14.516666666666667		19760123	20110103	1	0	63	NMS	144	Mopti									['38', '85', '106', '107']							L.Haimberger	0	0.4		11.0	272.0	uadb_trhc_61265.txt	OSCAR
266	0-20000-0-72389	0	267	72389	3	FRESNO/AIR TERM.,  CA.			0	-119.71666666666668	36.766666666666666		19641117	19730531	1	0	63	NMS	231	Clovis									['38', '85', '106', '107']							L.Haimberger	0	4.0		6.1	100.0	uadb_trhc_72389.txt	OSCAR
267	0-20000-0-47632	0	268	47632	3	GIFU			0	136.7625	35.400277777777774		19370820	19410729	1	0	63	NMS	113	Kasamatsu									['38', '85', '106', '107']							L.Haimberger	0	0.7		3.7	17.4	uadb_windc_47632.txt	OSCAR
268	0-20000-0-71936	0	269	71936	3	YELLOWKNIFE A, NWT			0	-114.44027777777778	62.46277777777778		19620303	19620915	1	0	63	NMS	37	Yellowknife									['38', '85', '106', '107']							L.Haimberger	0	7.3		6.1	205.7	uadb_windc_71936.txt	OSCAR
269	0-20000-0-72383	0	270	72383	3	SANDBERG, CA.			0	-118.73333333333332	34.75		19681024	19721231	1	0	63	NMS	231	Tehachapi									['38', '85', '106', '107']							L.Haimberger	0	6.3		43.4	1379.0	uadb_windc_72383.txt	OSCAR
270	0-20000-0-74618	0	271	74618	3	CUDDLEBACK GUNNERY RANGE, CA.			0	-117.43333333333334	35.266666666666666		19680126	19691224	1	0	63	NMS	231	Ridgecrest									['38', '85', '106', '107']							L.Haimberger	0	0.5		44.8	864.0	uadb_trhc_74618.txt	OSCAR
271	0-20000-0-59134	0	272	59137	3	XIAMEN			0	118.08333333333331	24.48333333333333		19600502	19610730	1	0	63	NMS	47	Xiamen									['38', '85', '106', '107']							L.Haimberger	0	20.3		19.9	139.0	uadb_trhc_59137.txt	OSCAR
272	0-20000-0-65257	0	273	65257	3	ENUGU			0	7.55	6.466666666666667		20120923	20231202	1	0	63	NMS	163	Enugu									['38', '85', '106', '107']							L.Haimberger	0	1.2		8.0	141.8	uadb_trhc_65257.txt	OSCAR
273	0-20000-0-40001	0	274	40001	3	KAMISHLI			0	41.21666666666667	37.05		19700526	20000515	1	0	63	NMS	210	Nusaybin									['38', '85', '106', '107']							L.Haimberger	0	0.3		3.1	455.0	uadb_windc_40001.txt	OSCAR
274	0-20000-0-72223	0	275	72223	3	MOBILE/BATES FIELD,  AL.			0	-88.25	30.683333333333334		19620304	19720429	1	0	63	NMS	231	Mobile									['38', '85', '106', '107']							L.Haimberger	0	5.1		18.3	67.0	uadb_windc_72223.txt	OSCAR
275	0-20000-0-47735	0	276	47675	3	OSHIMA AIRPORT			0	139.36027777777778	34.78194444444444		19420801	19450610	1	0	63	NMS	113	Ito									['38', '85', '106', '107']							L.Haimberger	0	2.2		34.8	75.5	uadb_windc_47675.txt	OSCAR
276	0-20000-0-71129	0	277	71129	3	KINDERSLEY A, SASK			0	-109.18333333333334	51.516666666666666		19920813	19990721	1	0	63	NMS	37	North Battleford									['38', '85', '106', '107']							L.Haimberger	0	1.0		151.4	693.72	uadb_windc_71129.txt	OSCAR
277	0-20000-0-61075	0	278	61075	3	BIRNI-N'KONNI			0	5.25	13.8		19740727	20101224	1	0	63	NMS	161	Illela									['38', '85', '106', '107']							L.Haimberger	0	0.0		73.2	273.0	uadb_trhc_61075.txt	OSCAR
278	0-20300-0-56533	0	279	56533	3	LA WANG/TZUKEI			0	98.3833	27.6667		19590320	19611027	1	0	63	NMS	47	Tezu									['38', '85', '106', '107']							L.Haimberger	0	0.5		219.8	2051.0	uadb_trhc_56533.txt	IGRA2
279	0-20600-0-63478	0	280	63478	3	Gode, Ethiopia			0	44.58	5.1		19861005	19881217	1	0	63	NMS	68	Xuddur									['38', '85', '106', '107']							L.Haimberger	0	0.0		132.4	-999.0	uadb_trhc_63478.txt	SCHROEDER
280	0-20000-0-40039	0	281	40039	3	RAQQA			0	39.016666666666666	35.93333333333333		19700505	19760806	1	0	63	NMS	210	Manbij									['38', '85', '106', '107']							L.Haimberger	0	0.5		115.6	246.0	uadb_windc_40039.txt	OSCAR
281	0-20000-0-80450	0	282	80450	3	SAN FERNANDO DE APURE			0	-67.41666666666667	7.9		20070312	20121101	1	0	63	NMS	236	Calabozo									['38', '85', '106', '107']							L.Haimberger	0	0.7		115.6	48.0	uadb_trhc_80450.txt	OSCAR
282	0-20000-0-58040	0	283	58040	3	GANYU			0	119.13333333333334	34.85		19790122	19870622	1	0	63	NMS	47	Xinpu									['38', '85', '106', '107']							L.Haimberger	0	2.2		25.7	10.0	uadb_trhc_58040.txt	OSCAR
283	0-20000-0-41509	0	284	41515	3	MIR KHANI			0	71.7	35.5		19690521	20110105	1	0	63	NMS	177	Chitral									['38', '85', '106', '107']							L.Haimberger	0	13.3		30.7	1465.0	uadb_trhc_41515.txt	OSCAR
284	0-20300-0-63641	0	285	63641	3	MARSABIT			0	37.983	2.333		19680201	20060828	1	0	63	NMS	114	Marsabit									['38', '85', '106', '107']							L.Haimberger	0	9.9		10.0	1345.0	uadb_trhc_63641.txt	IGRA2
285	0-20600-0-51701	0	286	51701	3	Saik'olot'ema, China			0	75.38	40.45		19730414	19930715	1	0	63	NMS	47	At-Bashi									['38', '85', '106', '107']							L.Haimberger	0	0.0		87.8	-999.0	uadb_trhc_51701.txt	SCHROEDER
286	0-20000-0-66152	0	287	66152	3	DUNDO			0	20.816666666666663	-7.4		19660510	20020914	1	0	63	NMS	8	Tshikapa									['38', '85', '106', '107']							L.Haimberger	0	1.8		108.8	776.0	uadb_windc_66152.txt	OSCAR
287	0-20000-0-10641	0	288	10642	3	OFFENBACH-WETTERPARK			0	8.786111111111111	50.09		19670611	19920305	1	0	63	NMS	56	Erlensee									['38', '85', '106', '107']							L.Haimberger	0	14.7		2.2	120.5	uadb_windc_10642.txt	OSCAR
288	0-20000-0-82280	0	289	82276	3	SAO LUIZ			0	-44.3	-2.533333333333333		19990907	20021221	1	0	63	NMS	30	Sao Luis									['38', '85', '106', '107']							L.Haimberger	0	27.1		27.6	51.0	uadb_trhc_82276.txt	OSCAR
289	0-20000-0-62641	0	290	62641	3	PORT SUDAN			0	37.21666666666667	19.58333333333333		19660312	20030101	1	0	63	NMS	195	Sawakin									['38', '85', '106', '107']							L.Haimberger	0	0.5		54.2	42.0	uadb_trhc_62641.txt	OSCAR
290	0-20000-0-91356	0	291	91356	3	KOSRAE AIRPORT VICE LELU, KOSRAE ATOLL, CAROLINE IS.			0	163.03333333333333	5.333333333333333		19510308	19540331	1	0	63	NMS	72	None									['38', '85', '106', '107']							L.Haimberger	0	5.2		None	4.0	uadb_trhc_91356.txt	OSCAR
291	0-20000-0-60120	0	292	60120	3	KENITRA			0	-6.594722222222222	34.30027777777777		19490121	20011006	1	0	63	NMS	136	Kenitra									['38', '85', '106', '107']							L.Haimberger	0	0.5		4.7	4.0	uadb_trhc_60120.txt	OSCAR
292	0-20000-0-40255	0	293	40230	3	IRBED			0	35.85	32.55		19760207	19930526	1	0	63	NMS	112	Irbid									['38', '85', '106', '107']							L.Haimberger	0	0.0		0.6	616.0	uadb_windc_40230.txt	OSCAR
293	0-20000-0-47626	0	294	47626	3	KUMAGAYA			0	139.38055555555556	36.150277777777774		19221001	19410727	1	0	63	NMS	113	Kumagaya									['38', '85', '106', '107']							L.Haimberger	0	0.1		1.9	31.77	uadb_windc_47626.txt	OSCAR
294	0-20000-0-40690	0	295	40688	3	BASRAH INT. AIRPORT			0	47.78333333333333	30.516666666666666		19490202	19570321	1	0	63	NMS	106	Khorramshahr									['38', '85', '106', '107']							L.Haimberger	0	16.7		49.7	2.0	uadb_windc_40688.txt	OSCAR
295	0-20000-0-03469	0	296	3470	3	HOLBEACH NO 2			0	0.1386111111111111	52.873333333333335		19691113	19780307	1	0	63	NMS	76	Boston									['38', '85', '106', '107']							L.Haimberger	0	5.1		19.0	3.0	uadb_windc_3470.txt	OSCAR
296	0-20000-0-59007	0	297	59007	3	GUANGNAN			0	105.06666666666666	24.066666666666663		19730702	19910523	1	0	63	NMS	47	Kaihua									['38', '85', '106', '107']							L.Haimberger	0	5.5		110.4	1251.0	uadb_trhc_59007.txt	OSCAR
297	0-20300-0-37260	0	298	37189	3	SUKHUMI (AGMS)			0	41.033	43.017		19470403	19530701	1	0	63	NMS	78	Sukhumi									['38', '85', '106', '107']							L.Haimberger	0	1.1		1.9	118.0	uadb_trhc_37189.txt	IGRA2
298	0-20000-0-60475	0	299	60475	3	TEBESSA			0	8.116666666666667	35.46666666666667		19780311	19890208	1	0	63	NMS	61	Talah									['38', '85', '106', '107']							L.Haimberger	0	4.2		51.5	820.0	uadb_trhc_60475.txt	OSCAR
299	0-20000-0-70296	0	300	70296	3	CORDOVA/MILE 13			0	-145.5	60.5		19620304	19640729	1	0	63	NMS	231	Anchorage									['38', '85', '106', '107']							L.Haimberger	0	0.0		252.1	13.0	uadb_windc_70296.txt	OSCAR
300	0-20000-0-59358	0	301	46742	3	TAINAN			0	120.21666666666668	23.0		19610504	19640930	1	0	63	NMS	226	Tainan									['38', '85', '106', '107']							L.Haimberger	0	2.2		3.4	14.0	uadb_windc_46742.txt	OSCAR
301	0-20000-0-55696	0	302	55696	3	LHUNZE			0	92.46666666666668	28.416666666666668		19730214	19911217	1	0	63	NMS	47	Ziro									['38', '85', '106', '107']							L.Haimberger	0	0.5		159.9	3861.0	uadb_trhc_55696.txt	OSCAR
302	0-20000-0-65257	0	303	65257	3	ENUGU			0	7.55	6.466666666666667		20120923	20231202	1	0	63	NMS	163	Enugu									['38', '85', '106', '107']							L.Haimberger	0	1.2		8.0	141.8	uadb_windc_65257.txt	OSCAR
303	0-20000-0-41624	0	304	41624	3	DERA ISMAIL KHAN			0	70.91666666666667	31.816666666666663		20180101	20231228	1	0	63	NMS	177	Dera Ismail Khan									['38', '85', '106', '107']							L.Haimberger	0	0.5		2.2	173.0	uadb_windc_41624.txt	OSCAR
304	0-20000-0-41696	0	305	41696	3	KALAT			0	66.58333333333333	29.03333333333333		20060418	20100106	1	0	63	NMS	177	Kalat									['38', '85', '106', '107']							L.Haimberger	0	0.5		1.4	2017.0	uadb_windc_41696.txt	OSCAR
305	0-20000-0-16459	0	306	16460	3	CATANIA SIGONELLA			0	14.91861111111111	37.40555555555555		19620303	19670618	1	0	63	NMS	109	Catania									['38', '85', '106', '107']							L.Haimberger	0	7.2		11.1	17.0	uadb_windc_16460.txt	OSCAR
306	0-20000-0-65123	0	307	65123	3	MINNA			0	6.533333333333333	9.616666666666667		19740611	19830801	1	0	63	NMS	163	Minna									['38', '85', '106', '107']							L.Haimberger	0	0.5		3.0	256.4	uadb_trhc_65123.txt	OSCAR
307	0-20000-0-12150	0	308	12150	3	GDANSK-REBIECHOWO			0	18.47	54.380833333333335		19670513	19890123	1	0	63	NMS	178	Gdansk									['38', '85', '106', '107']							L.Haimberger	0	0.1		4.3	138.35	uadb_windc_12150.txt	OSCAR
308	0-20000-0-67586	0	309	67586	3	LILONGWE INT'L AIRPORT			0	33.766666666666666	-13.783333333333331		19740907	19911029	1	0	63	NMS	155	Lilongwe									['38', '85', '106', '107']							L.Haimberger	0	1.5		9.1	1229.0	uadb_trhc_67586.txt	OSCAR
309	0-20700-0-63013	0	310	63013	3	AGORDAT                  			0	37.88333333333333	15.55		19490203	19570916	1	0	63	NMS	66	Barentu									['38', '85', '106', '107']							L.Haimberger	0	0.4		57.3	-999.0	uadb_windc_63013.txt	WMO
310	0-20000-0-56287	0	311	56287	3	YA'AN			0	103.0	29.98333333333333		19560820	19580531	1	0	63	NMS	47	Yaan									['38', '85', '106', '107']							L.Haimberger	0	5.2		4.6	629.0	uadb_windc_56287.txt	OSCAR
311	0-20000-0-67475	0	312	67475	3	KASAMA			0	31.133333333333333	-10.216666666666669		19710505	19911028	1	0	63	NMS	247	Kasama									['38', '85', '106', '107']							L.Haimberger	0	0.5		7.7	1384.0	uadb_trhc_67475.txt	OSCAR
312	0-20000-0-07130	0	313	7130	3	RENNES-SAINT JACQUES			0	-1.733888888888889	48.06888888888889		19680310	20020801	1	0	63	NMS	74	Rennes									['38', '85', '106', '107']							L.Haimberger	0	1.0		5.8	37.0	uadb_trhc_7130.txt	OSCAR
313	0-20000-0-65510	0	314	65510	3	BOBO-DIOULASSO			0	-4.3	11.166666666666666		19700317	20110105	1	0	63	NMS	21	Bobo Dioulasso									['38', '85', '106', '107']							L.Haimberger	0	2.2		3.3	432.0	uadb_trhc_65510.txt	OSCAR
314	0-20000-0-67023	0	315	67023	3	SAMBAVA			0	50.16666666666666	-14.283333333333331		19660510	20040926	1	0	63	NMS	141	Sambava									['38', '85', '106', '107']							L.Haimberger	0	4.0		1.5	5.0	uadb_windc_67023.txt	OSCAR
315	0-20000-0-48477	0	316	48477	3	SATTAHIP			0	100.98527777777778	12.69138888888889		19700721	20110104	1	0	63	NMS	216	Sattahip									['38', '85', '106', '107']							L.Haimberger	0	1.4		2.9	21.27	uadb_trhc_48477.txt	OSCAR
316	0-20000-0-91831	0	317	91830	3	AITUTAKI AWS			0	-159.76666666666668	-18.83333333333333		19710619	19911029	1	0	63	NMS	44	Avarua									['38', '85', '106', '107']							L.Haimberger	0	0.5		263.2	5.0	uadb_trhc_91830.txt	OSCAR
317	0-20000-0-14031	0	318	13030	3	MURSKA SOBOTA			0	16.191388888888888	46.651944444444446		19570601	19591225	1	0	63	NMS	199	Murska Sobota									['38', '85', '106', '107']							L.Haimberger	0	5.1		2.9	186.7	uadb_windc_13030.txt	OSCAR
318	0-20000-0-87178	0	319	87178	3	POSADAS AERO			0	-55.96694444444445	-27.391111111111112		19811226	19980306	1	0	63	NMS	10	Posadas									['38', '85', '106', '107']							L.Haimberger	0	2.4		7.3	125.0	uadb_trhc_87178.txt	OSCAR
319	0-20600-0-96655	0	320	96655	3	WAOP Palangkaraya - Tjilik Riwut AP / Panarung AP, Kalimantan, Indonesia			0	114.0	-1.0		19880213	20110103	1	0	63	NMS	100	Sampit									['38', '85', '106', '107']							L.Haimberger	0	0.0		205.9	-999.0	uadb_trhc_96655.txt	SCHROEDER
320	0-20000-0-57237	0	321	57237	3	WANYUAN			0	108.03333333333332	32.06666666666667		19640620	20050123	1	0	63	NMS	47	Daxian									['38', '85', '106', '107']							L.Haimberger	0	4.6		110.4	674.0	uadb_trhc_57237.txt	OSCAR
321	0-20000-0-48991	0	322	48991	3	PHNOM-PENH (KHMOUGH)			0	104.86666666666666	11.6		19691226	20011117	1	0	63	NMS	116	Phnum Penh									['38', '85', '106', '107']							L.Haimberger	0	5.8		7.3	10.0	uadb_trhc_48991.txt	OSCAR
322	0-20000-0-32150	0	323	32152	3	JUZHNO-SAHALINSK			0	142.71666666666667	46.95		19550701	19570831	1	0	63	NMS	190	Korsakov									['38', '85', '106', '107']							L.Haimberger	0	0.3		35.6	24.0	uadb_trhc_32152.txt	OSCAR
323	0-20000-0-96091	0	324	96091	3	TANJUNG PINANG/KIJANG			0	104.53	0.918611111111111		19820813	20110105	1	0	63	NMS	100	Kijang									['38', '85', '106', '107']							L.Haimberger	0	0.2		11.7	18.0	uadb_trhc_96091.txt	OSCAR
324	0-20000-0-47140	0	325	47141	3	GUNSAN			0	126.76138888888887	36.00527777777778		19620304	19900423	1	0	63	NMS	121	Seoul									['38', '85', '106', '107']							L.Haimberger	0	15.9		189.0	24.6	uadb_windc_47141.txt	OSCAR
325	0-20000-0-27595	0	326	27596	3	KAZAN' (27595-0)			0	49.20444444444445	55.74		19490103	19560131	1	0	63	NMS	190	Kazan									['38', '85', '106', '107']							L.Haimberger	0	4.7		3.8	118.5	uadb_trhc_27596.txt	OSCAR
326	0-20000-0-52713	0	327	52713	3	DA-QAIDAM			0	95.36666666666666	37.85		19730106	19870622	1	0	63	NMS	47	Yumen									['38', '85', '106', '107']							L.Haimberger	0	7.9		307.9	3174.0	uadb_trhc_52713.txt	OSCAR
327	0-20000-0-48453	0	328	48456	3	BANGNA AGROMET			0	100.6061111111111	13.66638888888889		19710901	19781007	1	0	63	NMS	216	Pak Kret									['38', '85', '106', '107']							L.Haimberger	0	28.1		12.0	7.0	uadb_windc_48456.txt	OSCAR
328	0-20000-0-11968	0	329	11968	3	KOSICE			0	21.216666666666665	48.66666666666666		20170308	20170308	1	0	63	NMS	201	Kosice									['38', '85', '106', '107']							L.Haimberger	0	5.4		2.4	231.0	uadb_trhc_11968.txt	OSCAR
329	0-20000-0-47131	0	330	47131	3	CHEONGJU			0	127.44055555555556	36.63916666666667		19800205	20000314	1	0	63	NMS	121	Seoul									['38', '85', '106', '107']							L.Haimberger	0	1.4		114.7	58.56	uadb_windc_47131.txt	OSCAR
330	0-20000-0-64220	0	331	64210	3	KINSHASA/BINZA			0	15.25	-4.366666666666666		19661119	19900201	1	0	63	NMS	39	Kinshasa									['38', '85', '106', '107']							L.Haimberger	0	0.4		16.9	312.0	uadb_trhc_64210.txt	OSCAR
331	0-20000-0-63791	0	332	63791	3	KILIMANJARO INT			0	37.05805555555556	-3.424722222222222		19760120	19860321	1	0	63	NMS	227	Kingori									['38', '85', '106', '107']							L.Haimberger	0	1.4		17.9	896.0	uadb_windc_63791.txt	OSCAR
332	0-20000-0-28900	0	333	28901	3	SAMARA (OGMS)			0	50.21666666666667	53.25		19500511	19560130	1	0	63	NMS	190	Samara									['38', '85', '106', '107']							L.Haimberger	0	3.8		6.2	139.35	uadb_windc_28901.txt	OSCAR
333	0-20000-0-62650	0	334	62650	3	DONGOLA			0	30.48333333333333	19.166666666666668		19691018	20090517	1	0	63	NMS	195	Marawi									['38', '85', '106', '107']							L.Haimberger	0	3.8		160.1	226.0	uadb_windc_62650.txt	OSCAR
334	0-20000-0-82579	0	335	82579	3	TERESINA (AERO)			0	-42.81666666666667	-5.05		19710102	20010628	1	0	63	NMS	30	Teresina									['38', '85', '106', '107']							L.Haimberger	0	0.4		0.5	69.0	uadb_trhc_82579.txt	OSCAR
335	0-20000-0-41943	0	336	41943	3	FENI (41943-0)			0	91.41666666666669	23.03333333333333		19890113	20110105	1	0	63	NMS	19	Feni									['38', '85', '106', '107']							L.Haimberger	0	0.5		1.6	8.0	uadb_trhc_41943.txt	OSCAR
336	0-20000-0-30731	0	337	30731	3	GORJACINSK			0	108.2911111111111	52.98611111111112		19620814	19641124	1	0	63	NMS	190	Onokhoy									['38', '85', '106', '107']							L.Haimberger	0	11.4		108.1	491.42	uadb_windc_30731.txt	OSCAR
337	0-20000-0-43346	0	338	43347	3	KARAIKAL			0	79.83333333333333	10.916666666666666		19700211	20010124	1	0	63	NMS	104	Nagapattinam									['38', '85', '106', '107']							L.Haimberger	0	16.3		1.9	3.1	uadb_windc_43347.txt	OSCAR
338	0-20000-0-76491	0	339	76491	3	CIUDAD VICTORIA, TAMPS.			0	-99.17	23.7425		19500401	19520115	1	0	63	NMS	156	Gonzalez									['38', '85', '106', '107']							L.Haimberger	0	6.3		111.2	336.0	uadb_trhc_76491.txt	OSCAR
339	0-20000-0-13463	0	340	13462	3	PODGORICA-GRAD			0	19.28333333333333	42.43333333333333		19550101	19591230	1	0	63	NMS	139	Podgorica									['38', '85', '106', '107']							L.Haimberger	0	0.5		1.8	33.0	uadb_windc_13462.txt	OSCAR
340	0-20000-0-74796	0	341	74796	3	AVON PARK GUNNERY RANGE, FL.			0	-81.33333333333333	27.65		19740517	19911029	1	0	63	NMS	231	Sebring									['38', '85', '106', '107']							L.Haimberger	0	0.3		20.4	20.0	uadb_trhc_74796.txt	OSCAR
341	0-20000-0-57071	0	342	57073	3	MENGJIN			0	112.46666666666668	34.8		19641217	19750909	1	0	63	NMS	47	Luoyang									['38', '85', '106', '107']							L.Haimberger	0	15.3		3.4	329.8	uadb_trhc_57073.txt	OSCAR
342	0-20000-0-07240	0	343	7240	3	TOURS			0	0.7275	47.44444444444444		19620305	20011029	1	0	63	NMS	74	Tours									['38', '85', '106', '107']							L.Haimberger	0	0.8		6.3	112.0	uadb_windc_7240.txt	OSCAR
343	0-20000-0-91232	0	344	91232	3	SAIPAN (CG), MARIANA IS.			0	145.73333333333332	15.116666666666667		19670212	19920329	1	0	63	NMS	148	None									['38', '85', '106', '107']							L.Haimberger	0	3.9		None	82.0	uadb_trhc_91233.txt	OSCAR
344	0-20000-0-57799	0	345	57799	3	JI'AN (57799-0)			0	114.96666666666668	27.116666666666667		19710421	20020330	1	0	63	NMS	47	Jian									['38', '85', '106', '107']							L.Haimberger	0	1.9		3.9	78.0	uadb_trhc_57799.txt	OSCAR
345	0-20000-0-63971	0	346	63971	3	MTWARA			0	40.18333333333333	-10.266666666666667		19570701	19941208	1	0	63	NMS	227	Mtwara									['38', '85', '106', '107']							L.Haimberger	0	7.2		0.5	113.0	uadb_windc_63971.txt	OSCAR
346	0-20000-0-07255	0	347	7255	3	BOURGES			0	2.3597222222222225	47.05916666666666		19820228	19911022	1	0	63	NMS	74	Bourges									['38', '85', '106', '107']							L.Haimberger	0	1.4		2.7	166.0	uadb_trhc_7255.txt	OSCAR
347	0-20000-0-97270	0	348	97270	3	BIMA/M.SALAHUDDIN			0	118.69305555555556	-8.5425		19911002	20110105	1	0	63	NMS	100	Bima									['38', '85', '106', '107']							L.Haimberger	0	1.1		9.4	2.0	uadb_trhc_97270.txt	OSCAR
348	0-20000-0-47655	0	349	47655	3	OMAEZAKI			0	138.2133333333333	34.60472222222222		19670616	19880219	1	0	63	NMS	113	Oyama									['38', '85', '106', '107']							L.Haimberger	0	0.8		0.3	46.8	uadb_trhc_47655.txt	OSCAR
349	0-20000-0-44282	0	350	44282	3	TSETSERLEG			0	101.46277777777776	47.47166666666667		19700601	20001021	1	0	63	NMS	146	Bulgan									['38', '85', '106', '107']							L.Haimberger	0	4.2		215.5	1691.0	uadb_windc_44282.txt	OSCAR
350	0-20000-0-30739	0	351	30739	3	HORINSK			0	109.785	52.16666666666666		19620809	19641231	1	0	63	NMS	190	Khilok									['38', '85', '106', '107']							L.Haimberger	0	9.4		97.2	666.09	uadb_windc_30739.txt	OSCAR
351	0-20600-0-53821	0	352	53821	3	Hongde, China			0	107.2	36.77		19710419	19870719	1	0	63	NMS	47	Pingliang									['38', '85', '106', '107']							L.Haimberger	0	0.0		144.2	-999.0	uadb_trhc_53821.txt	SCHROEDER
352	0-20000-0-67072	0	353	67072	3	SAINTE-MARIE AERODROME			0	49.81666666666667	-17.083333333333332		19661203	20131024	1	0	63	NMS	141	Ambodifototra									['38', '85', '106', '107']							L.Haimberger	0	0.5		14.0	3.0	uadb_windc_67072.txt	OSCAR
353	0-20000-0-64510	0	354	64510	3	BITAM			0	11.483333333333333	2.083333333333333		19641002	20040513	1	0	63	NMS	75	Bitam									['38', '85', '106', '107']							L.Haimberger	0	2.6		0.5	599.0	uadb_windc_64510.txt	OSCAR
354	0-20000-0-47759	0	355	47759	3	KYOTO			0	135.73277777777778	35.014722222222225		19290109	19410830	1	0	63	NMS	113	Muko									['38', '85', '106', '107']							L.Haimberger	0	0.6		10.0	52.6	uadb_windc_47759.txt	OSCAR
355	0-20000-0-47750	0	356	47749	3	MAIZURU			0	135.31805555555556	35.45027777777778		19350801	19410610	1	0	63	NMS	113	Ayabe									['38', '85', '106', '107']							L.Haimberger	0	13.9		9.0	8.91	uadb_windc_47749.txt	OSCAR
356	0-20000-0-67012	0	357	67012	3	FASCENE (NOSSI-BE)			0	48.31666666666667	-13.316666666666666		19660605	19850715	1	0	63	NMS	141	Ambanja									['38', '85', '106', '107']							L.Haimberger	0	2.6		44.0	9.0	uadb_windc_67012.txt	OSCAR
357	0-20000-0-59134	0	358	59137	3	XIAMEN			0	118.08333333333331	24.48333333333333		19600503	19601231	1	0	63	NMS	47	Xiamen									['38', '85', '106', '107']							L.Haimberger	0	20.3		19.9	139.0	uadb_windc_59137.txt	OSCAR
358	0-20000-0-47648	0	359	47648	3	CHOSHI			0	140.85722222222222	35.73972222222222		19350107	19441028	1	0	63	NMS	113	Choshi									['38', '85', '106', '107']							L.Haimberger	0	2.3		2.1	28.1	uadb_windc_47648.txt	OSCAR
359	0-20000-0-52908	0	360	52908	3	WUDAOLIANG			0	93.08333333333331	35.21666666666667		19730315	19870622	1	0	63	NMS	47	Yumen									['38', '85', '106', '107']							L.Haimberger	0	0.5		656.6	4613.0	uadb_trhc_52908.txt	OSCAR
360	0-20000-0-07037	0	361	7036	3	ROUEN-BOOS			0	1.1816666666666666	49.38305555555556		19660302	19670530	1	0	63	NMS	74	Le Grand-Quevilly									['38', '85', '106', '107']							L.Haimberger	0	9.6		2.3	152.0	uadb_windc_7036.txt	OSCAR
361	0-20000-0-44449	0	362	42382	3	SIMARA AIRPORT			0	84.98333333333333	27.166666666666668		19630111	19820928	1	0	63	NMS	167	Raxaul									['38', '85', '106', '107']							L.Haimberger	0	20.2		0.4	137.0	uadb_windc_42382.txt	OSCAR
362	0-20000-0-60430	0	363	60430	3	MILIANA			0	2.2333333333333334	36.3		19741214	20030115	1	0	63	NMS	61	Medea									['38', '85', '106', '107']							L.Haimberger	0	3.3		47.2	721.0	uadb_trhc_60430.txt	OSCAR
363	0-20000-0-64601	0	364	64601	3	BOUAR			0	15.633333333333333	5.966666666666667		19760429	19911021	1	0	63	NMS	40	Bouar									['38', '85', '106', '107']							L.Haimberger	0	0.5		4.0	1020.0	uadb_trhc_64601.txt	OSCAR
364	0-20000-0-63270	0	365	63270	3	CHISIMAIO			0	42.43333333333333	-0.3666666666666666		19570702	19631207	1	0	63	NMS	205	Kismayo									['38', '85', '106', '107']							L.Haimberger	0	0.5		11.5	10.0	uadb_windc_63270.txt	OSCAR
365	0-20000-0-47575	0	366	47575	3	AOMORI			0	140.7688888888889	40.82194444444445		19460401	19480831	1	0	63	NMS	113	Namioka									['38', '85', '106', '107']							L.Haimberger	0	1.0		20.4	4.06	uadb_windc_47575.txt	OSCAR
366	0-20000-0-57916	0	367	57916	3	LUODIAN			0	106.76666666666668	25.433333333333334		19710103	20020320	1	0	63	NMS	47	Xiaoweizhai									['38', '85', '106', '107']							L.Haimberger	0	6.0		114.6	441.0	uadb_trhc_57916.txt	OSCAR
367	0-20000-0-06484	0	368	6480	3	BUZENOL			0	5.5875	49.62027777777778		19490109	19500731	1	0	63	NMS	20	Virton									['38', '85', '106', '107']							L.Haimberger	0	7.9		3.2	324.0	uadb_windc_6480.txt	OSCAR
368	0-20000-0-60725	0	369	60725	3	JENDOUBA			0	8.8	36.48333333333333		19700205	20000310	1	0	63	NMS	221	Jundubah									['38', '85', '106', '107']							L.Haimberger	0	0.4		2.9	144.0	uadb_trhc_60725.txt	OSCAR
369	0-20000-0-56116	0	370	56116	3	DENGQEN			0	95.6	31.416666666666668		19661112	19991217	1	0	63	NMS	47	Along									['38', '85', '106', '107']							L.Haimberger	0	0.4		363.6	3874.0	uadb_trhc_56116.txt	OSCAR
370	0-20000-0-87828	0	371	87827	3	TRELEW AERO			0	-65.28222222222222	-43.20888888888889		19730701	20010410	1	0	63	NMS	10	Trelew									['38', '85', '106', '107']							L.Haimberger	0	2.8		2.5	43.0	uadb_trhc_87827.txt	OSCAR
371	0-20000-0-42498	0	372	42498	3	BHAGALPUR			0	86.95	25.23333333333333		20180128	20231218	1	0	63	NMS	104	Bhagalpur									['38', '85', '106', '107']							L.Haimberger	0	0.4		5.5	44.0	uadb_windc_42498.txt	OSCAR
372	0-20600-0-55248	0	373	55248	3	Lumaringbo / Gerze / Kai-tse, China			0	84.13	32.07		19790411	19911029	1	0	63	NMS	47	Baglung									['38', '85', '106', '107']							L.Haimberger	0	7.6		424.7	-999.0	uadb_trhc_55248.txt	SCHROEDER
373	0-20000-0-62435	0	374	62435	3	KHARGA AGRIMET			0	30.5425	25.46444444444444		19630706	19981020	1	0	63	NMS	64	Sohag									['38', '85', '106', '107']							L.Haimberger	0	5.8		169.0	72.75	uadb_windc_62435.txt	OSCAR
374	0-20600-0-17611	0	375	17611	3	Ayios Nicolaos, Cyprus			0	33.9	35.08		19691018	19820614	1	0	63	NMS	53	Gazimagusa									['38', '85', '106', '107']							L.Haimberger	0	2.2		6.8	-999.0	uadb_windc_17611.txt	SCHROEDER
375	0-20000-0-47807	0	376	47802	3	FUKUOKA			0	130.3763888888889	33.58222222222223		19400531	19440924	1	0	63	NMS	113	Shingu									['38', '85', '106', '107']							L.Haimberger	0	11.1		5.1	15.03	uadb_windc_47802.txt	OSCAR
376	0-20000-0-65387	0	377	65387	3	LOME			0	1.25	6.166666666666667		19781018	20110102	1	0	63	NMS	215	Aflao									['38', '85', '106', '107']							L.Haimberger	0	0.4		8.6	25.0	uadb_trhc_65387.txt	OSCAR
377	0-20000-0-25282	0	378	25282	3	MYS VANKAREM			0	-175.83333333333334	67.83333333333333		19800322	20001231	1	0	63	NMS	190	None									['38', '85', '106', '107']							L.Haimberger	0	1.9		None	4.8	uadb_windc_25282.txt	OSCAR
378	0-20000-0-43367	0	379	43368	3	CAR NICOBAR			0	92.83333333333331	9.166666666666666		19630102	20160115	1	0	63	NMS	104	Port Blair									['38', '85', '106', '107']							L.Haimberger	0	5.2		278.5	10.1	uadb_windc_43368.txt	OSCAR
379	0-508-0-67329	0	380	67323	3	INHAMBANE_AUTO			0	35.38	-23.87		19670304	19850710	1	0	63	NMS	158	Inhambane									['38', '85', '106', '107']							L.Haimberger	0	3.9		0.6	15.0	uadb_windc_67323.txt	OSCAR
380	0-20000-0-56462	0	381	56462	3	JIULONG			0	101.5	29.0		19640503	20010630	1	0	63	NMS	47	Xichang									['38', '85', '106', '107']							L.Haimberger	0	5.4		146.2	2931.0	uadb_trhc_56462.txt	OSCAR
381	0-20000-0-43424	0	382	43424	3	PUTTALAM			0	79.83333333333333	8.033333333333333		20090324	20110104	1	0	63	NMS	129	Anuradhapura									['38', '85', '106', '107']							L.Haimberger	0	0.5		70.5	2.0	uadb_trhc_43424.txt	OSCAR
382	0-20000-0-07280	0	383	7280	3	DIJON-LONGVIC			0	5.088333333333333	47.26777777777777		19680501	20030618	1	0	63	NMS	74	Chenove									['38', '85', '106', '107']							L.Haimberger	0	0.7		6.3	227.0	uadb_trhc_7280.txt	OSCAR
383	0-20000-0-47167	0	384	47167	3	YEOSU AIRPORT			0	127.61666666666666	34.833333333333336		20121001	20200117	1	0	63	NMS	121	Hirado									['38', '85', '106', '107']							L.Haimberger	0	0.8		242.4	22.0	uadb_trhc_47167.txt	OSCAR
384	0-20000-0-54471	0	385	54471	3	YINGKOU			0	122.16666666666669	40.66666666666666		19590920	19591231	1	0	63	NMS	47	Dashiqiao									['38', '85', '106', '107']							L.Haimberger	0	5.4		23.3	5.0	uadb_windc_54471.txt	OSCAR
385	0-20000-0-66447	0	386	66447	3	MAVINGA			0	20.35	-15.833333333333334		19570102	19710910	1	0	63	NMS	8	Rundu									['38', '85', '106', '107']							L.Haimberger	0	0.4		240.9	-999.0	uadb_windc_66447.txt	OSCAR
386	0-20000-0-83971	0	387	83967	3	PORTO ALEGRE (AERO)			0	-51.18333333333333	-30.0		19500605	19541222	1	0	63	NMS	30	Cachoeirinha									['38', '85', '106', '107']							L.Haimberger	0	13.7		5.8	47.0	uadb_trhc_83967.txt	OSCAR
387	0-20000-0-61499	0	388	61499	3	AIOUN EL ATROUSS			0	-9.6	16.7		19570701	20010727	1	0	63	NMS	150	Nioro									['38', '85', '106', '107']							L.Haimberger	0	0.0		165.7	223.0	uadb_windc_61499.txt	OSCAR
388	0-20000-0-96749	0	389	96739	3	JAKARTA/SOEKARNO-HATTA			0	106.65472222222223	-6.122222222222222		19790102	20101229	1	0	63	NMS	100	Curug									['38', '85', '106', '107']							L.Haimberger	0	11.9		4.5	46.0	uadb_trhc_96739.txt	OSCAR
389	0-20000-0-26850	0	390	26851	3	MINSK			0	27.635277777777777	53.92861111111111		19500427	19560130	1	0	63	NMS	35	Minsk									['38', '85', '106', '107']							L.Haimberger	0	0.4		5.3	223.82	uadb_windc_26851.txt	OSCAR
390	0-20000-0-07618	0	391	7630	3	TOULOUSE RW			0	1.3744444444444446	43.57694444444445		19710427	19840803	1	0	63	NMS	74	Blagnac									['38', '85', '106', '107']							L.Haimberger	0	4.8		2.4	150.0	uadb_trhc_7630.txt	OSCAR
391	0-20000-0-67095	0	392	67095	3	TOAMASINA			0	49.4	-18.116666666666667		19770128	20110105	1	0	63	NMS	141	Toamasina									['38', '85', '106', '107']							L.Haimberger	0	0.4		5.5	6.0	uadb_trhc_67095.txt	OSCAR
392	0-20000-0-47762	0	393	47762	3	SHIMONOSEKI			0	130.92638888888888	33.948611111111106		19380103	19410127	1	0	63	NMS	113	Shimonoseki									['38', '85', '106', '107']							L.Haimberger	0	0.4		1.8	19.5	uadb_windc_47762.txt	OSCAR
393	0-20000-0-40690	0	394	40689	3	BASRAH INT. AIRPORT			0	47.78333333333333	30.516666666666666		19570901	20080918	1	0	63	NMS	106	Khorramshahr									['38', '85', '106', '107']							L.Haimberger	0	5.9		39.8	2.0	uadb_trhc_40689.txt	OSCAR
394	0-20000-0-64450	0	395	64450	3	BRAZZAVILLE /MAYA-MAYA			0	15.25	-4.25		19680622	20140614	1	0	63	NMS	39	Brazzaville									['38', '85', '106', '107']							L.Haimberger	0	0.0		4.0	316.0	uadb_trhc_64450.txt	OSCAR
395	0-20000-0-60750	0	396	60750	3	SFAX EL-MAOU			0	10.683333333333334	34.71666666666667		19680905	19980323	1	0	63	NMS	221	Safaqis									['38', '85', '106', '107']							L.Haimberger	0	0.5		7.7	23.0	uadb_trhc_60750.txt	OSCAR
396	0-20300-0-20357	0	397	20357	3	RUSSKAJA GAVAN			0	62.5667	76.1833		19530219	19541231	1	0	63	NMS	190	None									['38', '85', '106', '107']							L.Haimberger	0	26.5		None	9.0	uadb_windc_20357.txt	IGRA2
397	0-20300-0-27331	0	398	27331	3	JAROSLAVL			0	39.58	57.58		19500813	19530213	1	0	63	NMS	190	Yaroslavl									['38', '85', '106', '107']							L.Haimberger	0	0.0		17.0	103.0	uadb_windc_27331.txt	IGRA2
398	0-20300-0-63710	0	399	63710	3	KERICHO			0	35.267	-0.367		19780617	19960412	1	0	63	NMS	114	Kericho									['38', '85', '106', '107']							L.Haimberger	0	9.2		5.2	1976.0	uadb_windc_63710.txt	IGRA2
399	0-20000-0-59417	0	400	59417	3	LONGZHOU			0	106.75	22.366666666666667		19680211	19870622	1	0	63	NMS	47	Lang Son									['38', '85', '106', '107']							L.Haimberger	0	8.4		59.5	129.0	uadb_trhc_59417.txt	OSCAR
400	0-20000-0-52737	0	401	52737	3	DELINGHA			0	97.36666666666666	37.36666666666667		19641007	19911029	1	0	63	NMS	47	Yumen									['38', '85', '106', '107']							L.Haimberger	0	0.5		291.5	2982.0	uadb_trhc_52737.txt	OSCAR
401	0-20600-0-51232	0	402	51232	3	Karabura - Paerhluk'o Mountain, China			0	82.53	45.97		19740619	19970705	1	0	63	NMS	47	Urdzhar									['38', '85', '106', '107']							L.Haimberger	0	0.0		142.2	-999.0	uadb_trhc_51232.txt	SCHROEDER
402	0-20000-0-41594	0	403	41593	3	SARGODHA (41594-0)			0	72.66666666666667	32.05		20151030	20170810	1	0	63	NMS	177	Sargodha									['38', '85', '106', '107']							L.Haimberger	0	0.3		3.7	187.0	uadb_windc_41593.txt	OSCAR
403	0-20000-0-61701	0	404	61701	3	BANJUL/YUNDUM			0	-16.649722222222223	13.3425		19641002	19910201	1	0	63	NMS	84	Sukuta									['38', '85', '106', '107']							L.Haimberger	0	2.3		8.6	-999.0	uadb_windc_61701.txt	OSCAR
404	0-20000-0-68104	0	405	68100	3	WALVIS BAY (PELICAN POINT)			0	14.433333333333334	-22.883333333333333		19570812	19581231	1	0	63	NMS	159	Swakopmund									['38', '85', '106', '107']							L.Haimberger	0	24.2		1.4	7.0	uadb_windc_68100.txt	OSCAR
405	0-20000-0-47167	0	406	47167	3	YEOSU AIRPORT			0	127.61666666666666	34.833333333333336		20121001	20200117	1	0	63	NMS	121	Hirado									['38', '85', '106', '107']							L.Haimberger	0	0.8		242.4	22.0	uadb_windc_47167.txt	OSCAR
406	0-20000-0-94287	0	407	94287	3	CAIRNS AERO			0	145.7458333333333	-16.87361111111111		19680219	19911029	1	0	63	NMS	13	Cairns									['38', '85', '106', '107']							L.Haimberger	0	0.8		4.4	8.3	uadb_trhc_94287.txt	OSCAR
407	0-20500-0-15606	0	408	71098	3	INDIAN HOUSE LAKE			0	-64.73	56.23		19620306	19620906	1	0	63	NMS	37	None									['38', '85', '106', '107']							L.Haimberger	0	25.7		None	311.2008	uadb_windc_71098.txt	WBAN
408	0-20000-0-10655	0	409	10659	3	WUERZBURG			0	9.957777777777777	49.77027777777778		19711014	19840829	1	0	63	NMS	56	Kitzingen									['38', '85', '106', '107']							L.Haimberger	0	12.9		3.0	271.77	uadb_trhc_10659.txt	OSCAR
409	0-20000-0-63789	0	410	63789	3	ARUSHA			0	36.62583333333333	-3.3675		19610211	19720927	1	0	63	NMS	227	Arusha									['38', '85', '106', '107']							L.Haimberger	0	4.2		8.1	1387.0	uadb_windc_63789.txt	OSCAR
410	0-20000-0-96607	0	411	96607	3	SAMARINDA/TEMINDUNG			0	117.1563888888889	-0.4827777777777778		20090326	20110104	1	0	63	NMS	100	Loa Janan									['38', '85', '106', '107']							L.Haimberger	0	15.2		8.5	230.0	uadb_trhc_96607.txt	OSCAR
411	0-20300-0-72497	0	412	72497	3	CHICO MUNI			0	-121.85	39.7833		19691009	19720523	1	0	63	NMS	231	Chico									['38', '85', '106', '107']							L.Haimberger	0	1.9		8.0	25.0	uadb_windc_72497.txt	IGRA2
412	0-20000-0-54843	0	413	54843	3	WEIFANG			0	119.18333333333334	36.766666666666666		19600618	19610314	1	0	63	NMS	47	Weifang									['38', '85', '106', '107']							L.Haimberger	0	9.3		2.0	22.0	uadb_windc_54843.txt	OSCAR
413	0-20000-0-61226	0	414	61226	3	GAO			0	-0.05	16.266666666666666		19730827	19931127	1	0	63	NMS	144	Gao									['38', '85', '106', '107']							L.Haimberger	0	0.4		0.4	260.0	uadb_trhc_61226.txt	OSCAR
414	0-20000-0-84752	0	415	84752	3	AREQUIPA			0	-71.56666666666666	-16.333333333333332		20161218	20161218	1	0	63	NMS	173	Arequipa									['38', '85', '106', '107']							L.Haimberger	0	2.3		8.9	2539.0	uadb_trhc_84752.txt	OSCAR
415	0-20000-0-67283	0	416	67283	3	QUELIMANE			0	36.88333333333333	-17.883333333333333		19670603	19851029	1	0	63	NMS	158	Quelimane									['38', '85', '106', '107']							L.Haimberger	0	0.5		0.9	16.0	uadb_windc_67283.txt	OSCAR
416	0-20000-0-15360	0	417	15360	3	SULINA			0	29.72694444444444	45.16222222222222		19730323	19980605	1	0	63	NMS	188	Kiliya									['38', '85', '106', '107']							L.Haimberger	0	4.7		46.5	2.93	uadb_windc_15360.txt	OSCAR
417	0-20000-0-48551	0	418	48551	3	SURAT THANI			0	99.15194444444444	9.134166666666664		19701019	20101227	1	0	63	NMS	216	Surat Thani									['38', '85', '106', '107']							L.Haimberger	0	21.8		3.8	6.95	uadb_trhc_48551.txt	OSCAR
418	0-20000-0-61017	0	419	61017	3	BILMA			0	12.916666666666666	18.683333333333334		19820526	19950525	1	0	63	NMS	161	Agadez									['38', '85', '106', '107']							L.Haimberger	0	0.5		555.6	357.0	uadb_trhc_61017.txt	OSCAR
419	0-20000-0-65592	0	420	65592	3	TABOU			0	-7.366666666666666	4.416666666666667		19760511	19911214	1	0	63	NMS	43	Tabou									['38', '85', '106', '107']							L.Haimberger	0	0.5		1.9	21.0	uadb_trhc_65592.txt	OSCAR
420	0-20000-0-57731	0	421	57731	3	SINAN			0	108.25	27.95		19810801	19870622	1	0	63	NMS	47	Tongren									['38', '85', '106', '107']							L.Haimberger	0	0.0		95.7	418.0	uadb_trhc_57731.txt	OSCAR
421	0-20300-0-67017	0	422	67017	3	VOHEMAR			0	50.0	-13.367		19691203	20040518	1	0	63	NMS	141	Sambava									['38', '85', '106', '107']							L.Haimberger	0	0.3		101.9	5.0	uadb_windc_67017.txt	IGRA2
422	0-20000-0-03414	0	423	3414	3	SHAWBURY			0	-2.664722222222222	52.79472222222222		19990908	20060301	1	0	63	NMS	76	Shrewsbury									['38', '85', '106', '107']							L.Haimberger	0	0.7		10.2	72.0	uadb_trhc_3414.txt	OSCAR
423	0-20000-0-12580	0	424	12580	3	RZESZOW-JASIONKA			0	22.02	50.11138888888889		19691020	19741117	1	0	63	NMS	178	Rzeszow									['38', '85', '106', '107']							L.Haimberger	0	5.9		7.7	212.56	uadb_windc_12580.txt	OSCAR
424	0-20000-0-44341	0	425	44341	3	MANDALGOBI			0	106.26416666666668	45.74305555555556		19700411	19830416	1	0	63	NMS	146	Mandalgovi									['38', '85', '106', '107']							L.Haimberger	0	6.9		2.5	1393.0	uadb_windc_44341.txt	OSCAR
425	0-20000-0-41715	0	426	41715	3	JACOBABAD			0	68.46666666666667	28.3		19770624	20110105	1	0	63	NMS	177	Jacobabad									['38', '85', '106', '107']							L.Haimberger	0	0.3		3.7	56.0	uadb_trhc_41715.txt	OSCAR
426	0-20000-0-60740	0	427	60740	3	MONASTIR-SKANES			0	10.75	35.666666666666664		19710224	19971230	1	0	63	NMS	221	Susah									['38', '85', '106', '107']							L.Haimberger	0	0.4		13.2	3.0	uadb_trhc_60740.txt	OSCAR
427	0-20500-0-25034	0	428	71920	3	CREE LAKE			0	-107.13	57.35		19870326	19911028	1	0	63	NMS	37	Grand Centre									['38', '85', '106', '107']							L.Haimberger	0	2.2		379.3	499.2624	uadb_trhc_71920.txt	WBAN
428	0-20000-0-42516	0	429	42516	3	SHILLONG			0	91.88333333333334	25.566666666666663		19530427	19550721	1	0	63	NMS	104	Shillong									['38', '85', '106', '107']							L.Haimberger	0	0.5		0.9	1600.0	uadb_trhc_42516.txt	OSCAR
429	0-20000-0-40270	0	430	40270	3	AMMAN AIRPORT			0	35.983333333333334	31.98333333333333		19610706	19831022	1	0	63	NMS	112	Jawa									['38', '85', '106', '107']							L.Haimberger	0	0.5		10.9	779.0	uadb_windc_40270.txt	OSCAR
430	0-20000-0-47881	0	431	47884	3	TOKUSHIMA AB			0	134.60916666666665	34.132222222222225		19700601	19910921	1	0	63	NMS	113	Komatsushima									['38', '85', '106', '107']							L.Haimberger	0	14.8		4.3	5.74	uadb_windc_47884.txt	OSCAR
431	0-20000-0-47887	0	432	47887	3	MATSUYAMA			0	132.77722222222224	33.843333333333334		19371025	19410616	1	0	63	NMS	113	Masaki									['38', '85', '106', '107']							L.Haimberger	0	1.5		9.0	34.27	uadb_windc_47887.txt	OSCAR
432	0-20500-0-10720	0	433	78801	3	FORT SHERMAN			0	-79.98	9.33		19730220	19781227	1	0	63	NMS	172	Colon									['38', '85', '106', '107']							L.Haimberger	0	0.0		9.2	52.1208	uadb_trhc_78801.txt	WBAN
433	0-20000-0-97008	0	434	97008	3	NAHA/TAHUNA			0	125.52888888888889	3.6858333333333335		19911002	20110103	1	0	63	NMS	100	Bitung									['38', '85', '106', '107']							L.Haimberger	0	13.4		238.2	38.0	uadb_trhc_97008.txt	OSCAR
434	0-20000-0-72387	0	435	74614	3	MERCURY/DESERT ROCK, NV.			0	-116.01666666666668	36.61666666666667		19661025	19691229	1	0	63	NMS	231	Pahrump									['38', '85', '106', '107']							L.Haimberger	0	16.6		33.2	1006.0	uadb_trhc_74614.txt	OSCAR
435	0-20000-0-06490	0	436	6490	3	SPA/LA SAUVENIERE			0	5.91	50.47861111111112		19510101	19560630	1	0	63	NMS	20	Spa									['38', '85', '106', '107']							L.Haimberger	0	1.2		5.0	477.35	uadb_windc_6490.txt	OSCAR
436	0-20000-0-47629	0	437	47629	3	MITO			0	140.46805555555557	36.38111111111111		19691019	19701229	1	0	63	NMS	113	Oarai									['38', '85', '106', '107']							L.Haimberger	0	12.0		9.2	31.0	uadb_windc_47629.txt	OSCAR
437	0-20000-0-28900	0	438	28901	3	SAMARA (OGMS)			0	50.21666666666667	53.25		19490102	19560130	1	0	63	NMS	190	Samara									['38', '85', '106', '107']							L.Haimberger	0	3.8		6.2	139.35	uadb_trhc_28901.txt	OSCAR
438	0-20000-0-74370	0	439	74370	3	FORT DRUM/WHEELER-SACK AAF, NY			0	-75.73333333333333	44.05		19890510	19960208	1	0	63	NMS	231	Watertown									['38', '85', '106', '107']							L.Haimberger	0	0.3		16.8	213.9696	uadb_trhc_74370.txt	OSCAR
439	0-20000-0-41506	0	440	41506	3	CHITRAL			0	71.83333333333333	35.85		19870513	20110105	1	0	63	NMS	177	Chitral									['38', '85', '106', '107']							L.Haimberger	0	0.3		4.0	1500.0	uadb_trhc_41506.txt	OSCAR
440	0-20000-0-40608	0	441	40608	3	MOSUL			0	43.15	36.31666666666667		19670727	19740612	1	0	63	NMS	106	Tall Kayf									['38', '85', '106', '107']							L.Haimberger	0	0.4		19.0	223.0	uadb_trhc_40608.txt	OSCAR
441	0-20000-0-40621	0	442	69792	3	KIRKUK			0	44.4	35.46666666666667		20060417	20080512	1	0	63	NMS	106	Kirkuk									['38', '85', '106', '107']							L.Haimberger	0	4.6		3.8	331.0	uadb_trhc_69792.txt	OSCAR
442	0-20000-0-31989	0	443	31989	3	PREOBRAZHENIE			0	133.9	42.9		19750105	19930604	1	0	63	NMS	190	Partizansk									['38', '85', '106', '107']							L.Haimberger	0	0.0		67.3	42.8	uadb_windc_31989.txt	OSCAR
443	0-20000-0-22165	0	444	22165	3	KANIN NOS			0	43.2875	68.65527777777778		19530228	19630205	1	0	63	NMS	190	Arkhangelsk									['38', '85', '106', '107']							L.Haimberger	0	0.8		474.2	48.5	uadb_windc_22165.txt	OSCAR
444	0-20000-0-60620	0	445	60620	3	ADRAR			0	-0.1833333333333333	27.816666666666663		19680202	20000629	1	0	63	NMS	61	Adrar									['38', '85', '106', '107']							L.Haimberger	0	11.8		2.2	283.0	uadb_trhc_60620.txt	OSCAR
445	0-20000-0-57584	0	446	57584	3	YUEYANG			0	113.08333333333331	29.383333333333333		19670210	19870621	1	0	63	NMS	47	Yueyang									['38', '85', '106', '107']							L.Haimberger	0	0.5		25.6	52.0	uadb_trhc_57584.txt	OSCAR
446	0-20000-0-30650	0	447	30650	3	ROMANOVKA			0	112.78333333333332	53.2		19620809	19641231	1	0	63	NMS	190	Chita									['38', '85', '106', '107']							L.Haimberger	0	5.6		140.9	922.7	uadb_windc_30650.txt	OSCAR
447	0-20300-0-46746	0	448	46767	3	CHIAYI (TW-AFB)			0	120.383	23.467		19920311	19990531	1	0	63	NMS	226	Potzu									['38', '85', '106', '107']							L.Haimberger	0	26.8		13.5	25.0	uadb_windc_46767.txt	IGRA2
448	0-20000-0-43295	0	449	43296	3	BANGALORE			0	77.58333333333333	12.966666666666669		19540720	19680227	1	0	63	NMS	104	Bangalore									['38', '85', '106', '107']							L.Haimberger	0	5.4		6.3	897.0	uadb_windc_43296.txt	OSCAR
449	0-20000-0-67869	0	450	67869	3	KADOMA			0	29.883333333333333	-18.316666666666663		19900413	20011010	1	0	63	NMS	248	Kadoma									['38', '85', '106', '107']							L.Haimberger	0	0.5		5.1	1157.0	uadb_windc_67869.txt	OSCAR
450	0-20000-0-28552	0	451	28552	3	SADRINSK			0	63.65	56.06666666666667		19730502	20020708	1	0	63	NMS	190	Shadrinsk									['38', '85', '106', '107']							L.Haimberger	0	1.9		2.8	89.0	uadb_trhc_28552.txt	OSCAR
451	0-20000-0-63533	0	452	63533	3	NEGHELLE			0	39.56666666666667	5.333333333333333		19940224	20081006	1	0	63	NMS	68	Shakiso									['38', '85', '106', '107']							L.Haimberger	0	21.2		106.0	1544.0	uadb_windc_63533.txt	OSCAR
