	primary_id	primary_id_scheme	record_number	secondary_id	secondary_id_scheme	station_name	station_abbreviation	alternative_name	station_crs	longitude	latitude	local_gravity	start_date	end_date	station_type	platform_type	platform_sub_type	operating_institute	operating_territory	city	contact	role	observing_frequency	reporting_time	telecommunication_method	station_automation	measuring_system_model	measuring_system_id	observed_variables	comment	optional_data	bbox_min_longitude	bbox_max_longitude	bbox_min_latitude	bbox_max_latitude	metadata_contact	metadata_contact_role	distance_km	distance_km_minusLat	city_dist_km	file
0	0-20000-0-60607	0	1	60607	3	TIMIMOUN			0	0.2833333333333333	29.25		19840319	19890820	1	0	63	NMS	61	Adrar									['38', '85', '106', '107']							L.Haimberger	0	0.3		159.4	uadb_trhc_60607.txt
1	0-20000-0-66450	0	2	66450	3	BAIA DOS TIGRES			0	11.716666666666667	-16.6		20141023	20141023	1	0	63	NMS	8	Namibe									['38', '85', '106', '107']							L.Haimberger	0	0.4		162.1	uadb_windc_66450.txt
2	0-20000-0-91690	0	3	91690	3	LAUTHALA BAY			0	178.45	-18.15		19690309	19790726	1	0	63	NMS	70	None									['38', '85', '106', '107']							L.Haimberger	0	0.0		None	uadb_windc_91690.txt
3	0-20000-0-89601	0	4	89601	3	OAZIC BANGERA			0	100.74611111111109	-66.27444444444444		19570630	19581117	1	0	63	NMS	214	None									['38', '85', '106', '107']							L.Haimberger	0	0.9		None	uadb_windc_89601.txt
4	0-20000-0-94995	0	5	93995	3	LORD HOWE ISLAND AERO			0	159.07861111111112	-31.54222222222223		19490101	19551231	1	0	63	NMS	13	None									['38', '85', '106', '107']							L.Haimberger	0	2.5		None	uadb_windc_93995.txt
5	0-20500-0-15606	0	6	71098	3	INDIAN HOUSE LAKE			0	-64.73	56.23		19620306	19620906	1	0	63	NMS	37	None									['38', '85', '106', '107']							L.Haimberger	0	25.7		None	uadb_windc_71098.txt
6	0-20500-0-26460	0	7	70268	3	BLAIR LKS BMB RNG AF			0	-147.65	64.33		19780425	19900502	1	0	63	NMS	231	Fairbanks									['38', '85', '106', '107']							L.Haimberger	0	0.0		56.7	uadb_windc_70268.txt
7	0-20000-0-70296	0	8	70296	3	CORDOVA/MILE 13			0	-145.5	60.5		19620304	19640729	1	0	63	NMS	231	Anchorage									['38', '85', '106', '107']							L.Haimberger	0	0.0		252.1	uadb_windc_70296.txt
8	0-20000-0-41466	0	9	41390	3	TAIZ			0	44.13333333333333	13.683333333333335		19830729	19840718	1	0	63	NMS	243	Ibb									['38', '85', '106', '107']							L.Haimberger	0	0.5		32.2	uadb_windc_41390.txt
9	0-20000-0-50603	0	10	50603	3	XIN BARAG YOUQI			0	116.81	48.67888888888889		19730409	19911029	1	0	63	NMS	47	Manzhouli									['38', '85', '106', '107']							L.Haimberger	0	1.2		112.7	uadb_trhc_50603.txt
10	0-20000-0-48887	0	11	48887	3	PHAN THIET			0	108.1	10.933333333333335		20090326	20110104	1	0	63	NMS	239	Phan Thiet									['38', '85', '106', '107']							L.Haimberger	0	0.4		0.4	uadb_trhc_48887.txt
11	0-20000-0-97096	0	12	97096	3	POSO/KASIGUNCU			0	120.65694444444445	-1.4202777777777778		20180101	20211230	1	0	63	NMS	100	Poso									['38', '85', '106', '107']							L.Haimberger	0	9.3		3.1	uadb_windc_97096.txt
12	0-20000-0-55279	0	13	55279	3	BAINGOIN			0	90.01666666666668	31.36666666666667		19730429	19970702	1	0	63	NMS	47	Lasa									['38', '85', '106', '107']							L.Haimberger	0	0.5		217.0	uadb_trhc_55279.txt
13	0-20000-0-67975	0	14	67975	3	MASVINGO			0	30.86666666666667	-20.066666666666666		19811107	20100810	1	0	63	NMS	248	Masvingo									['38', '85', '106', '107']							L.Haimberger	0	0.5		4.1	uadb_trhc_67975.txt
14	0-20000-0-96091	0	15	96091	3	TANJUNG PINANG/KIJANG			0	104.53	0.9186111111111109		19820813	20110105	1	0	63	NMS	100	Kijang									['38', '85', '106', '107']							L.Haimberger	0	0.2		11.7	uadb_trhc_96091.txt
15	0-20000-0-74638	0	16	74638	3	MELROSE GUNNERY RANGE, NM.			0	-103.8	34.3		19700211	19730823	1	0	63	NMS	231	Portales									['38', '85', '106', '107']							L.Haimberger	0	0.0		44.8	uadb_windc_74638.txt
16	0-20000-0-41431	0	17	41360	3	HODEIDAH			0	42.98333333333333	14.75		19830801	19870119	1	0	63	NMS	243	Bajil									['38', '85', '106', '107']							L.Haimberger	0	0.4		47.9	uadb_windc_41360.txt
17	0-20000-0-68024	0	18	68024	3	GHANZI			0	21.65	-21.7		19730813	20050107	1	0	63	NMS	34	Ghanzi									['38', '85', '106', '107']							L.Haimberger	0	0.0		17.2	uadb_windc_68024.txt
18	0-20000-0-47131	0	19	47131	3	CHEONGJU			0	127.44055555555555	36.63916666666667		19800205	20000314	1	0	63	NMS	121	Seoul									['38', '85', '106', '107']							L.Haimberger	0	1.4		114.7	uadb_windc_47131.txt
19	0-20000-0-32540	0	20	32583	3	PETROPAVLOVSK-KAMCHATSKIJ (32540-0)			0	158.58333333333334	53.08333333333334		19490125	19561128	1	0	63	NMS	190	Petropavlovsk-Kamchatskiy									['38', '85', '106', '107']							L.Haimberger	0	12.3		7.3	uadb_trhc_32583.txt
20	0-20000-0-47101	0	21	47101	3	CHUNCHEON			0	127.73583333333332	37.9025		20120906	20200117	1	0	63	NMS	121	Seoul									['38', '85', '106', '107']							L.Haimberger	0	0.5		75.0	uadb_trhc_47101.txt
21	0-20000-0-74531	0	22	74531	3	AIR FORCE ACADEMY,  CO.			0	-104.81666666666666	38.96666666666667		19690222	19911027	1	0	63	NMS	231	Black Forest									['38', '85', '106', '107']							L.Haimberger	0	0.5		11.4	uadb_trhc_74531.txt
22	0-20000-0-64705	0	23	64705	3	BOUSSO			0	16.716666666666665	10.483333333333333		20121220	20121220	1	0	63	NMS	213	Bousso									['38', '85', '106', '107']							L.Haimberger	0	0.5		0.5	uadb_windc_64705.txt
23	0-20000-0-60360	0	24	60360	3	ANNABA			0	7.816666666666666	36.833333333333336		19620312	19911028	1	0	63	NMS	61	Tabarqah									['38', '85', '106', '107']							L.Haimberger	0	0.5		84.7	uadb_trhc_60360.txt
24	0-20700-0-76648	0	25	76648	3	COZUMEL                  			0	-86.95	20.516666666666666		19620305	19661219	1	0	63	NMS	156	Cozumel									['38', '85', '106', '107']							L.Haimberger	0	0.4		1.4	uadb_windc_76648.txt
25	0-20000-0-40255	0	26	40230	3	IRBED			0	35.85	32.55		19760207	19930526	1	0	63	NMS	112	Irbid									['38', '85', '106', '107']							L.Haimberger	0	0.0		0.6	uadb_windc_40230.txt
26	0-20000-0-03023	0	27	3023	3	SOUTH UIST RANGE			0	-7.385000000000002	57.3575		20180118	20211201	1	0	63	NMS	76	Inverness									['38', '85', '106', '107']							L.Haimberger	0	1.2		189.0	uadb_windc_3023.txt
27	0-20000-0-63887	0	28	63887	3	IRINGA			0	35.75	-7.666666666666668		19691016	19900625	1	0	63	NMS	227	Iringa									['38', '85', '106', '107']							L.Haimberger	0	6.6		12.0	uadb_windc_63887.txt
28	0-20000-0-71842	0	29	71842	3	SIOUX LOOKOUT A, ONT			0	-91.9	50.11666666666667		19620304	19621012	1	0	63	NMS	37	Kenora									['38', '85', '106', '107']							L.Haimberger	0	1.9		188.0	uadb_windc_71842.txt
29	0-20000-0-78547	0	30	78547	3	CHRISTIANSTED/ALEX. HAMILTON FIELD,  ST. CROIX			0	-64.8	17.7		19620304	19680217	1	0	63	NMS	238	Fajardo									['38', '85', '106', '107']							L.Haimberger	0	0.0		113.9	uadb_windc_78547.txt
30	0-20000-0-42734	0	31	42734	3	JAMNAGAR			0	70.08333333333333	22.45		19691020	20030925	1	0	63	NMS	104	Jamnagar									['38', '85', '106', '107']							L.Haimberger	0	5.8		2.3	uadb_windc_42734.txt
31	0-20000-0-56287	0	32	56287	3	YA'AN			0	103.0	29.98333333333333		19560820	19580531	1	0	63	NMS	47	Yaan									['38', '85', '106', '107']							L.Haimberger	0	5.2		4.6	uadb_windc_56287.txt
32	0-20000-0-60611	0	33	60611	3	IN-AMENAS			0	9.633333333333333	28.05		19730123	19960210	1	0	63	NMS	61	Gat									['38', '85', '106', '107']							L.Haimberger	0	0.3		346.1	uadb_trhc_60611.txt
33	0-20000-0-54843	0	34	54843	3	WEIFANG			0	119.18333333333334	36.766666666666666		19600618	19610314	1	0	63	NMS	47	Weifang									['38', '85', '106', '107']							L.Haimberger	0	9.3		2.0	uadb_trhc_54843.txt
34	0-20300-0-72497	0	35	72497	3	CHICO MUNI			0	-121.85	39.7833		19691009	19720523	1	0	63	NMS	231	Chico									['38', '85', '106', '107']							L.Haimberger	0	1.9		8.0	uadb_windc_72497.txt
35	0-20000-0-41624	0	36	41624	3	DERA ISMAIL KHAN			0	70.91666666666667	31.816666666666666		19870408	20110105	1	0	63	NMS	177	Dera Ismail Khan									['38', '85', '106', '107']							L.Haimberger	0	0.5		2.2	uadb_trhc_41624.txt
36	0-20000-0-47762	0	37	47762	3	SHIMONOSEKI			0	130.92638888888888	33.948611111111106		19380103	19410127	1	0	63	NMS	113	Shimonoseki									['38', '85', '106', '107']							L.Haimberger	0	0.4		1.8	uadb_windc_47762.txt
37	0-20000-0-30603	0	38	30603	3	ZIMA			0	102.05	53.93333333333333		19620810	19640917	1	0	63	NMS	190	Zima									['38', '85', '106', '107']							L.Haimberger	0	5.0		3.4	uadb_windc_30603.txt
38	0-20000-0-76750	0	39	76750	3	CHETUMAL, Q.R.			0	-88.32777777777777	18.500555555555557		19620309	19671229	1	0	63	NMS	156	Chetumal									['38', '85', '106', '107']							L.Haimberger	0	2.9		0.0	uadb_windc_76750.txt
39	0-20000-0-91190	0	40	91190	3	KAHULUI AIRPORT, MAUI, HAWAII			0	-156.43333333333334	20.9		19680616	19911029	1	0	63	NMS	231	Kahului									['38', '85', '106', '107']							L.Haimberger	0	0.3		4.2	uadb_trhc_91190.txt
40	0-20000-0-12150	0	41	12150	3	GDANSK-REBIECHOWO			0	18.47	54.38083333333334		19670513	19890123	1	0	63	NMS	178	Gdansk									['38', '85', '106', '107']							L.Haimberger	0	0.1		4.3	uadb_windc_12150.txt
41	0-20000-0-91176	0	42	91176	3	KANEOHE BAY (MCAS),  OAHU, HAWAII			0	-157.76666666666668	21.45		19810724	20080709	1	0	63	NMS	231	Kaneohe									['38', '85', '106', '107']							L.Haimberger	0	0.3		5.0	uadb_windc_91176.txt
42	0-20000-0-71579	0	43	71843	3	WINNIPEG THE FORKS, MAN			0	-97.12944444444445	49.88833333333334		20180604	20210817	1	0	63	NMS	37	Winnipeg									['38', '85', '106', '107']							L.Haimberger	0	0.9		2.7	uadb_trhc_71843.txt
43	0-20000-0-41950	0	44	41932	3	BARISAL			0	90.36666666666666	22.75		19671114	19820121	1	0	63	NMS	19	Barisal									['38', '85', '106', '107']							L.Haimberger	0	3.3		0.3	uadb_windc_41932.txt
44	0-20000-0-72344	0	45	72344	3	FORT SMITH/MUN., AR.			0	-94.36666666666666	35.333333333333336		19630415	19640216	1	0	63	NMS	231	Fort Smith									['38', '85', '106', '107']							L.Haimberger	0	9.8		14.5	uadb_trhc_72344.txt
45	0-20000-0-67561	0	46	67561	3	NDOLA			0	28.65	-13.0		19700308	19851114	1	0	63	NMS	247	Ndola									['38', '85', '106', '107']							L.Haimberger	0	0.0		4.1	uadb_windc_67561.txt
46	0-20000-0-87374	0	47	87374	3	PARANA AERO			0	-60.48416666666667	-31.79027777777777		19460101	19571012	1	0	63	NMS	10	Parana									['38', '85', '106', '107']							L.Haimberger	0	1.2		6.8	uadb_windc_87374.txt
47	0-20500-0-94109	0	48	71885	3	CARMI			0	-119.08	49.5		19620312	19620910	1	0	63	NMS	37	Penticton									['38', '85', '106', '107']							L.Haimberger	0	5.8		42.3	uadb_windc_71885.txt
48	0-20600-0-87127	0	49	87127	3	Termas de Rio Hondo, Argentina			0	-64.88	-27.45		19850123	19971228	1	0	63	NMS	10	Santiago Del Estero									['38', '85', '106', '107']							L.Haimberger	0	0.0		72.0	uadb_windc_87127.txt
49	0-20000-0-94653	0	50	94653	3	CEDUNA AMO			0	133.6975	-32.12972222222222		20180101	20211227	1	0	63	NMS	13	Flinders									['38', '85', '106', '107']							L.Haimberger	0	0.2		88.4	uadb_windc_94653.txt
50	0-20000-0-47101	0	51	47101	3	CHUNCHEON			0	127.73583333333332	37.9025		20120906	20200117	1	0	63	NMS	121	Seoul									['38', '85', '106', '107']							L.Haimberger	0	0.5		75.0	uadb_windc_47101.txt
51	0-20000-0-63971	0	52	63971	3	MTWARA			0	40.18333333333333	-10.266666666666667		19570701	19941208	1	0	63	NMS	227	Mtwara									['38', '85', '106', '107']							L.Haimberger	0	7.2		0.5	uadb_windc_63971.txt
52	0-20000-0-95805	0	53	94805	3	CAPE BORDA			0	136.59583333333333	-35.755		19710616	19781102	1	0	63	NMS	13	Port Lincoln									['38', '85', '106', '107']							L.Haimberger	0	2.2		136.2	uadb_windc_94805.txt
53	0-20000-0-59358	0	54	46742	3	TAINAN			0	120.21666666666668	23.0		19610504	19640930	1	0	63	NMS	226	Tainan									['38', '85', '106', '107']							L.Haimberger	0	2.2		3.4	uadb_windc_46742.txt
54	0-20300-0-62056	0	55	62056	3	SHAHAT			0	21.883000000000003	32.8		19630808	19850604	1	0	63	NMS	135	Darnah									['38', '85', '106', '107']							L.Haimberger	0	3.8		74.2	uadb_windc_62056.txt
55	0-20300-0-56533	0	56	56533	3	LA WANG/TZUKEI			0	98.3833	27.6667		19590320	19611027	1	0	63	NMS	47	Tezu									['38', '85', '106', '107']							L.Haimberger	0	0.5		219.8	uadb_trhc_56533.txt
56	0-20000-0-38599	0	57	38599	3	KHUDJANT			0	69.73333333333333	40.21666666666667		19730205	19780207	1	0	63	NMS	217	Gafurov									['38', '85', '106', '107']							L.Haimberger	0	0.5		2.1	uadb_windc_38599.txt
57	0-20000-0-12560	0	58	12560	3	KATOWICE-MUCHOWEC			0	19.032777777777774	50.24055555555557		19670801	19710924	1	0	63	NMS	178	Katowice									['38', '85', '106', '107']							L.Haimberger	0	1.2		3.2	uadb_windc_12560.txt
58	0-20000-0-08190	0	59	8181	3	BARCELONA SERVEI			0	2.118055555555556	41.38444444444443		19680705	19720126	1	0	63	NMS	67	El Prat De Llobregat									['38', '85', '106', '107']							L.Haimberger	0	12.0		5.5	uadb_windc_8181.txt
59	0-20000-0-51379	0	60	51379	3	QITAI			0	89.56666666666666	44.01666666666666		19740812	19901104	1	0	63	NMS	47	Urumqi									['38', '85', '106', '107']							L.Haimberger	0	0.5		160.1	uadb_trhc_51379.txt
60	0-20000-0-63695	0	61	63695	3	MERU			0	37.65083333333333	0.05166666666666666		19790503	19951116	1	0	63	NMS	114	Meru									['38', '85', '106', '107']							L.Haimberger	0	3.1		3.3	uadb_windc_63695.txt
61	0-20000-0-71579	0	62	71843	3	WINNIPEG THE FORKS, MAN			0	-97.12944444444445	49.88833333333334		20180604	20210817	1	0	63	NMS	37	Winnipeg									['38', '85', '106', '107']							L.Haimberger	0	0.9		2.7	uadb_windc_71843.txt
62	0-20000-0-63533	0	63	63533	3	NEGHELLE			0	39.56666666666667	5.333333333333333		19940224	20081006	1	0	63	NMS	68	Shakiso									['38', '85', '106', '107']							L.Haimberger	0	21.2		106.0	uadb_trhc_63533.txt
63	0-20000-0-91212	0	64	91215	3	WEATHER FORECAST OFFICE, GUAM, MARIANA IS.			0	144.79444444444445	13.476666666666668		19490104	19501030	1	0	63	NMS	91	None									['38', '85', '106', '107']							L.Haimberger	0	5.5		None	uadb_windc_91215.txt
64	0-20000-0-40621	0	65	69792	3	KIRKUK			0	44.4	35.46666666666667		20060417	20080512	1	0	63	NMS	106	Kirkuk									['38', '85', '106', '107']							L.Haimberger	0	4.6		3.8	uadb_trhc_69792.txt
65	0-20000-0-48379	0	66	48379	3	PHETCHABUN			0	101.15166666666669	16.434722222222227		19670102	20130105	1	0	63	NMS	216	Phetchabun									['38', '85', '106', '107']							L.Haimberger	0	0.6		3.2	uadb_windc_48379.txt
66	0-20000-0-55472	0	67	55472	3	XAINZA			0	88.63333333333334	30.95		19770410	19911029	1	0	63	NMS	47	Lasa									['38', '85', '106', '107']							L.Haimberger	0	0.3		277.9	uadb_trhc_55472.txt
67	0-20300-0-04876	0	68	71916	3	CHESTERFIELD INLET			0	-90.7	63.5		19620303	19701216	1	0	63	NMS	37	None									['38', '85', '106', '107']							L.Haimberger	0	22.3		None	uadb_windc_71916.txt
68	0-20700-0-36428	0	69	36421	3	ULKEN NARYN              			0	84.0	49.0		19660603	19680430	1	0	63	NMS	124	Zyryanovsk									['38', '85', '106', '107']							L.Haimberger	0	22.2		63.1	uadb_windc_36421.txt
69	0-20000-0-82579	0	70	82579	3	TERESINA (AERO)			0	-42.81666666666667	-5.05		19710102	20010628	1	0	63	NMS	30	Teresina									['38', '85', '106', '107']							L.Haimberger	0	0.4		0.5	uadb_trhc_82579.txt
70	0-20000-0-60220	0	71	60220	3	ESSAOUIRA			0	-9.773333333333332	31.51		19681105	19700528	1	0	63	NMS	136	Asfi									['38', '85', '106', '107']							L.Haimberger	0	1.3		100.5	uadb_windc_60220.txt
71	0-20000-0-80425	0	72	80425	3	MENE GRANDE			0	-70.93333333333334	9.816666666666666		19700204	19850207	1	0	63	NMS	236	Bachaquero									['38', '85', '106', '107']							L.Haimberger	0	0.5		26.2	uadb_windc_80425.txt
72	0-20000-0-97530	0	73	97530	3	MANOKWARI/RENDANI			0	134.05055555555558	-0.8922222222222221		20180110	20211231	1	0	63	NMS	100	Manokwari									['38', '85', '106', '107']							L.Haimberger	0	1.4		4.0	uadb_windc_97530.txt
73	0-20000-0-47616	0	74	47616	3	FUKUI			0	136.2225	36.05555555555555		19380601	19410625	1	0	63	NMS	113	Maruoka									['38', '85', '106', '107']							L.Haimberger	0	0.9		11.6	uadb_windc_47616.txt
74	0-20000-0-60720	0	75	60720	3	KELIBIA			0	11.083333333333336	36.85		19820202	19921216	1	0	63	NMS	221	Manzil Tamim									['38', '85', '106', '107']							L.Haimberger	0	24.9		32.2	uadb_trhc_60720.txt
75	0-20000-0-07535	0	76	7535	3	GOURDON			0	1.3966666666666667	44.745		19700309	19720826	1	0	63	NMS	74	Cahors									['38', '85', '106', '107']							L.Haimberger	0	0.6		33.0	uadb_windc_7535.txt
76	0-20000-0-42416	0	77	42416	3	TEZPUR/BINDUKURI			0	92.8	26.716666666666665		19700114	19750707	1	0	63	NMS	104	Tezpur									['38', '85', '106', '107']							L.Haimberger	0	1.8		9.6	uadb_windc_42416.txt
77	0-20000-0-41529	0	78	41529	3	PESHAWAR			0	71.93333333333334	34.03333333333333		20141002	20141002	1	0	63	NMS	177	Amangarh									['38', '85', '106', '107']							L.Haimberger	0	0.5		2.7	uadb_trhc_41529.txt
78	0-20001-0-72403	0	79	72413	3	STERLING, VA.			0	-77.48583333333333	38.97666666666667		20190709	20211227	1	0	63	NMS	231	Herndon									['38', '85', '106', '107']							L.Haimberger	0	1.6		8.4	uadb_windc_72413.txt
79	0-20000-0-74545	0	80	74545	3	SMOKEY HILL GUNNERY RANGE, KS.			0	-97.8	38.65		19700211	19720830	1	0	63	NMS	231	Salina									['38', '85', '106', '107']							L.Haimberger	0	5.6		22.6	uadb_windc_74545.txt
80	0-20000-0-07354	0	81	7354	3	CHATEAUROUX DEOLS			0	1.7411111111111113	46.86972222222222		19620304	19640805	1	0	63	NMS	74	Chateauroux									['38', '85', '106', '107']							L.Haimberger	0	2.7		4.6	uadb_trhc_7354.txt
81	0-20000-0-17609	0	82	17609	3	LARNACA AIRPORT			0	33.617222222222225	34.87333333333333		19810701	20110105	1	0	63	NMS	53	Larnaca									['38', '85', '106', '107']							L.Haimberger	0	1.4		4.1	uadb_trhc_17609.txt
82	0-20000-0-53529	0	83	53529	3	OTOG QI			0	107.98333333333332	39.1		19710119	19870622	1	0	63	NMS	47	Wuda									['38', '85', '106', '107']							L.Haimberger	0	0.3		118.1	uadb_trhc_53529.txt
83	0-20000-0-78730	0	84	78730	3	PUERTO CABEZAS			0	-83.63333333333334	14.066666666666665		19750828	19970418	1	0	63	NMS	164	Puerto Cabezas									['38', '85', '106', '107']							L.Haimberger	0	25.5		1.8	uadb_trhc_78730.txt
84	0-20000-0-06081	0	85	6086	3	BLAAVANDSHUK FYR			0	8.082777777777778	55.5575		20120910	20210826	1	0	63	NMS	58	Varde									['38', '85', '106', '107']							L.Haimberger	0	10.8		15.3	uadb_trhc_6086.txt
85	0-20000-0-41506	0	86	41506	3	CHITRAL			0	71.83333333333333	35.85		19870513	20110105	1	0	63	NMS	177	Chitral									['38', '85', '106', '107']							L.Haimberger	0	0.3		4.0	uadb_trhc_41506.txt
86	0-20000-0-41943	0	87	41943	3	FENI (41943-0)			0	91.41666666666669	23.03333333333333		19890113	20110105	1	0	63	NMS	19	Feni									['38', '85', '106', '107']							L.Haimberger	0	0.5		1.6	uadb_trhc_41943.txt
87	0-20000-0-07618	0	88	7630	3	TOULOUSE RW			0	1.3744444444444446	43.57694444444446		19710427	19840803	1	0	63	NMS	74	Blagnac									['38', '85', '106', '107']							L.Haimberger	0	4.8		2.4	uadb_trhc_7630.txt
88	0-20000-0-51334	0	89	51334	3	JINGHE (51334-0)			0	82.81666666666666	44.56666666666667		19660720	20000912	1	0	63	NMS	47	Yining									['38', '85', '106', '107']							L.Haimberger	0	8.9		155.5	uadb_trhc_51334.txt
89	0-20500-0-41006	0	90	48910	3	VINH LONG			0	105.95	10.25		19710616	20010818	1	0	63	NMS	239	Vinh Long									['38', '85', '106', '107']							L.Haimberger	0	0.0		6.6	uadb_windc_48910.txt
90	0-20000-0-67072	0	91	67072	3	SAINTE-MARIE AERODROME			0	49.81666666666667	-17.083333333333332		19661203	20131024	1	0	63	NMS	141	Ambodifototra									['38', '85', '106', '107']							L.Haimberger	0	0.5		14.0	uadb_windc_67072.txt
91	0-20000-0-41466	0	92	41390	3	TAIZ			0	44.13333333333333	13.683333333333335		19830729	19840718	1	0	63	NMS	243	Ibb									['38', '85', '106', '107']							L.Haimberger	0	0.5		32.2	uadb_trhc_41390.txt
92	0-20600-0-30954	0	93	30954	3	Duldurga, Russia			0	113.58	50.68		19740924	20010807	1	0	63	NMS	190	Aginskoye									['38', '85', '106', '107']							L.Haimberger	0	0.0		81.7	uadb_trhc_30954.txt
93	0-20000-0-72344	0	94	72344	3	FORT SMITH/MUN., AR.			0	-94.36666666666666	35.333333333333336		19630415	19640216	1	0	63	NMS	231	Fort Smith									['38', '85', '106', '107']							L.Haimberger	0	9.8		14.5	uadb_windc_72344.txt
94	0-20000-0-62641	0	95	62641	3	PORT SUDAN			0	37.21666666666667	19.58333333333333		19660312	20030101	1	0	63	NMS	195	Sawakin									['38', '85', '106', '107']							L.Haimberger	0	0.5		54.2	uadb_trhc_62641.txt
95	0-20000-0-91348	0	96	91347	3	WEATHER SERVICE OFFICE, POHNPEI, CAROLINE IS.			0	158.20666666666662	6.961944444444446		19900902	19930723	1	0	63	NMS	72	None									['38', '85', '106', '107']							L.Haimberger	0	1.7		None	uadb_trhc_91347.txt
96	0-20000-0-62752	0	97	62752	3	GEDAREF			0	35.4	14.033333333333333		19691018	19750605	1	0	63	NMS	195	Doka									['38', '85', '106', '107']							L.Haimberger	0	0.4		69.3	uadb_windc_62752.txt
97	0-20600-0-88925	0	98	88925	3	Signy Island (operated by UK)			0	-45.6	-60.72		19530109	19620830	1	0	63	NMS	89	None									['38', '85', '106', '107']							L.Haimberger	0	0.0		None	uadb_windc_88925.txt
98	0-20000-0-91232	0	99	91232	3	SAIPAN (CG), MARIANA IS.			0	145.73333333333332	15.116666666666667		19670212	19920329	1	0	63	NMS	148	None									['38', '85', '106', '107']							L.Haimberger	0	3.9		None	uadb_trhc_91233.txt
99	0-20300-0-48849	0	100	48849	3	DONG HA			0	107.0833	16.8167		19660301	19680223	1	0	63	NMS	239	Hue									['38', '85', '106', '107']							L.Haimberger	0	0.5		64.9	uadb_windc_48849.txt
100	0-20000-0-65467	0	101	65467	3	TAKORADI			0	-1.7666666666666666	4.883333333333333		19660527	20000913	1	0	63	NMS	81	Takoradi									['38', '85', '106', '107']							L.Haimberger	0	0.5		5.8	uadb_windc_65467.txt
101	0-20000-0-28552	0	102	28552	3	SADRINSK			0	63.65	56.06666666666667		19730515	20020708	1	0	63	NMS	190	Shadrinsk									['38', '85', '106', '107']							L.Haimberger	0	1.9		2.8	uadb_windc_28552.txt
102	0-20000-0-47648	0	103	47648	3	CHOSHI			0	140.85722222222222	35.73972222222222		19350107	19441028	1	0	63	NMS	113	Choshi									['38', '85', '106', '107']							L.Haimberger	0	2.3		2.1	uadb_windc_47648.txt
103	0-20000-0-47938	0	104	47938	3	IEJIMA (US BASE)			0	127.78333333333332	26.716666666666665		19680101	20000223	1	0	63	NMS	113	Nago									['38', '85', '106', '107']							L.Haimberger	0	0.5		24.4	uadb_trhc_47938.txt
104	0-20000-0-60620	0	105	60620	3	ADRAR			0	-0.18333333333333326	27.816666666666666		19680202	20000629	1	0	63	NMS	61	Adrar									['38', '85', '106', '107']							L.Haimberger	0	11.8		2.2	uadb_trhc_60620.txt
105	0-20000-0-40621	0	106	69792	3	KIRKUK			0	44.4	35.46666666666667		20060417	20080512	1	0	63	NMS	106	Kirkuk									['38', '85', '106', '107']							L.Haimberger	0	4.6		3.8	uadb_windc_69792.txt
106	0-20000-0-70086	0	107	71086	3	BARTER ISLAND			0	-143.63333333333333	70.13333333333334		19620304	19640630	1	0	63	NMS	231	None									['38', '85', '106', '107']							L.Haimberger	0	4.5		None	uadb_windc_71086.txt
107	0-20000-0-63654	0	108	63654	3	MASINDI			0	31.716666666666665	1.6833333333333331		19631002	19780121	1	0	63	NMS	229	Masindi									['38', '85', '106', '107']							L.Haimberger	0	0.5		0.8	uadb_windc_63654.txt
108	0-20000-0-15260	0	109	15260	3	SIBIU			0	24.09138888888889	45.789444444444435		19730323	19910331	1	0	63	NMS	188	Sibiu									['38', '85', '106', '107']							L.Haimberger	0	4.7		0.0	uadb_windc_15260.txt
109	0-20000-0-16459	0	110	16460	3	CATANIA SIGONELLA			0	14.91861111111111	37.40555555555555		19620303	19670618	1	0	63	NMS	109	Catania									['38', '85', '106', '107']							L.Haimberger	0	7.2		11.1	uadb_windc_16460.txt
110	0-20000-0-82280	0	111	82276	3	SAO LUIZ			0	-44.3	-2.533333333333333		19990907	20021221	1	0	63	NMS	30	Sao Luis									['38', '85', '106', '107']							L.Haimberger	0	27.1		27.6	uadb_windc_82276.txt
111	0-20000-0-94693	0	112	94693	3	MILDURA AIRPORT			0	142.08666666666667	-34.23583333333333		19780728	19911029	1	0	63	NMS	13	Mildura									['38', '85', '106', '107']							L.Haimberger	0	0.9		9.1	uadb_trhc_94693.txt
112	0-20000-0-96009	0	113	96009	3	LHOKSEUMAWE/MALIKUSSALEH			0	96.9475	5.228611111111111		19831108	20110105	1	0	63	NMS	100	Lhokseumawe									['38', '85', '106', '107']							L.Haimberger	0	27.0		7.8	uadb_trhc_96009.txt
113	0-20000-0-37004	0	114	37004	3	GELENDZHIK			0	38.083333333333336	44.56666666666667		19770422	20021231	1	0	63	NMS	190	Gelendzhik									['38', '85', '106', '107']							L.Haimberger	0	0.5		0.9	uadb_trhc_37004.txt
114	0-20000-0-58715	0	115	58715	3	NANCHENG			0	116.65	27.58333333333333		19580901	20010405	1	0	63	NMS	47	Linchuan									['38', '85', '106', '107']							L.Haimberger	0	6.2		52.6	uadb_windc_58715.txt
115	0-20000-0-71946	0	116	71946	3	FORT SIMPSON A, NWT			0	-121.23666666666666	61.76027777777777		19620305	19620915	1	0	63	NMS	37	None									['38', '85', '106', '107']							L.Haimberger	0	5.5		None	uadb_windc_71946.txt
116	0-20000-0-38328	0	117	38328	3	SHYMKENT			0	69.71000000000001	42.34777777777778		19660610	19680429	1	0	63	NMS	124	Shymkent									['38', '85', '106', '107']							L.Haimberger	0	10.5		0.0	uadb_windc_38328.txt
117	0-20000-0-47407	0	118	47407	3	ASAHIKAWA			0	142.37222222222226	43.756944444444436		19220710	19410721	1	0	63	NMS	113	Asahikawa									['38', '85', '106', '107']							L.Haimberger	0	1.5		0.2	uadb_windc_47407.txt
118	0-20000-0-10637	0	119	10639	3	FRANKFURT/MAIN			0	8.52138888888889	50.02583333333333		19720804	19731025	1	0	63	NMS	56	Darmstadt									['38', '85', '106', '107']							L.Haimberger	0	19.6		0.1	uadb_trhc_10639.txt
119	0-20000-0-71803	0	120	72803	3	GANDER INT'L A, NFLD			0	-54.57694444444446	48.94638888888888		19730101	19760304	1	0	63	NMS	37	Bay Roberts									['38', '85', '106', '107']							L.Haimberger	0	6.2		178.8	uadb_windc_72803.txt
120	0-20000-0-97300	0	121	97300	3	MAUMERE/WAI OTI			0	122.2375	-8.635833333333332		19810826	20110104	1	0	63	NMS	100	Maumere									['38', '85', '106', '107']							L.Haimberger	0	15.0		4.4	uadb_trhc_97300.txt
121	0-20000-0-06490	0	122	6490	3	SPA/LA SAUVENIERE			0	5.91	50.478611111111114		19510101	19560630	1	0	63	NMS	20	Spa									['38', '85', '106', '107']							L.Haimberger	0	1.2		5.0	uadb_windc_6490.txt
122	0-20000-0-67002	0	123	67002	3	HAHAYA INT. AIRPORT			0	43.26666666666666	-11.533333333333333		20180226	20210505	1	0	63	NMS	118	Moroni									['38', '85', '106', '107']							L.Haimberger	0	0.5		19.5	uadb_windc_67002.txt
123	0-20000-0-67217	0	124	67217	3	LICHINGA			0	35.23333333333333	-13.3		19670504	19820902	1	0	63	NMS	158	Lichinga									['38', '85', '106', '107']							L.Haimberger	0	7.2		3.8	uadb_windc_67217.txt
124	0-20000-0-16687	0	125	16689	3	ARAXOS (AIRPORT)			0	21.422222222222224	38.149166666666666		19491001	19530221	1	0	63	NMS	88	Patrai									['38', '85', '106', '107']							L.Haimberger	0	29.2		0.7	uadb_windc_16689.txt
125	0-20000-0-70222	0	126	70222	3	GALENA A.			0	-156.93333333333334	64.73333333333333		19620311	19790718	1	0	63	NMS	231	None									['38', '85', '106', '107']							L.Haimberger	0	0.4		None	uadb_trhc_70222.txt
126	0-20000-0-03377	0	127	3377	3	WADDINGTON			0	-0.5233333333333334	53.17527777777778		20020111	20060214	1	0	63	NMS	76	Lincoln									['38', '85', '106', '107']							L.Haimberger	0	0.6		7.1	uadb_windc_3377.txt
127	0-20000-0-71199	0	128	72953	3	WATSON LAKE (AUT), YT			0	-128.82194444444445	60.117777777777775		19730103	19760801	1	0	63	NMS	37	None									['38', '85', '106', '107']							L.Haimberger	0	2.3		None	uadb_windc_72953.txt
128	0-20000-0-91356	0	129	91356	3	KOSRAE AIRPORT VICE LELU, KOSRAE ATOLL, CAROLINE IS.			0	163.03333333333333	5.333333333333333		19510308	19540331	1	0	63	NMS	72	None									['38', '85', '106', '107']							L.Haimberger	0	5.2		None	uadb_windc_91356.txt
129	0-20000-0-22768	0	130	22768	3	SHENKURSK			0	42.9	62.1		19530216	19541231	1	0	63	NMS	190	Mirnyy									['38', '85', '106', '107']							L.Haimberger	0	0.0		121.6	uadb_windc_22768.txt
130	0-20000-0-91212	0	131	91215	3	WEATHER FORECAST OFFICE, GUAM, MARIANA IS.			0	144.79444444444445	13.476666666666668		19490104	19501030	1	0	63	NMS	91	None									['38', '85', '106', '107']							L.Haimberger	0	5.5		None	uadb_trhc_91215.txt
131	0-20000-0-60725	0	132	60725	3	JENDOUBA			0	8.8	36.48333333333333		19700205	20000310	1	0	63	NMS	221	Jundubah									['38', '85', '106', '107']							L.Haimberger	0	0.4		2.9	uadb_trhc_60725.txt
132	0-20000-0-71851	0	133	71851	3	PORTAGE SOUTHPORT, MAN			0	-98.28388888888887	49.90305555555555		19980304	20030911	1	0	63	NMS	37	Winnipeg									['38', '85', '106', '107']							L.Haimberger	0	1.1		79.3	uadb_windc_71851.txt
133	0-20000-0-60566	0	134	60566	3	GHARDAIA			0	3.8	32.4		19751028	19911029	1	0	63	NMS	61	Warqla									['38', '85', '106', '107']							L.Haimberger	0	2.9		149.7	uadb_trhc_60566.txt
134	0-20000-0-96749	0	135	96739	3	JAKARTA/SOEKARNO-HATTA			0	106.65472222222223	-6.122222222222222		19790102	20101229	1	0	63	NMS	100	Curug									['38', '85', '106', '107']							L.Haimberger	0	11.9		4.5	uadb_trhc_96739.txt
135	0-20300-0-46736	0	136	46736	3	CHINMEM/SHATOU(AFB)			0	118.43299999999999	24.433000000000003		19720923	19911027	1	0	63	NMS	226	Xiamen									['38', '85', '106', '107']							L.Haimberger	0	0.5		35.7	uadb_trhc_46736.txt
136	0-20000-0-96221	0	137	96221	3	PALEMBANG/ST. M. BADARUDIN II			0	104.7	-2.9		19760705	20110103	1	0	63	NMS	100	Palembang									['38', '85', '106', '107']							L.Haimberger	0	0.0		5.9	uadb_trhc_96221.txt
137	0-20000-0-42105	0	138	42105	3	CHANDIGARH			0	76.88333333333334	30.73333333333333		20160101	20190607	1	0	63	NMS	104	Chandigarh									['38', '85', '106', '107']							L.Haimberger	0	0.5		8.3	uadb_windc_42105.txt
138	0-20000-0-72578	0	139	72578	3	POCATELLO/MUN., ID.			0	-112.6	42.91666666666666		19620304	19680126	1	0	63	NMS	231	Chubbuck									['38', '85', '106', '107']							L.Haimberger	0	0.4		11.0	uadb_windc_72578.txt
139	0-20000-0-27595	0	140	27596	3	KAZAN' (27595-0)			0	49.204444444444455	55.74		19490103	19560131	1	0	63	NMS	190	Kazan									['38', '85', '106', '107']							L.Haimberger	0	4.7		3.8	uadb_trhc_27596.txt
140	0-20000-0-82784	0	141	82784	3	BARBALHA (82784-0)			0	-39.3	-7.316666666666666		19760124	19791204	1	0	63	NMS	30	Barbalha									['38', '85', '106', '107']							L.Haimberger	0	0.4		1.9	uadb_windc_82784.txt
141	0-20000-0-63866	0	142	63866	3	MOROGORO			0	37.65	-6.833333333333332		19730814	19960925	1	0	63	NMS	227	Morogoro									['38', '85', '106', '107']							L.Haimberger	0	0.4		2.4	uadb_windc_63866.txt
142	0-20000-0-63789	0	143	63789	3	ARUSHA			0	36.62583333333333	-3.3675		19610211	19720927	1	0	63	NMS	227	Arusha									['38', '85', '106', '107']							L.Haimberger	0	4.2		8.1	uadb_windc_63789.txt
143	0-20000-0-41715	0	144	41715	3	JACOBABAD			0	68.46666666666667	28.3		19770624	20110105	1	0	63	NMS	177	Jacobabad									['38', '85', '106', '107']							L.Haimberger	0	0.3		3.7	uadb_trhc_41715.txt
144	0-20000-0-59358	0	145	46743	3	TAINAN			0	120.21666666666668	23.0		19870207	19981026	1	0	63	NMS	226	Tainan									['38', '85', '106', '107']							L.Haimberger	0	5.8		4.8	uadb_trhc_46743.txt
145	0-20000-0-87257	0	146	87257	3	CERES AERO			0	-61.93611111111111	-29.875555555555557		19541119	19720531	1	0	63	NMS	10	Rafaela									['38', '85', '106', '107']							L.Haimberger	0	1.4		158.3	uadb_windc_87257.txt
146	0-20000-0-78948	0	147	78949	3	HEWANORRA INT'L AIRPORT			0	-60.95	13.75		19561001	19570131	1	0	63	NMS	127	Castries									['38', '85', '106', '107']							L.Haimberger	0	3.2		27.7	uadb_windc_78949.txt
147	0-20300-0-67019	0	148	67019	3	ANALALAVA			0	47.766999999999996	-14.633		19660510	20000421	1	0	63	NMS	141	Antsohihy									['38', '85', '106', '107']							L.Haimberger	0	0.5		35.6	uadb_windc_67019.txt
148	0-20000-0-08330	0	149	8330	3	BADAJOZ/TALAVERA LA REAL			0	-6.813888888888888	38.88333333333333		19680103	19771103	1	0	63	NMS	67	Badajoz									['38', '85', '106', '107']							L.Haimberger	0	0.6		13.1	uadb_windc_8330.txt
149	0-20000-0-60135	0	150	60135	3	RABAT-SALE			0	-6.758055555555557	34.04611111111111		19661101	19691219	1	0	63	NMS	136	Rabat									['38', '85', '106', '107']							L.Haimberger	0	1.2		7.9	uadb_trhc_60135.txt
150	0-20300-0-60535	0	151	60535	3	DJELFA			0	3.25	34.6833		19810521	19870621	1	0	63	NMS	61	Birin									['38', '85', '106', '107']							L.Haimberger	0	0.4		106.0	uadb_trhc_60535.txt
151	0-20000-0-12772	0	152	12772	3	MISKOLC			0	20.726666666666667	48.094722222222224		19730325	19820429	1	0	63	NMS	99	Miskolc									['38', '85', '106', '107']							L.Haimberger	0	6.7		3.6	uadb_windc_12772.txt
152	0-20000-0-87436	0	153	87436	3	SAN LUIS AERO			0	-66.35138888888888	-33.27444444444444		19570806	19720422	1	0	63	NMS	10	San Luis									['38', '85', '106', '107']							L.Haimberger	0	0.5		3.1	uadb_windc_87436.txt
153	0-20000-0-72306	0	154	72306	3	RALEIGH/RALEIGH-DURHAM, NC.			0	-78.78333333333333	35.86666666666667		19630904	19741214	1	0	63	NMS	231	Cary									['38', '85', '106', '107']							L.Haimberger	0	0.5		8.7	uadb_trhc_72306.txt
154	0-20000-0-54539	0	155	54539	3	LETING			0	118.9	39.43333333333333		19710223	19980222	1	0	63	NMS	47	Changli									['38', '85', '106', '107']							L.Haimberger	0	1.5		38.2	uadb_trhc_54539.txt
155	0-20000-0-54423	0	156	54423	3	CHENGDE			0	117.91666666666669	40.96666666666667		19641007	19881022	1	0	63	NMS	47	Chengde									['38', '85', '106', '107']							L.Haimberger	0	7.3		36.2	uadb_trhc_54423.txt
156	0-20000-0-65082	0	157	65082	3	MAIDUGURI			0	13.083333333333336	11.85		20130318	20130318	1	0	63	NMS	163	Maiduguri									['38', '85', '106', '107']							L.Haimberger	0	0.4		8.8	uadb_trhc_65082.txt
157	0-20300-0-63641	0	158	63641	3	MARSABIT			0	37.983000000000004	2.333		19680201	20060828	1	0	63	NMS	114	Marsabit									['38', '85', '106', '107']							L.Haimberger	0	9.9		10.0	uadb_trhc_63641.txt
158	0-20300-0-63641	0	159	63641	3	MARSABIT			0	37.983000000000004	2.333		19680201	20060828	1	0	63	NMS	114	Marsabit									['38', '85', '106', '107']							L.Haimberger	0	9.9		10.0	uadb_windc_63641.txt
159	0-20000-0-47140	0	160	47141	3	GUNSAN			0	126.76138888888887	36.005277777777785		19620304	19900423	1	0	63	NMS	121	Seoul									['38', '85', '106', '107']							L.Haimberger	0	15.9		189.0	uadb_windc_47141.txt
160	0-20000-0-43497	0	161	43497	3	HAMBANTOTA			0	81.13333333333334	6.116666666666666		19780614	20110105	1	0	63	NMS	129	Hambantota									['38', '85', '106', '107']							L.Haimberger	0	0.5		1.5	uadb_trhc_43497.txt
161	0-20000-0-63962	0	162	63962	3	SONGEA			0	35.583333333333336	-10.683333333333334		19570701	19860830	1	0	63	NMS	227	Songea									['38', '85', '106', '107']							L.Haimberger	0	0.5		7.7	uadb_windc_63962.txt
162	0-20000-0-41749	0	163	41749	3	NAWABSHAH			0	68.36666666666666	26.25		19870328	20110105	1	0	63	NMS	177	Nawabshah									['38', '85', '106', '107']							L.Haimberger	0	0.3		4.0	uadb_trhc_41749.txt
163	0-20000-0-43295	0	164	43296	3	BANGALORE			0	77.58333333333333	12.966666666666667		19540720	19680227	1	0	63	NMS	104	Bangalore									['38', '85', '106', '107']							L.Haimberger	0	5.4		6.3	uadb_windc_43296.txt
164	0-20000-0-28900	0	165	28901	3	SAMARA (OGMS)			0	50.21666666666667	53.25		19490102	19560130	1	0	63	NMS	190	Samara									['38', '85', '106', '107']							L.Haimberger	0	3.8		6.2	uadb_trhc_28901.txt
165	0-20000-0-91356	0	166	91356	3	KOSRAE AIRPORT VICE LELU, KOSRAE ATOLL, CAROLINE IS.			0	163.03333333333333	5.333333333333333		19510308	19540331	1	0	63	NMS	72	None									['38', '85', '106', '107']							L.Haimberger	0	5.2		None	uadb_trhc_91356.txt
166	0-20000-0-48078	0	167	48078	3	TOUNGOO			0	96.46666666666668	18.916666666666668		19700212	19980928	1	0	63	NMS	145	Toungoo									['38', '85', '106', '107']							L.Haimberger	0	0.5		4.1	uadb_windc_48078.txt
167	0-20000-0-48877	0	168	48877	3	NHA TRANG			0	109.21666666666668	12.216666666666667		19680510	20110102	1	0	63	NMS	239	Nha Trang									['38', '85', '106', '107']							L.Haimberger	0	4.1		1.8	uadb_trhc_48877.txt
168	0-20000-0-67489	0	169	67489	3	MZUZU			0	34.016666666666666	-11.45		19740623	20020813	1	0	63	NMS	155	Nkhata Bay									['38', '85', '106', '107']							L.Haimberger	0	0.4		34.8	uadb_windc_67489.txt
169	0-20000-0-78948	0	170	78949	3	HEWANORRA INT'L AIRPORT			0	-60.95	13.75		19561001	19570131	1	0	63	NMS	127	Castries									['38', '85', '106', '107']							L.Haimberger	0	3.2		27.7	uadb_trhc_78949.txt
170	0-20000-0-38001	0	171	38001	3	FORT SHEVCHENKO			0	50.243055555555564	44.548055555555564		19530219	19860309	1	0	63	NMS	124	Aktau									['38', '85', '106', '107']							L.Haimberger	0	5.6		125.6	uadb_windc_38001.txt
171	0-20300-0-96947	0	172	96947	3	MALANG/ABDUL (AFB)			0	112.7	-7.9670000000000005		19730127	19951006	1	0	63	NMS	100	Malang									['38', '85', '106', '107']							L.Haimberger	0	3.6		7.7	uadb_windc_96947.txt
172	0-20000-0-78700	0	173	78700	3	AMAPALA			0	-87.65	13.266666666666667		19570705	19581111	1	0	63	NMS	96	San Lorenzo									['38', '85', '106', '107']							L.Haimberger	0	14.2		17.8	uadb_windc_78700.txt
173	0-20000-0-42435	0	174	42435	3	BARMER			0	71.38333333333334	25.75		20180101	20211231	1	0	63	NMS	104	Barmer									['38', '85', '106', '107']							L.Haimberger	0	0.3		0.3	uadb_windc_42435.txt
174	0-20000-0-27459	0	175	27467	3	NIZHNIJ NOVGOROD			0	44.0	56.26666666666666		19500514	19530215	1	0	63	NMS	190	Nizhniy Novgorod									['38', '85', '106', '107']							L.Haimberger	0	0.4		6.4	uadb_windc_27467.txt
175	0-20000-0-54027	0	176	54027	3	LINDONG			0	119.31666666666666	43.95		19800731	19870622	1	0	63	NMS	47	Chifeng									['38', '85', '106', '107']							L.Haimberger	0	7.5		193.4	uadb_trhc_54027.txt
176	0-20300-0-96075	0	177	96075	3	GUNUNG SITOLI/BINAKA			0	97.6	1.2667		19911007	20110104	1	0	63	NMS	100	Sibolga									['38', '85', '106', '107']							L.Haimberger	0	26.0		130.7	uadb_trhc_96075.txt
177	0-20000-0-42675	0	178	42675	3	JABALPUR			0	79.95	23.2		20190731	20200914	1	0	63	NMS	104	Jabalpur									['38', '85', '106', '107']							L.Haimberger	0	3.3		0.4	uadb_trhc_42675.txt
178	0-20000-0-60559	0	179	60559	3	EL-OUED			0	6.783333333333332	33.5		19740622	19911228	1	0	63	NMS	61	Tuggurt									['38', '85', '106', '107']							L.Haimberger	0	0.3		79.9	uadb_trhc_60559.txt
179	0-20000-0-97876	0	180	97876	3	TANAH MERAH			0	140.3	-6.1		20180104	20211227	1	0	63	NMS	100	Kiunga									['38', '85', '106', '107']							L.Haimberger	0	0.0		110.7	uadb_windc_97876.txt
180	0-20000-0-60740	0	181	60740	3	MONASTIR-SKANES			0	10.75	35.666666666666664		19710224	19971230	1	0	63	NMS	221	Susah									['38', '85', '106', '107']							L.Haimberger	0	0.4		13.2	uadb_trhc_60740.txt
181	0-20000-0-48940	0	182	48940	3	VIENTIANE			0	102.56666666666666	17.95		19680714	19870614	1	0	63	NMS	216	Si Chiang Mai									['38', '85', '106', '107']							L.Haimberger	0	6.6		3.2	uadb_trhc_48940.txt
182	0-20000-0-78637	0	183	78637	3	PUERTO BARRIOS			0	-88.6	15.716666666666667		19760123	19790311	1	0	63	NMS	90	Puerto Barrios									['38', '85', '106', '107']							L.Haimberger	0	0.4		0.4	uadb_windc_78637.txt
183	0-20000-0-43295	0	184	43296	3	BANGALORE			0	77.58333333333333	12.966666666666667		19610310	19680228	1	0	63	NMS	104	Bangalore									['38', '85', '106', '107']							L.Haimberger	0	5.4		6.3	uadb_trhc_43296.txt
184	0-20000-0-17248	0	185	17248	3	EREGLI/KONYA			0	34.048611111111114	37.52555555555556		19750710	20030509	1	0	63	NMS	223	Eregli									['38', '85', '106', '107']							L.Haimberger	0	3.4		2.4	uadb_windc_17248.txt
185	0-20000-0-41416	0	186	40588	3	KAMARAN			0	42.583333333333336	15.366666666666667		19490217	19541112	1	0	63	NMS	243	Bajil									['38', '85', '106', '107']							L.Haimberger	0	5.7		77.0	uadb_windc_40588.txt
186	0-20000-0-91929	0	187	91930	3	BORA-BORA-MOTU-AERO			0	-151.75194444444443	-16.44527777777778		19680417	19911029	1	0	63	NMS	174	Faaa									['38', '85', '106', '107']							L.Haimberger	0	3.8		257.7	uadb_trhc_91930.txt
187	0-20300-0-W5331	0	188	65333	3	TCHAOUROU			0	2.6	8.8667		19640109	19641228	1	0	63	NMS	25	Tchaourou									['38', '85', '106', '107']							L.Haimberger	0	7.4		9.2	uadb_windc_65333.txt
188	0-20000-0-41718	0	189	41718	3	KHANPUR			0	70.68333333333334	28.65		20180718	20211231	1	0	63	NMS	177	Khanpur									['38', '85', '106', '107']							L.Haimberger	0	0.3		2.3	uadb_windc_41718.txt
189	0-20000-0-06700	0	190	6700	3	GENEVE / COINTRIN			0	6.127777777777778	46.2475		19520301	19610828	1	0	63	NMS	42	Vernier									['38', '85', '106', '107']							L.Haimberger	0	2.9		1.8	uadb_windc_6700.txt
190	0-20000-0-67475	0	191	67475	3	KASAMA			0	31.13333333333333	-10.216666666666667		19710505	19911028	1	0	63	NMS	247	Kasama									['38', '85', '106', '107']							L.Haimberger	0	0.5		7.7	uadb_trhc_67475.txt
191	0-20000-0-07072	0	192	7070	3	REIMS-PRUNAY			0	4.155277777777778	49.209722222222226		19680407	19720911	1	0	63	NMS	74	Reims									['38', '85', '106', '107']							L.Haimberger	0	13.6		5.6	uadb_windc_7070.txt
192	0-20000-0-83096	0	193	83096	3	ARACAJU (83096-0)			0	-37.05	-10.916666666666664		19730817	19791228	1	0	63	NMS	30	Aracaju									['38', '85', '106', '107']							L.Haimberger	0	0.4		1.9	uadb_windc_83096.txt
193	0-20000-0-72387	0	194	74614	3	MERCURY/DESERT ROCK, NV.			0	-116.01666666666668	36.61666666666667		19661025	19710426	1	0	63	NMS	231	Pahrump									['38', '85', '106', '107']							L.Haimberger	0	16.6		33.2	uadb_windc_74614.txt
194	0-20000-0-12942	0	195	12942	3	PÉCS/POGÁNY			0	18.235	45.995		19691016	19820429	1	0	63	NMS	99	Pecs									['38', '85', '106', '107']							L.Haimberger	0	2.8		8.4	uadb_windc_12942.txt
195	0-20000-0-72409	0	196	72409	3	LAKEHURST/NAS, NJ.			0	-74.31666666666666	40.03333333333333		19620303	19690131	1	0	63	NMS	231	Lakewood									['38', '85', '106', '107']							L.Haimberger	0	0.7		10.9	uadb_windc_72409.txt
196	0-20000-0-97086	0	197	97086	3	LUWUK/BUBUNG			0	122.77111111111113	-1.0413888888888891		20180101	20211229	1	0	63	NMS	100	Luwuk									['38', '85', '106', '107']							L.Haimberger	0	15.7		5.8	uadb_windc_97086.txt
197	0-20000-0-28552	0	198	28552	3	SADRINSK			0	63.65	56.06666666666667		19730502	20020708	1	0	63	NMS	190	Shadrinsk									['38', '85', '106', '107']							L.Haimberger	0	1.9		2.8	uadb_trhc_28552.txt
198	0-20000-0-48620	0	199	48620	3	SITIAWAN			0	100.7	4.216666666666667		19730221	20110105	1	0	63	NMS	157	Lumut									['38', '85', '106', '107']							L.Haimberger	0	0.4		7.9	uadb_trhc_48620.txt
199	0-20400-0-5976	0	200	85295	3	Uyuni			0	-66.83	-20.47		20020705	20031227	1	0	63	NMS	29	Uyuni									['38', '85', '106', '107']							L.Haimberger	0	1.1		0.8	uadb_windc_85295.txt
200	0-20000-0-06081	0	201	6086	3	BLAAVANDSHUK FYR			0	8.082777777777778	55.5575		20120910	20210826	1	0	63	NMS	58	Varde									['38', '85', '106', '107']							L.Haimberger	0	10.8		15.3	uadb_windc_6086.txt
201	0-20000-0-91831	0	202	91830	3	AITUTAKI AWS			0	-159.76666666666668	-18.83333333333333		19710619	19911029	1	0	63	NMS	44	Avarua									['38', '85', '106', '107']							L.Haimberger	0	0.5		263.2	uadb_trhc_91830.txt
202	0-20000-0-51716	0	203	51716	3	BACHU			0	78.56666666666666	39.8		19740409	19870622	1	0	63	NMS	47	Shache									['38', '85', '106', '107']							L.Haimberger	0	0.3		191.8	uadb_trhc_51716.txt
203	0-20300-0-56533	0	204	56533	3	LA WANG/TZUKEI			0	98.3833	27.6667		19590307	19611026	1	0	63	NMS	47	Tezu									['38', '85', '106', '107']							L.Haimberger	0	0.5		219.8	uadb_windc_56533.txt
204	0-20000-0-62650	0	205	62650	3	DONGOLA			0	30.48333333333333	19.166666666666668		19691018	20090517	1	0	63	NMS	195	Marawi									['38', '85', '106', '107']							L.Haimberger	0	3.8		160.1	uadb_windc_62650.txt
205	0-20000-0-91492	0	206	91492	3	CHRISTMAS ISLAND (91492-0)			0	-157.4	2.0		19870325	19911029	1	0	63	NMS	117	None									['38', '85', '106', '107']							L.Haimberger	0	0.0		None	uadb_trhc_91492.txt
206	0-404-300-472781389CO63741	0	207	63742	3	DAGORETTI CORNER			0	36.759722222222216	-1.3013888888888892		19610313	19630923	1	0	63	NMS	114	Nairobi									['38', '85', '106', '107']							L.Haimberger	0	7.0		4.1	uadb_windc_63742.txt
207	0-20000-0-47688	0	208	47673	3	TATEYAMA AB			0	139.83194444444445	34.987500000000004		19341231	19410815	1	0	63	NMS	113	Tateyama									['38', '85', '106', '107']							L.Haimberger	0	7.5		7.8	uadb_windc_47673.txt
208	0-20300-0-70489	0	209	70489	3	DUTCH HARBOR			0	-166.53	53.9		19510202	19540331	1	0	63	NMS	231	None									['38', '85', '106', '107']							L.Haimberger	0	0.0		None	uadb_trhc_70489.txt
209	0-20000-0-54715	0	210	54714	3	LINGXIAN			0	116.56666666666666	37.333333333333336		19591004	19610311	1	0	63	NMS	47	Dezhou									['38', '85', '106', '107']							L.Haimberger	0	23.8		7.7	uadb_windc_54714.txt
210	0-20000-0-51811	0	211	51811	3	SHACHE			0	77.26666666666667	38.43333333333333		19730623	19930923	1	0	63	NMS	47	Shache									['38', '85', '106', '107']							L.Haimberger	0	0.5		0.9	uadb_trhc_51811.txt
211	0-20000-0-54909	0	212	54906	3	DINGTAO			0	115.51666666666668	35.083333333333336		19710509	19870621	1	0	63	NMS	47	Heze									['38', '85', '106', '107']							L.Haimberger	0	20.1		1.3	uadb_trhc_54906.txt
212	0-20000-0-37735	0	213	37735	3	GANDJA			0	46.41666666666666	40.71666666666667		19670113	19911013	1	0	63	NMS	16	Xanlar									['38', '85', '106', '107']							L.Haimberger	0	0.5		15.2	uadb_windc_37735.txt
213	0-20000-0-60355	0	214	60355	3	SKIKDA			0	6.9	36.88333333333333		19760120	20030712	1	0	63	NMS	61	Constantine									['38', '85', '106', '107']							L.Haimberger	0	4.7		63.6	uadb_windc_60355.txt
214	0-20000-0-94238	0	215	94240	3	TENNANT CREEK AIRPORT			0	134.18333333333334	-19.642222222222227		19700211	19700517	1	0	63	NMS	13	Alice Springs									['38', '85', '106', '107']							L.Haimberger	0	1.4		451.4	uadb_windc_94240.txt
215	0-20000-0-47631	0	216	47631	3	TSURUGA			0	136.06222222222223	35.65333333333333		19380803	19410610	1	0	63	NMS	113	Tsuruga									['38', '85', '106', '107']							L.Haimberger	0	0.8		0.3	uadb_windc_47631.txt
216	0-20000-0-15490	0	217	15490	3	TURNU-MAGURELE			0	24.87833333333333	43.76027777777777		20130323	20130323	1	0	63	NMS	188	Turnu Magurele									['38', '85', '106', '107']							L.Haimberger	0	1.3		2.2	uadb_trhc_15490.txt
217	0-20000-0-62781	0	218	62781	3	EN NAHUD			0	28.43333333333333	12.7		19660204	19800408	1	0	63	NMS	195	Abu Zabad									['38', '85', '106', '107']							L.Haimberger	0	0.4		97.2	uadb_windc_62781.txt
218	0-20000-0-87393	0	219	87393	3	MONTE CASEROS AERO			0	-57.63888888888889	-30.26166666666667		19490209	19911015	1	0	63	NMS	10	Bella Union									['38', '85', '106', '107']							L.Haimberger	0	1.4		6.8	uadb_windc_87393.txt
219	0-20000-0-53898	0	220	53898	3	ANYANG			0	114.13333333333334	36.05		19660527	20020603	1	0	63	NMS	47	Anyang									['38', '85', '106', '107']							L.Haimberger	0	19.8		4.3	uadb_trhc_53898.txt
220	0-20000-0-60419	0	221	60419	3	CONSTANTINE			0	6.616666666666667	36.28333333333333		19770324	19911027	1	0	63	NMS	61	Constantine									['38', '85', '106', '107']							L.Haimberger	0	0.5		9.4	uadb_trhc_60419.txt
221	0-20000-0-87480	0	222	87480	3	ROSARIO AERO			0	-60.782222222222224	-32.908055555555556		19460101	19540812	1	0	63	NMS	10	Rosario									['38', '85', '106', '107']							L.Haimberger	0	1.3		13.5	uadb_windc_87480.txt
222	0-20500-0-40201	0	223	97404	3	MOROTAI AAF			0	128.3	2.03		19540705	19580315	1	0	63	NMS	100	Ternate									['38', '85', '106', '107']							L.Haimberger	0	3.1		172.0	uadb_windc_97404.txt
223	0-20000-0-80457	0	224	80457	3	PUERTO AYACUCHO			0	-67.5	5.6		19590905	19811204	1	0	63	NMS	236	Puerto Ayacucho									['38', '85', '106', '107']							L.Haimberger	0	0.0		15.4	uadb_windc_80457.txt
224	0-20000-0-56951	0	225	56951	3	LINCANG			0	100.16666666666669	23.95		19670922	19870622	1	0	63	NMS	47	Simao									['38', '85', '106', '107']							L.Haimberger	0	10.4		150.0	uadb_trhc_56951.txt
225	0-20000-0-97270	0	226	97270	3	BIMA/M.SALAHUDDIN			0	118.69305555555556	-8.5425		19911002	20110105	1	0	63	NMS	100	Bima									['38', '85', '106', '107']							L.Haimberger	0	1.1		9.4	uadb_trhc_97270.txt
226	0-20000-0-60750	0	227	60750	3	SFAX EL-MAOU			0	10.683333333333334	34.71666666666667		19680905	19980323	1	0	63	NMS	221	Safaqis									['38', '85', '106', '107']							L.Haimberger	0	0.5		7.7	uadb_trhc_60750.txt
227	0-20000-0-30683	0	228	30683	3	EROFEJ PAVLOVIC			0	121.93333333333334	53.96666666666667		19730414	19971120	1	0	63	NMS	190	Skovorodino									['38', '85', '106', '107']							L.Haimberger	0	0.4		127.7	uadb_windc_30683.txt
228	0-20000-0-26850	0	229	26851	3	MINSK			0	27.635277777777773	53.92861111111111		19490101	19560130	1	0	63	NMS	35	Minsk									['38', '85', '106', '107']							L.Haimberger	0	0.4		5.3	uadb_trhc_26851.txt
229	0-20000-0-15145	0	230	15145	3	TARGU-MURES			0	24.5225	46.52805555555555		19760125	19961020	1	0	63	NMS	188	Targu-Mures									['38', '85', '106', '107']							L.Haimberger	0	0.6		3.6	uadb_windc_15145.txt
230	0-20000-0-03414	0	231	3414	3	SHAWBURY			0	-2.6647222222222218	52.79472222222223		19990908	20060301	1	0	63	NMS	76	Shrewsbury									['38', '85', '106', '107']							L.Haimberger	0	0.7		10.2	uadb_trhc_3414.txt
231	0-20000-0-72312	0	232	72312	3	GREENVILLE/GREENVILLE SPARTANBURG, SC.			0	-82.21666666666667	34.9		19620306	19650129	1	0	63	NMS	231	Mauldin									['38', '85', '106', '107']							L.Haimberger	0	13.5		2.6	uadb_windc_72312.txt
232	0-20300-0-70489	0	233	70489	3	DUTCH HARBOR			0	-166.53	53.9		19510202	19540327	1	0	63	NMS	231	None									['38', '85', '106', '107']							L.Haimberger	0	0.0		None	uadb_windc_70489.txt
233	0-20600-0-52633	0	234	52633	3	Tuole, China			0	98.41	38.81		19600102	19610827	1	0	63	NMS	47	Jiuquan									['38', '85', '106', '107']							L.Haimberger	0	20.5		94.0	uadb_trhc_52633.txt
234	0-20000-0-97086	0	235	97086	3	LUWUK/BUBUNG			0	122.77111111111113	-1.0413888888888891		20090326	20110104	1	0	63	NMS	100	Luwuk									['38', '85', '106', '107']							L.Haimberger	0	15.7		5.8	uadb_trhc_97086.txt
235	0-20000-0-68104	0	236	68100	3	WALVIS BAY (PELICAN POINT)			0	14.433333333333335	-22.88333333333333		19570812	19581231	1	0	63	NMS	159	Swakopmund									['38', '85', '106', '107']							L.Haimberger	0	24.2		1.4	uadb_windc_68100.txt
236	0-20000-0-72537	0	237	72537	3	DETROIT/METROPOLITAN, MI.			0	-83.33333333333333	42.23333333333333		19720908	19730227	1	0	63	NMS	231	Romulus									['38', '85', '106', '107']							L.Haimberger	0	6.6		3.9	uadb_trhc_72537.txt
237	0-20000-0-15080	0	238	15080	3	ORADEA			0	21.89583333333333	47.03583333333333		19730323	20030613	1	0	63	NMS	188	Oradea									['38', '85', '106', '107']							L.Haimberger	0	3.0		4.1	uadb_windc_15080.txt
238	0-20000-0-34866	0	239	34866	3	YASHKUL'			0	45.35	46.18333333333333		19500927	19571103	1	0	63	NMS	190	Elista									['38', '85', '106', '107']							L.Haimberger	0	0.4		85.6	uadb_windc_34866.txt
239	0-20000-0-42367	0	240	42367	3	KANPUR/CHAKERI			0	80.4	26.4		19760910	20160318	1	0	63	NMS	104	Kanpur									['38', '85', '106', '107']							L.Haimberger	0	0.0		8.9	uadb_windc_42367.txt
240	0-20000-0-50353	0	241	50353	3	HUMA			0	126.63333333333334	51.73333333333333		19631216	19900129	1	0	63	NMS	47	Shimanovsk									['38', '85', '106', '107']							L.Haimberger	0	1.9		78.8	uadb_trhc_50353.txt
241	0-20300-0-91946	0	242	91946	3	TUREIA			0	-138.55	-20.7667		19700211	19710604	1	0	63	NMS	174	None									['38', '85', '106', '107']							L.Haimberger	0	0.7		None	uadb_windc_91946.txt
242	0-20000-0-57071	0	243	57073	3	MENGJIN			0	112.46666666666668	34.8		19641217	19750909	1	0	63	NMS	47	Luoyang									['38', '85', '106', '107']							L.Haimberger	0	15.3		3.4	uadb_trhc_57073.txt
243	0-20000-0-78925	0	244	78925	3	LAMENTIN-AERO			0	-60.99555555555556	14.595277777777778		19750926	19870622	1	0	63	NMS	74	Le Lamentin									['38', '85', '106', '107']							L.Haimberger	0	0.7		0.0	uadb_trhc_78925.txt
244	0-20000-0-54836	0	245	54836	3	YIYUAN			0	118.15	36.18333333333333		19641007	19870709	1	0	63	NMS	47	Linqu									['38', '85', '106', '107']							L.Haimberger	0	0.4		23.4	uadb_trhc_54836.txt
245	0-20000-0-60540	0	246	60540	3	EL-KHEITER			0	0.06666666666666668	34.15		19570701	19581229	1	0	63	NMS	61	Wahran									['38', '85', '106', '107']							L.Haimberger	0	2.5		185.3	uadb_windc_60540.txt
246	0-20000-0-41506	0	247	41506	3	CHITRAL			0	71.83333333333333	35.85		20180103	20211221	1	0	63	NMS	177	Chitral									['38', '85', '106', '107']							L.Haimberger	0	0.3		4.0	uadb_windc_41506.txt
247	0-724-0-0000000000008087	0	248	8087	3	BARDENAS REALES			0	-1.475	42.19861111111111		19760120	20030519	1	0	63	NMS	67	Tudela									['38', '85', '106', '107']							L.Haimberger	0	2.1		20.2	uadb_windc_8087.txt
248	0-20300-0-88967	0	249	88967	3	GENERAL BELGRANO			0	-38.8	-77.9667		19700520	19750610	1	0	63	NMS	89	None									['38', '85', '106', '107']							L.Haimberger	0	0.4		None	uadb_windc_88967.txt
249	0-20000-0-31388	0	250	31388	3	NORSK			0	129.91666666666666	52.35		19620815	19680304	1	0	63	NMS	190	Shimanovsk									['38', '85', '106', '107']							L.Haimberger	0	5.7		154.2	uadb_windc_31388.txt
250	0-20000-0-48855	0	251	48856	3	DA NANG			0	108.35	16.066666666666666		19660405	19670731	1	0	63	NMS	239	Da Nang									['38', '85', '106', '107']							L.Haimberger	0	11.4		5.2	uadb_windc_48856.txt
251	0-20000-0-67597	0	252	67597	3	SALIMA			0	34.583333333333336	-13.75		19891002	20000911	1	0	63	NMS	155	Salima									['38', '85', '106', '107']							L.Haimberger	0	0.4		16.3	uadb_windc_67597.txt
252	0-20000-0-87548	0	253	87548	3	JUNIN AERO			0	-60.93138888888889	-34.552499999999995		19460101	19540528	1	0	63	NMS	10	Junin									['38', '85', '106', '107']							L.Haimberger	0	1.7		3.8	uadb_windc_87548.txt
253	0-20000-0-57265	0	254	57265	3	LAOHEKOU			0	111.73333333333332	32.43333333333333		19571031	20000614	1	0	63	NMS	47	Laohekou									['38', '85', '106', '107']							L.Haimberger	0	6.1		3.9	uadb_trhc_57265.txt
254	0-20000-0-71036	0	255	71855	3	DAUPHIN, MAN			0	-100.0525	51.10083333333333		19620305	19940826	1	0	63	NMS	37	Brandon									['38', '85', '106', '107']							L.Haimberger	0	0.2		140.9	uadb_windc_71855.txt
255	0-20000-0-41764	0	256	41764	3	HYDERABAD			0	68.41666666666667	25.38333333333333		20080831	20211015	1	0	63	NMS	177	Hyderabad									['38', '85', '106', '107']							L.Haimberger	0	0.5		4.9	uadb_windc_41764.txt
256	0-20001-0-72403	0	257	72413	3	STERLING, VA.			0	-77.48583333333333	38.97666666666667		20190709	20211227	1	0	63	NMS	231	Herndon									['38', '85', '106', '107']							L.Haimberger	0	1.6		8.4	uadb_trhc_72413.txt
257	0-20000-0-84200	0	258	84111	3	SALINAS AEROPUERTO			0	-80.98583333333333	-2.2077777777777783		19420711	19460130	1	0	63	NMS	62	Salinas									['38', '85', '106', '107']							L.Haimberger	0	3.9		6.2	uadb_windc_84111.txt
258	0-20001-0-72520	0	259	74479	3	PITTSBURGH, PA.			0	-80.21722222222222	40.531666666666666		19711116	19730511	1	0	63	NMS	231	Pittsburgh									['38', '85', '106', '107']							L.Haimberger	0	23.5		1.2	uadb_windc_74479.txt
259	0-20000-0-47761	0	260	47761	3	HIKONE			0	136.24361111111108	35.27583333333333		19260312	19410609	1	0	63	NMS	113	Hikone									['38', '85', '106', '107']							L.Haimberger	0	0.9		2.2	uadb_windc_47761.txt
260	0-20300-0-52313	0	261	52313	3	XING-XING-XIA			0	95.1333	41.7833		19590101	19591016	1	0	63	NMS	47	Hami									['38', '85', '106', '107']							L.Haimberger	0	1.2		178.3	uadb_trhc_52313.txt
261	0-20000-0-97690	0	262	97690	3	JAYAPURA/SENTANI			0	140.51833333333335	-2.575833333333333		19780413	20101212	1	0	63	NMS	100	Vanimo									['38', '85', '106', '107']							L.Haimberger	0	4.3		88.1	uadb_trhc_97690.txt
262	0-20000-0-87791	0	263	87790	3	VIEDMA AERO			0	-63.006944444444436	-40.863333333333344		19570701	19571017	1	0	63	NMS	10	Viedma									['38', '85', '106', '107']							L.Haimberger	0	9.5		4.0	uadb_windc_87790.txt
263	0-20000-0-64570	0	264	64565	3	MVENGUE			0	13.433333333333335	-1.65		19661119	19840802	1	0	63	NMS	75	Moanda									['38', '85', '106', '107']							L.Haimberger	0	22.3		7.8	uadb_windc_64565.txt
264	0-20000-0-96607	0	265	96607	3	SAMARINDA/TEMINDUNG			0	117.15638888888891	-0.4827777777777778		20090326	20110104	1	0	63	NMS	100	Loa Janan									['38', '85', '106', '107']							L.Haimberger	0	15.2		8.5	uadb_trhc_96607.txt
265	0-20000-2-29842	0	266	29843	3	Novokuznetsk			0	87.10166666666666	53.89527777777778		19550102	19561230	1	0	63	NMS	190	Novokuznetsk									['38', '85', '106', '107']							L.Haimberger	0	16.3		8.1	uadb_windc_29843.txt
266	0-20000-0-57662	0	267	57662	3	CHANGDE			0	111.68333333333334	29.05		19710409	19870618	1	0	63	NMS	47	Changde									['38', '85', '106', '107']							L.Haimberger	0	14.8		25.2	uadb_trhc_57662.txt
267	0-20300-0-46746	0	268	46767	3	CHIAYI (TW-AFB)			0	120.383	23.467		19920311	19990531	1	0	63	NMS	226	Potzu									['38', '85', '106', '107']							L.Haimberger	0	26.8		13.5	uadb_windc_46767.txt
268	0-20000-0-60402	0	269	60402	3	BEJAIA-AEROPORT			0	5.066666666666666	36.71666666666667		19780106	19870611	1	0	63	NMS	61	Timizart									['38', '85', '106', '107']							L.Haimberger	0	4.0		65.7	uadb_trhc_60402.txt
269	0-20300-0-37260	0	270	37189	3	SUKHUMI (AGMS)			0	41.033	43.016999999999996		19470403	19530701	1	0	63	NMS	78	Sukhumi									['38', '85', '106', '107']							L.Haimberger	0	1.1		1.9	uadb_trhc_37189.txt
270	0-20000-0-30729	0	271	30729	3	KABANSK			0	106.64166666666668	52.05416666666667		19620809	19641231	1	0	63	NMS	190	Selenginsk									['38', '85', '106', '107']							L.Haimberger	0	6.7		18.2	uadb_windc_30729.txt
271	0-20000-0-91162	0	272	91162	3	BARKING SANDS (BONHAM AUX.LDNG.FLD), KAUAI HAWAII			0	-159.78333333333333	22.066666666666666		19681023	19720414	1	0	63	NMS	231	Kapaa									['38', '85', '106', '107']							L.Haimberger	0	4.1		47.6	uadb_trhc_91162.txt
272	0-20000-0-06484	0	273	6480	3	BUZENOL			0	5.5875	49.62027777777778		19490109	19500731	1	0	63	NMS	20	Virton									['38', '85', '106', '107']							L.Haimberger	0	7.9		3.2	uadb_windc_6480.txt
273	0-20300-0-91945	0	274	91945	3	HEREHERETUE			0	-144.9494	-19.9061		19700415	20101128	1	0	63	NMS	174	Papara									['38', '85', '106', '107']							L.Haimberger	0	6.6		533.9	uadb_trhc_91945.txt
274	0-20000-0-63260	0	275	63260	3	MOGADISCIO			0	45.35	2.033333333333333		19650504	19930103	1	0	63	NMS	205	Mogadishu									['38', '85', '106', '107']							L.Haimberger	0	1.5		4.5	uadb_windc_63260.txt
275	0-20000-0-97192	0	276	97192	3	BAU-BAU/BETO AMBARI			0	122.57083333333333	-5.487777777777778		20180104	20211229	1	0	63	NMS	100	Katobu									['38', '85', '106', '107']							L.Haimberger	0	5.8		61.9	uadb_windc_97192.txt
276	0-20000-0-42361	0	277	42359	3	GWALIOR			0	78.25	26.23333333333333		19640609	19670731	1	0	63	NMS	104	Morar									['38', '85', '106', '107']							L.Haimberger	0	5.5		6.0	uadb_windc_42359.txt
277	0-20000-0-83236	0	278	83236	3	BARREIRAS (83236-0)			0	-45.0	-12.15		19700102	19800328	1	0	63	NMS	30	Barreiras									['38', '85', '106', '107']							L.Haimberger	0	5.5		1.8	uadb_windc_83236.txt
278	0-20000-0-07471	0	279	7470	3	LE PUY-LOUDES			0	3.763888888888889	45.07444444444446		19691018	19830929	1	0	63	NMS	74	Firminy									['38', '85', '106', '107']							L.Haimberger	0	11.1		48.4	uadb_windc_7470.txt
279	0-20000-0-47606	0	280	47606	3	FUSHIKI			0	137.05611111111114	36.79222222222222		19330413	19400805	1	0	63	NMS	113	Shimminato									['38', '85', '106', '107']							L.Haimberger	0	1.5		1.5	uadb_windc_47606.txt
280	0-20000-0-72643	0	281	72643	3	LA CROSSE/MUN., WI.			0	-91.25	43.86666666666667		19620305	19640530	1	0	63	NMS	231	Onalaska									['38', '85', '106', '107']							L.Haimberger	0	5.5		3.3	uadb_windc_72643.txt
281	0-20000-0-57916	0	282	57916	3	LUODIAN			0	106.76666666666668	25.43333333333333		19710103	20020320	1	0	63	NMS	47	Xiaoweizhai									['38', '85', '106', '107']							L.Haimberger	0	6.0		114.6	uadb_trhc_57916.txt
282	0-20000-0-25282	0	283	25282	3	MYS VANKAREM			0	-175.83333333333337	67.83333333333333		19800322	20001231	1	0	63	NMS	190	None									['38', '85', '106', '107']							L.Haimberger	0	1.9		None	uadb_trhc_25282.txt
283	0-20000-0-61017	0	284	61017	3	BILMA			0	12.916666666666664	18.683333333333334		19820526	19950525	1	0	63	NMS	161	Agadez									['38', '85', '106', '107']							L.Haimberger	0	0.5		555.6	uadb_trhc_61017.txt
284	0-20000-0-93546	0	285	93545	3	NELSON AERO AWS			0	173.21583333333336	-41.30055555555556		19820127	19911028	1	0	63	NMS	170	Nelson									['38', '85', '106', '107']							L.Haimberger	0	0.4		5.6	uadb_trhc_93545.txt
285	0-20000-0-60445	0	286	60445	3	SETIF/AIN ARNAT			0	5.316666666666666	36.16666666666666		19860628	19870623	1	0	63	NMS	61	Tazmalt									['38', '85', '106', '107']							L.Haimberger	0	9.4		94.3	uadb_trhc_60445.txt
286	0-20000-0-87320	0	287	87320	3	CHAMICAL AERO			0	-66.2961111111111	-30.347777777777768		19630522	19680417	1	0	63	NMS	10	La Rioja									['38', '85', '106', '107']							L.Haimberger	0	5.8		119.7	uadb_windc_87320.txt
287	0-20000-0-81250	0	288	81250	3	TAFELBERG			0	-56.15	3.783333333333333		19760129	19860319	1	0	63	NMS	206	Lelydorp									['38', '85', '106', '107']							L.Haimberger	0	0.4		235.4	uadb_windc_81250.txt
288	0-20000-0-72693	0	289	72693	3	EUGENE/MAHLON SWEET, OR.			0	-123.21666666666668	44.11666666666667		19691014	19721223	1	0	63	NMS	231	Eugene									['38', '85', '106', '107']							L.Haimberger	0	0.5		13.1	uadb_windc_72693.txt
289	0-20000-0-96791	0	290	96791	3	CIREBON/JATIWANGI			0	108.26666666666668	-6.75		19911002	20110103	1	0	63	NMS	100	Jatiwangi									['38', '85', '106', '107']							L.Haimberger	0	0.4		3.9	uadb_trhc_96791.txt
290	0-20000-0-96109	0	291	96109	3	PEKAN BARU/SIMPANGTIGA			0	101.45	0.4666666666666667		19760107	20110105	1	0	63	NMS	100	Balaipungut									['38', '85', '106', '107']							L.Haimberger	0	0.4		66.8	uadb_trhc_96109.txt
291	0-20000-0-97008	0	292	97008	3	NAHA/TAHUNA			0	125.52888888888887	3.6858333333333335		20180105	20211217	1	0	63	NMS	100	Bitung									['38', '85', '106', '107']							L.Haimberger	0	13.4		238.2	uadb_windc_97008.txt
292	0-20000-0-48991	0	293	48991	3	PHNOM-PENH (KHMOUGH)			0	104.86666666666666	11.6		19650304	20011117	1	0	63	NMS	116	Phnum Penh									['38', '85', '106', '107']							L.Haimberger	0	5.8		7.3	uadb_windc_48991.txt
293	0-20000-0-03066	0	294	3066	3	KINLOSS			0	-3.563611111111111	57.645555555555546		20020403	20060331	1	0	63	NMS	76	Elgin									['38', '85', '106', '107']							L.Haimberger	0	0.6		14.1	uadb_trhc_3066.txt
294	0-20000-0-11968	0	295	11968	3	KOSICE			0	21.216666666666665	48.66666666666666		20170308	20170308	1	0	63	NMS	201	Kosice									['38', '85', '106', '107']							L.Haimberger	0	5.4		2.4	uadb_trhc_11968.txt
295	0-20000-0-87765	0	296	87765	3	BARILOCHE AERO			0	-71.16416666666667	-41.1475		19460103	19581231	1	0	63	NMS	10	San Carlos De Bariloche									['38', '85', '106', '107']							L.Haimberger	0	0.6		11.1	uadb_windc_87765.txt
296	0-20600-0-30954	0	297	30954	3	Duldurga, Russia			0	113.58	50.68		19741211	20010807	1	0	63	NMS	190	Aginskoye									['38', '85', '106', '107']							L.Haimberger	0	0.0		81.7	uadb_windc_30954.txt
297	0-20000-0-87509	0	298	87509	3	SAN RAFAEL AERO			0	-68.40166666666667	-34.590833333333336		19690913	19720420	1	0	63	NMS	10	San Rafael									['38', '85', '106', '107']							L.Haimberger	0	1.2		7.7	uadb_windc_87509.txt
298	0-20000-0-60135	0	299	60135	3	RABAT-SALE			0	-6.758055555555557	34.04611111111111		19570701	19691219	1	0	63	NMS	136	Rabat									['38', '85', '106', '107']							L.Haimberger	0	1.2		7.9	uadb_windc_60135.txt
299	0-20000-0-83063	0	300	83063	3	PORTO NACIONAL (AERO)			0	-48.4	-10.7		19691020	19800119	1	0	63	NMS	30	Porto Nacional									['38', '85', '106', '107']							L.Haimberger	0	2.2		10.1	uadb_windc_83063.txt
300	0-20000-0-67843	0	301	67843	3	VICTORIA FALLS			0	25.85	-18.1		19810819	19961009	1	0	63	NMS	248	Victoria Falls									['38', '85', '106', '107']							L.Haimberger	0	0.0		18.5	uadb_trhc_67843.txt
301	0-20000-0-57902	0	302	57902	3	XINGREN			0	105.18333333333334	25.43333333333333		19690222	19870622	1	0	63	NMS	47	Xingyi									['38', '85', '106', '107']							L.Haimberger	0	0.5		46.5	uadb_trhc_57902.txt
302	0-20000-0-07255	0	303	7255	3	BOURGES			0	2.3597222222222225	47.05916666666666		19820228	19911022	1	0	63	NMS	74	Bourges									['38', '85', '106', '107']							L.Haimberger	0	1.4		2.7	uadb_trhc_7255.txt
303	0-20000-0-74509	0	304	74505	3	MOUNTAIN VIEW (SUNNY-VALE)/MOFFETT NAS,  CA.			0	-122.05	37.41666666666666		19711013	19720628	1	0	63	NMS	231	San Jose									['38', '85', '106', '107']							L.Haimberger	0	20.0		3.7	uadb_trhc_74505.txt
304	0-20000-0-54602	0	305	54602	3	BAODING			0	115.48333333333332	38.73333333333333		19670403	20011203	1	0	63	NMS	47	Baoding									['38', '85', '106', '107']							L.Haimberger	0	11.2		7.3	uadb_trhc_54602.txt
305	0-20000-0-72423	0	306	72423	3	LOUISVILLE/STANDIFORD, KY.			0	-85.73333333333333	38.18333333333333		19680117	19730615	1	0	63	NMS	231	Okolona									['38', '85', '106', '107']							L.Haimberger	0	6.1		4.7	uadb_trhc_72423.txt
306	0-20000-0-93891	0	307	93890	3	DUNEDIN AERO AWS			0	170.19666666666666	-45.92666666666666		19700428	19911028	1	0	63	NMS	170	Dunedin									['38', '85', '106', '107']							L.Haimberger	0	0.5		24.3	uadb_trhc_93890.txt
307	0-20000-0-67743	0	308	67743	3	LIVINGSTONE			0	25.816666666666666	-17.816666666666666		19670608	19871026	1	0	63	NMS	247	Livingstone									['38', '85', '106', '107']							L.Haimberger	0	2.6		7.5	uadb_windc_67743.txt
308	0-20000-0-10126	0	309	10122	3	WITTMUNDHAVEN			0	7.667222222222222	53.55027777777778		19490405	19520804	1	0	63	NMS	56	Schortens									['38', '85', '106', '107']							L.Haimberger	0	14.3		4.7	uadb_windc_10122.txt
309	0-20000-0-67027	0	310	67027	3	MAHAJANGA			0	46.35	-15.666666666666664		19740309	20101231	1	0	63	NMS	141	Mahajanga									['38', '85', '106', '107']							L.Haimberger	0	0.4		6.3	uadb_trhc_67027.txt
310	0-20000-0-07280	0	311	7280	3	DIJON-LONGVIC			0	5.088333333333333	47.26777777777777		19680501	20030618	1	0	63	NMS	74	Chenove									['38', '85', '106', '107']							L.Haimberger	0	0.7		6.3	uadb_trhc_7280.txt
311	0-20000-0-62760	0	312	62760	3	EL FASHER			0	25.33333333333333	13.616666666666667		19730207	20090801	1	0	63	NMS	195	Umm Kaddadah									['38', '85', '106', '107']							L.Haimberger	0	0.5		149.4	uadb_trhc_62760.txt
312	0-20000-0-47651	0	313	47651	3	TSU			0	136.51972222222224	34.73416666666667		19341018	19410615	1	0	63	NMS	113	Hisai									['38', '85', '106', '107']							L.Haimberger	0	1.6		7.7	uadb_windc_47651.txt
313	0-20000-0-97530	0	314	97530	3	MANOKWARI/RENDANI			0	134.05055555555558	-0.8922222222222221		20090417	20110104	1	0	63	NMS	100	Manokwari									['38', '85', '106', '107']							L.Haimberger	0	1.4		4.0	uadb_trhc_97530.txt
314	0-20000-0-37579	0	315	37575	3	ALIBAY			0	46.71666666666667	41.65		19661202	19780705	1	0	63	NMS	16	Zaqatala									['38', '85', '106', '107']							L.Haimberger	0	5.7		0.7	uadb_windc_37575.txt
315	0-20300-0-54339	0	316	54339	3	AN SHAN			0	122.95	41.1167		19600602	19620828	1	0	63	NMS	47	Jiupu									['38', '85', '106', '107']							L.Haimberger	0	17.2		19.2	uadb_trhc_54339.txt
316	0-20000-0-54753	0	317	54753	3	LONGKOU			0	120.31666666666666	37.61666666666667		19740914	19870622	1	0	63	NMS	47	Longkou									['38', '85', '106', '107']							L.Haimberger	0	0.5		3.5	uadb_trhc_54753.txt
317	0-20000-0-47768	0	318	47768	3	OKAYAMA			0	133.92527777777778	34.68583333333333		19360811	19410530	1	0	63	NMS	113	Soja									['38', '85', '106', '107']							L.Haimberger	0	0.8		15.7	uadb_windc_47768.txt
318	0-20000-0-07607	0	319	7607	3	MONT-DE-MARSAN			0	-0.5002777777777778	43.90972222222222		19691113	19960709	1	0	63	NMS	74	Mont-De-Marsan									['38', '85', '106', '107']							L.Haimberger	0	1.1		3.4	uadb_windc_7607.txt
319	0-20000-0-41571	0	320	41571	3	ISLAMABAD AIRPORT			0	73.1	33.61666666666667		19761217	20090629	1	0	63	NMS	177	Rawalpindi									['38', '85', '106', '107']							L.Haimberger	0	0.4		3.7	uadb_trhc_41571.txt
320	0-20000-0-87270	0	321	87270	3	RECONQUISTA AERO			0	-59.69333333333333	-29.205		19570701	19581009	1	0	63	NMS	10	Reconquista									['38', '85', '106', '107']							L.Haimberger	0	3.6		3.9	uadb_windc_87270.txt
321	0-20000-0-74630	0	322	74630	3	STALLION AAF, NM			0	-106.66666666666669	33.81666666666667		20210317	20210629	1	0	63	NMS	231	Los Lunas									['38', '85', '106', '107']							L.Haimberger	0	0.5		109.5	uadb_trhc_74630.txt
322	0-20000-0-72256	0	323	72256	3	WACO, MADISON-COOPER, TX.			0	-97.21666666666668	31.61666666666667		19660502	19731008	1	0	63	NMS	231	Waco									['38', '85', '106', '107']							L.Haimberger	0	0.5		10.5	uadb_trhc_72256.txt
323	0-20000-0-42071	0	324	42071	3	AMRITSAR			0	74.86666666666666	31.63333333333333		20200213	20210621	1	0	63	NMS	104	Raja Sansi									['38', '85', '106', '107']							L.Haimberger	0	9.7		2.1	uadb_windc_42071.txt
324	0-20000-0-38232	0	325	38232	3	AKKUDUK			0	54.095	42.97055555555556		19620318	19691125	1	0	63	NMS	124	Zhanaozen									['38', '85', '106', '107']							L.Haimberger	0	2.0		113.5	uadb_windc_38232.txt
325	0-20000-0-72536	0	326	72536	3	TOLEDO/EXPRESS, OH.			0	-83.8	41.6		19620304	19720928	1	0	63	NMS	231	Maumee									['38', '85', '106', '107']							L.Haimberger	0	0.0		12.9	uadb_windc_72536.txt
326	0-20000-0-60745	0	327	60745	3	GAFSA			0	8.816666666666666	34.416666666666664		19791112	20071111	1	0	63	NMS	221	Qafsah									['38', '85', '106', '107']							L.Haimberger	0	0.5		3.3	uadb_trhc_60745.txt
327	0-20600-0-53853	0	328	53853	3	Xixian, China			0	110.93	36.7		19761111	19870620	1	0	63	NMS	47	Xinzhi									['38', '85', '106', '107']							L.Haimberger	0	0.0		72.8	uadb_trhc_53853.txt
328	0-20000-0-47629	0	329	47629	3	MITO			0	140.46805555555557	36.38111111111111		19691019	19701229	1	0	63	NMS	113	Oarai									['38', '85', '106', '107']							L.Haimberger	0	12.0		9.2	uadb_windc_47629.txt
329	0-20000-0-14307	0	330	13209	3	PULA AERODROME			0	13.931944444444444	44.89638888888889		19820301	19820505	1	0	63	NMS	97	Pula									['38', '85', '106', '107']							L.Haimberger	0	1.0		6.7	uadb_windc_13209.txt
330	0-20000-0-41431	0	331	41360	3	HODEIDAH			0	42.98333333333333	14.75		19830801	19870119	1	0	63	NMS	243	Bajil									['38', '85', '106', '107']							L.Haimberger	0	0.4		47.9	uadb_trhc_41360.txt
331	0-20000-0-30802	0	332	30802	3	MONDY			0	100.98333333333332	51.68333333333333		19620813	19641230	1	0	63	NMS	190	Slyudyanka									['38', '85', '106', '107']							L.Haimberger	0	10.9		194.4	uadb_windc_30802.txt
332	0-20500-0-43015	0	333	52856	3	QINGHAI PROV AIR SAM			0	100.92	36.27		19660527	19990830	1	0	63	NMS	47	Xining									['38', '85', '106', '107']							L.Haimberger	0	27.0		109.8	uadb_trhc_52856.txt
333	0-20000-0-93615	0	334	93614	3	HOKITIKA AERO AWS			0	170.98444444444442	-42.71305555555556		19740406	20090421	1	0	63	NMS	170	Christchurch									['38', '85', '106', '107']							L.Haimberger	0	0.9		162.1	uadb_trhc_93614.txt
334	0-20300-0-72497	0	335	72497	3	CHICO MUNI			0	-121.85	39.7833		19691204	19720523	1	0	63	NMS	231	Chico									['38', '85', '106', '107']							L.Haimberger	0	1.9		8.0	uadb_trhc_72497.txt
335	0-20300-0-20357	0	336	20357	3	RUSSKAJA GAVAN			0	62.5667	76.1833		19530219	19541231	1	0	63	NMS	190	None									['38', '85', '106', '107']							L.Haimberger	0	26.5		None	uadb_windc_20357.txt
336	0-20000-0-48966	0	337	48966	3	SIEMREAP			0	103.85	13.366666666666667		19540701	19710420	1	0	63	NMS	116	Pousat									['38', '85', '106', '107']							L.Haimberger	0	0.4		92.8	uadb_windc_48966.txt
337	0-20000-0-95997	0	338	94997	3	HEARD ISLAND (ATLAS COVE)			0	73.3916666666667	-53.018888888888895		19480209	19541025	1	0	63	NMS	95	None									['38', '85', '106', '107']							L.Haimberger	0	0.8		None	uadb_windc_94997.txt
338	0-20000-0-85041	0	339	85041	3	COBIJA			0	-68.78333333333333	-11.033333333333333		20020517	20040214	1	0	63	NMS	29	Cobija									['38', '85', '106', '107']							L.Haimberger	0	0.8		5.2	uadb_windc_85041.txt
339	0-20400-0-5675	0	340	60608	3	Ft. Flatters			0	6.83	28.15		19570701	19630803	1	0	63	NMS	61	Warqla									['38', '85', '106', '107']							L.Haimberger	0	2.2		448.3	uadb_windc_60608.txt
340	0-20000-0-15360	0	341	15360	3	SULINA			0	29.72694444444444	45.162222222222226		19730323	19980605	1	0	63	NMS	188	Kiliya									['38', '85', '106', '107']							L.Haimberger	0	4.7		46.5	uadb_windc_15360.txt
341	0-20000-0-87909	0	342	87909	3	SAN JULIAN AERO			0	-67.80305555555556	-49.30833333333333		19460101	19550729	1	0	63	NMS	10	Rio Gallegos									['38', '85', '106', '107']							L.Haimberger	0	6.1		279.4	uadb_windc_87909.txt
342	0-20000-0-65387	0	343	65387	3	LOME			0	1.25	6.166666666666668		19781018	20110102	1	0	63	NMS	215	Aflao									['38', '85', '106', '107']							L.Haimberger	0	0.4		8.6	uadb_trhc_65387.txt
343	0-20000-0-48453	0	344	48456	3	BANGNA AGROMET			0	100.60611111111109	13.666388888888891		19710901	19781007	1	0	63	NMS	216	Pak Kret									['38', '85', '106', '107']							L.Haimberger	0	28.1		12.0	uadb_windc_48456.txt
344	0-20000-0-87311	0	345	87312	3	SAN JUAN AERO			0	-68.4225	-31.574722222222217		19570701	19581216	1	0	63	NMS	10	San Juan									['38', '85', '106', '107']							L.Haimberger	0	12.4		7.0	uadb_windc_87312.txt
345	0-20000-0-61080	0	346	61080	3	MARADI			0	7.083333333333332	13.466666666666667		19870325	20030517	1	0	63	NMS	161	Maradi									['38', '85', '106', '107']							L.Haimberger	0	0.5		3.0	uadb_trhc_61080.txt
346	0-20000-0-59134	0	347	59137	3	XIAMEN			0	118.08333333333331	24.48333333333333		19600502	19610730	1	0	63	NMS	47	Xiamen									['38', '85', '106', '107']							L.Haimberger	0	20.3		19.9	uadb_trhc_59137.txt
347	0-20000-0-72223	0	348	72223	3	MOBILE/BATES FIELD,  AL.			0	-88.25	30.68333333333333		19620304	19720429	1	0	63	NMS	231	Mobile									['38', '85', '106', '107']							L.Haimberger	0	5.1		18.3	uadb_windc_72223.txt
348	0-20000-0-62062	0	349	62063	3	TOBRUK			0	23.95888888888889	32.095555555555556		19640711	19840417	1	0	63	NMS	135	Tubruq									['38', '85', '106', '107']							L.Haimberger	0	22.4		26.4	uadb_windc_62063.txt
349	0-20000-0-60461	0	350	60490	3	ORAN-PORT			0	-0.65	35.7		19621217	19970615	1	0	63	NMS	61	Wahran									['38', '85', '106', '107']							L.Haimberger	0	10.0		8.7	uadb_trhc_60490.txt
350	0-20000-0-96491	0	351	96491	3	SANDAKAN			0	118.06666666666666	5.9		19700930	20101213	1	0	63	NMS	157	Sandakan									['38', '85', '106', '107']							L.Haimberger	0	0.4		8.5	uadb_trhc_96491.txt
351	0-20000-0-48480	0	352	48480	3	CHANTHA BURI			0	102.10388888888887	12.609444444444444		19690329	20110103	1	0	63	NMS	216	Chanthaburi									['38', '85', '106', '107']							L.Haimberger	0	2.0		2.0	uadb_trhc_48480.txt
352	0-20000-0-74630	0	353	74630	3	STALLION AAF, NM			0	-106.66666666666669	33.81666666666667		20210317	20210629	1	0	63	NMS	231	Los Lunas									['38', '85', '106', '107']							L.Haimberger	0	0.5		109.5	uadb_windc_74630.txt
353	0-20000-0-42415	0	354	42415	3	TEZPUR			0	92.78333333333332	26.61666666666667		19560202	19710529	1	0	63	NMS	104	Tezpur									['38', '85', '106', '107']							L.Haimberger	0	0.5		2.5	uadb_windc_42415.txt
354	0-20000-0-91170	0	355	91170	3	WAHIAWA (WHEELER/SCHOFIELD), OAHU,  HAWAII			0	-158.03333333333333	21.48333333333333		19720908	19901211	1	0	63	NMS	231	Wahiawa									['38', '85', '106', '107']							L.Haimberger	0	0.5		2.6	uadb_windc_91170.txt
355	0-20000-0-72503	0	356	72503	3	NEW YORK/LA GUARDIA, NY.			0	-73.9	40.766666666666666		19690801	19720612	1	0	63	NMS	231	Cliffside Park									['38', '85', '106', '107']							L.Haimberger	0	3.7		7.8	uadb_windc_72503.txt
356	0-20000-0-88986	0	357	88946	3	SOUTH THULE IS.			0	-27.316666666666666	-59.45		19800605	19811230	1	0	63	NMS	89	None									['38', '85', '106', '107']							L.Haimberger	0	3.2		None	uadb_trhc_88946.txt
357	0-20000-0-97008	0	358	97008	3	NAHA/TAHUNA			0	125.52888888888887	3.6858333333333335		19911002	20110103	1	0	63	NMS	100	Bitung									['38', '85', '106', '107']							L.Haimberger	0	13.4		238.2	uadb_trhc_97008.txt
358	0-20000-0-41744	0	359	41744	3	KHUZDAR			0	66.63333333333334	27.83333333333333		19730613	20110103	1	0	63	NMS	177	Khuzdar									['38', '85', '106', '107']							L.Haimberger	0	0.5		10.2	uadb_trhc_41744.txt
359	0-20000-0-80453	0	360	80453	3	TUMEREMO			0	-61.45	7.3		19760120	19841110	1	0	63	NMS	236	Upata									['38', '85', '106', '107']							L.Haimberger	0	0.0		130.8	uadb_windc_80453.txt
360	0-20000-0-64510	0	361	64510	3	BITAM			0	11.483333333333333	2.083333333333333		19641002	20040513	1	0	63	NMS	75	Bitam									['38', '85', '106', '107']							L.Haimberger	0	2.6		0.5	uadb_windc_64510.txt
361	0-20000-0-74531	0	362	74531	3	AIR FORCE ACADEMY,  CO.			0	-104.81666666666666	38.96666666666667		19690222	20010106	1	0	63	NMS	231	Black Forest									['38', '85', '106', '107']							L.Haimberger	0	0.5		11.4	uadb_windc_74531.txt
362	0-20000-0-87178	0	363	87178	3	POSADAS AERO			0	-55.96694444444446	-27.391111111111112		19490125	19970913	1	0	63	NMS	10	Posadas									['38', '85', '106', '107']							L.Haimberger	0	2.4		7.3	uadb_windc_87178.txt
363	0-20000-0-66152	0	364	66152	3	DUNDO			0	20.816666666666666	-7.4		19660510	20020914	1	0	63	NMS	8	Tshikapa									['38', '85', '106', '107']							L.Haimberger	0	1.8		108.8	uadb_windc_66152.txt
364	0-20000-0-43181	0	365	43181	3	VIJAYAWADA /GANNAVARAM			0	80.8	16.533333333333335		19690121	19820923	1	0	63	NMS	104	Gannavaram									['38', '85', '106', '107']							L.Haimberger	0	0.4		0.4	uadb_trhc_43181.txt
365	0-20000-0-11968	0	366	11968	3	KOSICE			0	21.216666666666665	48.66666666666666		20170308	20170308	1	0	63	NMS	201	Kosice									['38', '85', '106', '107']							L.Haimberger	0	5.4		2.4	uadb_windc_11968.txt
366	0-20000-0-82288	0	367	82287	3	PARNAIBA (AERO)			0	-41.75	-2.9166666666666665		19760121	19791226	1	0	63	NMS	30	Parnaiba									['38', '85', '106', '107']							L.Haimberger	0	3.8		1.2	uadb_windc_82287.txt
367	0-20000-0-74504	0	368	74504	3	PILAR POINT AFS, CA.			0	-122.5	37.5		19831216	19970521	1	0	63	NMS	231	Half Moon Bay									['38', '85', '106', '107']							L.Haimberger	0	0.0		7.6	uadb_trhc_74504.txt
368	0-20000-0-33587	0	369	33587	3	Uman			0	30.232777777777773	48.766944444444434		19500104	19501031	1	0	63	NMS	228	Zhashkiv									['38', '85', '106', '107']							L.Haimberger	0	0.4		53.6	uadb_trhc_33587.txt
369	0-20000-0-70086	0	370	71086	3	BARTER ISLAND			0	-143.63333333333333	70.13333333333334		19620304	19640630	1	0	63	NMS	231	None									['38', '85', '106', '107']							L.Haimberger	0	4.5		None	uadb_trhc_71086.txt
370	0-20000-0-61600	0	371	61600	3	SAINT-LOUIS			0	-16.449722222222224	16.05		19680410	20140131	1	0	63	NMS	204	Saint-Louis									['38', '85', '106', '107']							L.Haimberger	0	0.0		5.9	uadb_trhc_61600.txt
371	0-20000-0-30822	0	372	30822	3	BABUSKIN			0	105.85194444444444	51.70833333333334		19670922	19680618	1	0	63	NMS	190	Selenginsk									['38', '85', '106', '107']							L.Haimberger	0	1.8		75.6	uadb_windc_30822.txt
372	0-20000-0-97028	0	373	97028	3	TOLI-TOLI/LALOS			0	120.79416666666668	1.1213888888888892		19911002	20110104	1	0	63	NMS	100	Palu									['38', '85', '106', '107']							L.Haimberger	0	11.2		235.3	uadb_trhc_97028.txt
373	0-20000-0-07130	0	374	7130	3	RENNES-SAINT JACQUES			0	-1.7338888888888893	48.06888888888889		19680310	20020801	1	0	63	NMS	74	Rennes									['38', '85', '106', '107']							L.Haimberger	0	1.0		5.8	uadb_trhc_7130.txt
374	0-20000-0-37686	0	375	37686	3	GYUMRI			0	43.85583333333334	40.76277777777778		19680403	19790922	1	0	63	NMS	6	Gyumri									['38', '85', '106', '107']							L.Haimberger	0	2.6		1.8	uadb_windc_37686.txt
375	0-20000-0-55696	0	376	55696	3	LHUNZE			0	92.46666666666668	28.41666666666667		19730214	19911217	1	0	63	NMS	47	Ziro									['38', '85', '106', '107']							L.Haimberger	0	0.5		159.9	uadb_trhc_55696.txt
376	0-20000-0-59007	0	377	59007	3	GUANGNAN			0	105.06666666666666	24.066666666666666		19730702	19910523	1	0	63	NMS	47	Kaihua									['38', '85', '106', '107']							L.Haimberger	0	5.5		110.4	uadb_trhc_59007.txt
377	0-20000-0-96323	0	378	96323	3	KUALA BELAIT			0	114.2	4.583333333333333		20180103	20210614	1	0	63	NMS	28	Miri									['38', '85', '106', '107']							L.Haimberger	0	0.4		28.0	uadb_windc_96323.txt
378	0-20000-0-30688	0	379	30688	3	POKROVKA			0	121.55	53.35		19620813	19641228	1	0	63	NMS	190	Mogocha									['38', '85', '106', '107']							L.Haimberger	0	6.5		124.7	uadb_windc_30688.txt
379	0-20000-0-41598	0	380	41598	3	JHELUM			0	73.71666666666667	32.93333333333333		20180930	20211230	1	0	63	NMS	177	Jhelum									['38', '85', '106', '107']							L.Haimberger	0	0.5		0.7	uadb_windc_41598.txt
380	0-20000-0-41950	0	381	41950	3	BARISAL			0	90.36666666666666	22.75		19691016	20110105	1	0	63	NMS	19	Teknaf									['38', '85', '106', '107']							L.Haimberger	0	0.3		71.2	uadb_trhc_41950.txt
381	0-20000-0-08055	0	382	8055	3	LEON/VIRGEN DEL CAMINO			0	-5.6511111111111125	42.588333333333345		19700401	19770510	1	0	63	NMS	67	San Andres Del Rabanedo									['38', '85', '106', '107']							L.Haimberger	0	0.9		4.5	uadb_windc_8055.txt
382	0-20000-0-53502	0	383	53502	3	JARTAI			0	105.75	39.78333333333333		19661025	20000411	1	0	63	NMS	47	Shitanjing									['38', '85', '106', '107']							L.Haimberger	0	0.4		97.4	uadb_trhc_53502.txt
383	0-20000-0-63726	0	384	63726	3	KABALE			0	29.98333333333333	-1.25		19570702	19940307	1	0	63	NMS	229	Kabale									['38', '85', '106', '107']							L.Haimberger	0	0.4		8.8	uadb_windc_63726.txt
384	0-20600-0-96655	0	385	96655	3	WAOP Palangkaraya - Tjilik Riwut AP / Panarung AP, Kalimantan, Indonesia			0	114.0	-1.0		19880213	20110103	1	0	63	NMS	100	Sampit									['38', '85', '106', '107']							L.Haimberger	0	0.0		205.9	uadb_trhc_96655.txt
385	0-20000-0-71608	0	386	71892	3	VANCOUVER SEA ISLAND CCG, BC			0	-123.18722222222223	49.1825		19700316	19911003	1	0	63	NMS	37	Vancouver									['38', '85', '106', '107']							L.Haimberger	0	1.3		8.2	uadb_trhc_71892.txt
386	0-20000-0-42452	0	387	42452	3	KOTA AERODROME			0	75.85	25.15		20180117	20211216	1	0	63	NMS	104	Kota									['38', '85', '106', '107']							L.Haimberger	0	0.0		4.1	uadb_windc_42452.txt
387	0-20000-0-87344	0	388	87347	3	CORDOBA AERO			0	-64.21194444444444	-31.29666666666667		19460111	19540926	1	0	63	NMS	10	Cordoba									['38', '85', '106', '107']							L.Haimberger	0	15.2		6.8	uadb_windc_87347.txt
388	0-20700-0-63013	0	389	63013	3	AGORDAT                  			0	37.88333333333333	15.55		19490203	19570916	1	0	63	NMS	66	Barentu									['38', '85', '106', '107']							L.Haimberger	0	0.4		57.3	uadb_windc_63013.txt
389	0-20000-0-47772	0	390	47772	3	OSAKA			0	135.51916666666668	34.682222222222215		19621029	20020101	1	0	63	NMS	113	Moriguchi									['38', '85', '106', '107']							L.Haimberger	0	1.0		6.8	uadb_trhc_47772.txt
390	0-20000-0-10641	0	391	10642	3	OFFENBACH-WETTERPARK			0	8.786111111111111	50.09		19670611	19920305	1	0	63	NMS	56	Erlensee									['38', '85', '106', '107']							L.Haimberger	0	14.7		2.2	uadb_windc_10642.txt
391	0-20000-0-81209	0	392	81209	3	STOELMANSEILAND			0	-54.41666666666666	4.35		19761103	19860312	1	0	63	NMS	74	Lelydorp									['38', '85', '106', '107']							L.Haimberger	0	3.7		172.7	uadb_windc_81209.txt
392	0-20000-0-67137	0	393	67137	3	FIANARANTSOA			0	47.1	-21.45		19660510	19951118	1	0	63	NMS	141	Fianarantsoa									['38', '85', '106', '107']							L.Haimberger	0	5.5		2.5	uadb_windc_67137.txt
393	0-20000-0-60120	0	394	60120	3	KENITRA			0	-6.594722222222222	34.300277777777765		19491127	20020203	1	0	63	NMS	136	Kenitra									['38', '85', '106', '107']							L.Haimberger	0	0.5		4.7	uadb_windc_60120.txt
394	0-20000-0-07603	0	395	7603	3	DAX			0	-1.07	43.68972222222222		19691103	19840712	1	0	63	NMS	74	Dax									['38', '85', '106', '107']							L.Haimberger	0	1.1		3.2	uadb_windc_7603.txt
395	0-20000-0-74618	0	396	74618	3	CUDDLEBACK GUNNERY RANGE, CA.			0	-117.43333333333334	35.266666666666666		19680126	19691224	1	0	63	NMS	231	Ridgecrest									['38', '85', '106', '107']							L.Haimberger	0	0.5		44.8	uadb_trhc_74618.txt
396	0-20300-0-67194	0	397	67194	3	FAUX-CAP			0	45.533	-25.55		19700310	19790329	1	0	63	NMS	141	Tsihombe									['38', '85', '106', '107']							L.Haimberger	0	0.3		33.3	uadb_windc_67194.txt
397	0-20000-0-71861	0	398	71861	3	BROADVIEW, SASK			0	-102.57083333333333	50.368055555555564		19870327	20001015	1	0	63	NMS	37	Yorkton									['38', '85', '106', '107']							L.Haimberger	0	7.9		93.4	uadb_trhc_71861.txt
398	0-20000-0-57766	0	399	57766	3	SHAOYANG			0	111.45	27.18333333333333		19591001	19591130	1	0	63	NMS	47	Shaoyang									['38', '85', '106', '107']							L.Haimberger	0	10.1		34.4	uadb_windc_57766.txt
399	0-20000-0-10763	0	400	10764	3	NUERNBERG			0	11.055	49.50305555555556		19850611	19901107	1	0	63	NMS	56	Feucht									['38', '85', '106', '107']							L.Haimberger	0	16.0		3.2	uadb_trhc_10764.txt
400	0-20000-0-72231	0	401	72231	3	NEW ORLEANS/MOISANT INT., LA.			0	-90.25	29.98333333333333		19650921	19670927	1	0	63	NMS	231	Kenner									['38', '85', '106', '107']							L.Haimberger	0	0.4		1.7	uadb_trhc_72231.txt
401	0-20000-0-58040	0	402	58040	3	GANYU			0	119.13333333333334	34.85		19790122	19870622	1	0	63	NMS	47	Xinpu									['38', '85', '106', '107']							L.Haimberger	0	2.2		25.7	uadb_trhc_58040.txt
402	0-20000-0-48500	0	403	48500	3	PRACHUAP KHIRIKHAN			0	99.81027777777777	11.835		19680107	20110104	1	0	63	NMS	216	Prachuap Khiri Khan									['38', '85', '106', '107']							L.Haimberger	0	4.0		1.0	uadb_trhc_48500.txt
403	0-20000-0-26850	0	404	26851	3	MINSK			0	27.635277777777773	53.92861111111111		19500427	19560130	1	0	63	NMS	35	Minsk									['38', '85', '106', '107']							L.Haimberger	0	0.4		5.3	uadb_windc_26851.txt
404	0-20600-0-51701	0	405	51701	3	Saik'olot'ema, China			0	75.38	40.45		19730414	19930715	1	0	63	NMS	47	At-Bashi									['38', '85', '106', '107']							L.Haimberger	0	0.0		87.8	uadb_trhc_51701.txt
405	0-20000-0-96001	0	406	96001	3	SABANG/CUT BAU			0	95.31666666666666	5.866666666666667		19731031	19901122	1	0	63	NMS	100	Sabang									['38', '85', '106', '107']							L.Haimberger	0	0.5		2.6	uadb_windc_96001.txt
406	0-20000-0-31989	0	407	31989	3	PREOBRAZHENIE			0	133.9	42.9		19750105	19930604	1	0	63	NMS	190	Partizansk									['38', '85', '106', '107']							L.Haimberger	0	0.0		67.3	uadb_trhc_31989.txt
407	0-20000-0-41744	0	408	41744	3	KHUZDAR			0	66.63333333333334	27.83333333333333		19700103	20181224	1	0	63	NMS	177	Khuzdar									['38', '85', '106', '107']							L.Haimberger	0	4.9		10.2	uadb_windc_41744.txt
408	0-20000-0-63023	0	409	63023	3	MASSAWA			0	39.45	15.616666666666667		19490203	19630915	1	0	63	NMS	66	Ginda									['38', '85', '106', '107']							L.Haimberger	0	0.4		43.1	uadb_windc_63023.txt
409	0-20500-0-13773	0	410	74401	3	QUANTICO MCAS			0	-77.3	38.5		19620308	19671215	1	0	63	NMS	231	Montclair									['38', '85', '106', '107']							L.Haimberger	0	0.0		12.8	uadb_windc_74401.txt
410	0-20000-0-68328	0	411	68328	3	TSABONG			0	22.45	-26.05		19910709	20101126	1	0	63	NMS	34	Vryburg									['38', '85', '106', '107']							L.Haimberger	0	0.0		248.3	uadb_trhc_68328.txt
411	0-20000-0-63791	0	412	63791	3	KILIMANJARO INT			0	37.05805555555556	-3.4247222222222216		19760120	19860321	1	0	63	NMS	227	Kingori									['38', '85', '106', '107']							L.Haimberger	0	1.4		17.9	uadb_windc_63791.txt
412	0-20000-0-44454	0	413	44454	3	KATHMANDU AIRPORT			0	85.36666666666666	27.7		19790330	19800216	1	0	63	NMS	167	Lalitpur									['38', '85', '106', '107']							L.Haimberger	0	0.3		5.2	uadb_trhc_44454.txt
413	0-20000-0-47159	0	414	47154	3	BUSAN			0	129.03194444444443	35.10472222222222		19620304	19920701	1	0	63	NMS	121	Fukuma									['38', '85', '106', '107']							L.Haimberger	0	11.5		198.3	uadb_windc_47154.txt
414	0-20000-0-96195	0	415	96195	3	JAMBI/SULTAN TAHA			0	103.65	-1.6333333333333333		19770120	20110103	1	0	63	NMS	100	Jambi									['38', '85', '106', '107']							L.Haimberger	0	0.4		5.0	uadb_trhc_96195.txt
415	0-20000-0-63230	0	416	63230	3	GALCAYO			0	47.26666666666666	6.85		19570630	19581231	1	0	63	NMS	205	Hobyo									['38', '85', '106', '107']							L.Haimberger	0	0.4		216.3	uadb_windc_63230.txt
416	0-20000-0-74504	0	417	74504	3	PILAR POINT AFS, CA.			0	-122.5	37.5		19831216	19970521	1	0	63	NMS	231	Half Moon Bay									['38', '85', '106', '107']							L.Haimberger	0	0.0		7.6	uadb_windc_74504.txt
417	0-20000-0-48991	0	418	48991	3	PHNOM-PENH (KHMOUGH)			0	104.86666666666666	11.6		19691226	20011117	1	0	63	NMS	116	Phnum Penh									['38', '85', '106', '107']							L.Haimberger	0	5.8		7.3	uadb_trhc_48991.txt
418	0-20000-0-53564	0	419	53564	3	HEQU			0	111.21166666666667	39.365		19671215	19900301	1	0	63	NMS	47	Dongsheng									['38', '85', '106', '107']							L.Haimberger	0	10.7		108.3	uadb_trhc_53564.txt
419	0-20000-0-41710	0	420	41710	3	NOKKUNDI			0	62.75	28.816666666666666		19691016	20181222	1	0	63	NMS	177	Rudbar									['38', '85', '106', '107']							L.Haimberger	0	5.2		148.1	uadb_windc_41710.txt
420	0-20000-0-03257	0	421	3257	3	LEEMING			0	-1.5330555555555554	54.296944444444435		19961207	20100502	1	0	63	NMS	76	Northallerton									['38', '85', '106', '107']							L.Haimberger	0	0.4		7.3	uadb_windc_3257.txt
421	0-20000-0-41696	0	422	41696	3	KALAT			0	66.58333333333333	29.03333333333333		20060418	20100106	1	0	63	NMS	177	Kalat									['38', '85', '106', '107']							L.Haimberger	0	0.5		1.4	uadb_windc_41696.txt
422	0-20000-0-72411	0	423	72411	3	ROANOKE/MUN., VA.			0	-79.96666666666667	37.31666666666667		19620304	19640331	1	0	63	NMS	231	Roanoke									['38', '85', '106', '107']							L.Haimberger	0	6.2		4.9	uadb_windc_72411.txt
423	0-20000-0-06418	0	424	6410	3	ZEEBRUGGE			0	3.2016666666666667	51.34722222222222		19520202	19550911	1	0	63	NMS	20	Knokke-Heist									['38', '85', '106', '107']							L.Haimberger	0	0.3		4.6	uadb_windc_6410.txt
424	0-20000-0-14445	0	425	13333	3	SPLIT/MARJAN			0	16.42638888888889	43.50833333333333		19691101	19710627	1	0	63	NMS	97	Split									['38', '85', '106', '107']							L.Haimberger	0	1.3		2.2	uadb_windc_13333.txt
425	0-20000-0-58754	0	426	58754	3	FUDING			0	120.2	27.33333333333333		19710319	19870622	1	0	63	NMS	47	Jinxiang									['38', '85', '106', '107']							L.Haimberger	0	0.4		39.9	uadb_trhc_58754.txt
426	0-20000-0-47755	0	427	47755	3	HAMADA			0	132.07055555555556	34.89666666666667		19381201	19410610	1	0	63	NMS	113	Hamada									['38', '85', '106', '107']							L.Haimberger	0	0.4		2.2	uadb_windc_47755.txt
427	0-20000-0-42516	0	428	42516	3	SHILLONG			0	91.88333333333334	25.566666666666666		19530427	19550721	1	0	63	NMS	104	Shillong									['38', '85', '106', '107']							L.Haimberger	0	0.5		0.9	uadb_trhc_42516.txt
428	0-20600-0-76730	0	429	76730	3	San Roman, Tabasco, Mexico			0	-92.65	18.52		19971029	19981016	1	0	63	NMS	156	Frontera									['38', '85', '106', '107']							L.Haimberger	0	0.0		22.0	uadb_windc_76730.txt
429	0-20000-0-41594	0	430	41593	3	SARGODHA (41594-0)			0	72.66666666666667	32.05		20151030	20170810	1	0	63	NMS	177	Sargodha									['38', '85', '106', '107']							L.Haimberger	0	0.3		3.7	uadb_windc_41593.txt
430	0-20000-0-72698	0	431	72698	3	PORTLAND/INT., OR.			0	-122.6	45.6		19721031	19730618	1	0	63	NMS	231	Vancouver									['38', '85', '106', '107']							L.Haimberger	0	0.0		8.1	uadb_windc_72698.txt
431	0-20000-0-52713	0	432	52713	3	DA-QAIDAM			0	95.36666666666666	37.85		19730106	19870622	1	0	63	NMS	47	Yumen									['38', '85', '106', '107']							L.Haimberger	0	7.9		307.9	uadb_trhc_52713.txt
432	0-20000-0-71627	0	433	72627	3	MONTREAL/PIERRE ELLIOTT TRUDEAU INT'L A, QUE			0	-73.75	45.46666666666667		19730101	19770630	1	0	63	NMS	37	Montreal									['38', '85', '106', '107']							L.Haimberger	0	5.4		13.4	uadb_windc_72627.txt
433	0-20000-0-72514	0	434	72514	3	WILLIAMSPORT/LYCOMING COUNTY, PA.			0	-76.91666666666667	41.25		19640209	19721229	1	0	63	NMS	231	Williamsport									['38', '85', '106', '107']							L.Haimberger	0	0.3		6.9	uadb_windc_72514.txt
434	0-20000-0-80336	0	435	80337	3	TUMACO/LA FLORIDA			0	-78.75	1.8166666666666669		19760121	19850404	1	0	63	NMS	48	Tumaco									['38', '85', '106', '107']							L.Haimberger	0	20.8		19.3	uadb_trhc_80337.txt
435	0-20000-0-87395	0	436	87395	3	CONCORDIA AERO			0	-58.00138888888889	-31.302222222222227		19490120	19540925	1	0	63	NMS	10	Concordia									['38', '85', '106', '107']							L.Haimberger	0	1.8		10.3	uadb_windc_87395.txt
436	0-20000-0-48551	0	437	48551	3	SURAT THANI			0	99.15194444444445	9.134166666666664		19701019	20101227	1	0	63	NMS	216	Surat Thani									['38', '85', '106', '107']							L.Haimberger	0	21.8		3.8	uadb_trhc_48551.txt
437	0-20000-0-67441	0	438	67441	3	MWINILUNGA			0	24.43333333333333	-11.75		19701006	19830120	1	0	63	NMS	247	Mwinilunga									['38', '85', '106', '107']							L.Haimberger	0	0.4		1.9	uadb_windc_67441.txt
438	0-20000-0-42591	0	439	42591	3	GAYA (42591-0)			0	84.95	24.75		19770207	20110103	1	0	63	NMS	104	Gaya									['38', '85', '106', '107']							L.Haimberger	0	0.0		6.3	uadb_trhc_42591.txt
439	0-20000-0-87178	0	440	87178	3	POSADAS AERO			0	-55.96694444444446	-27.391111111111112		19811226	19980306	1	0	63	NMS	10	Posadas									['38', '85', '106', '107']							L.Haimberger	0	2.4		7.3	uadb_trhc_87178.txt
440	0-20000-0-47759	0	441	47759	3	KYOTO			0	135.73277777777778	35.014722222222225		19290109	19410830	1	0	63	NMS	113	Muko									['38', '85', '106', '107']							L.Haimberger	0	0.6		10.0	uadb_windc_47759.txt
441	0-20000-0-47750	0	442	47749	3	MAIZURU			0	135.31805555555556	35.45027777777778		19350801	19410610	1	0	63	NMS	113	Ayabe									['38', '85', '106', '107']							L.Haimberger	0	13.9		9.0	uadb_windc_47749.txt
442	0-20000-0-93247	0	443	93246	3	ROTORUA AERO AWS			0	176.31472222222226	-38.105833333333344		19870325	19911025	1	0	63	NMS	170	Tokoroa									['38', '85', '106', '107']							L.Haimberger	0	1.6		41.7	uadb_trhc_93246.txt
443	0-20000-0-70291	0	444	70291	3	NORTHWAY			0	-141.93333333333334	62.96666666666667		19510202	19520630	1	0	63	NMS	231	None									['38', '85', '106', '107']							L.Haimberger	0	1.4		None	uadb_windc_70291.txt
444	0-20000-0-74413	0	445	74413	3	SAYLOR CREEK GUNNERY RANGE, ID.			0	-115.7	42.53333333333333		19700212	19710716	1	0	63	NMS	231	Mountain Home									['38', '85', '106', '107']							L.Haimberger	0	3.7		70.3	uadb_windc_74413.txt
445	0-20000-0-32150	0	446	32152	3	JUZHNO-SAHALINSK			0	142.71666666666667	46.95		19550702	19570831	1	0	63	NMS	190	Korsakov									['38', '85', '106', '107']							L.Haimberger	0	0.3		35.6	uadb_windc_32152.txt
446	0-20000-0-22165	0	447	22165	3	KANIN NOS			0	43.2875	68.65527777777778		19530228	19630205	1	0	63	NMS	190	Arkhangelsk									['38', '85', '106', '107']							L.Haimberger	0	0.8		474.2	uadb_windc_22165.txt
447	0-20000-0-71299	0	448	71831	3	KAPUSKASING CDA ON, ONT			0	-82.44305555555556	49.405277777777776		19620308	19620915	1	0	63	NMS	37	Timmins									['38', '85', '106', '107']							L.Haimberger	0	3.2		129.9	uadb_windc_71831.txt
448	0-20000-0-30731	0	449	30731	3	GORJACINSK			0	108.29111111111109	52.986111111111114		19620814	19641124	1	0	63	NMS	190	Onokhoy									['38', '85', '106', '107']							L.Haimberger	0	11.4		108.1	uadb_windc_30731.txt
449	0-20000-0-15302	0	450	15302	3	PREDEAL			0	25.58361111111111	45.50638888888889		19760204	19980115	1	0	63	NMS	188	Rasnov									['38', '85', '106', '107']							L.Haimberger	0	0.8		13.7	uadb_windc_15302.txt
450	0-20000-0-59082	0	451	59082	3	SHAOGUAN			0	113.6	24.66666666666667		19580719	19610314	1	0	63	NMS	47	Shaoguan									['38', '85', '106', '107']							L.Haimberger	0	20.7		9.1	uadb_trhc_59082.txt
451	0-20000-0-57237	0	452	57237	3	WANYUAN			0	108.03333333333332	32.06666666666667		19640620	20050123	1	0	63	NMS	47	Daxian									['38', '85', '106', '107']							L.Haimberger	0	4.6		110.4	uadb_trhc_57237.txt
452	0-20000-0-84752	0	453	84752	3	AREQUIPA			0	-71.56666666666666	-16.333333333333332		20161218	20161218	1	0	63	NMS	173	Arequipa									['38', '85', '106', '107']							L.Haimberger	0	2.3		8.9	uadb_trhc_84752.txt
453	0-20000-0-43424	0	454	43424	3	PUTTALAM			0	79.83333333333333	8.033333333333333		20090324	20110104	1	0	63	NMS	129	Anuradhapura									['38', '85', '106', '107']							L.Haimberger	0	0.5		70.5	uadb_trhc_43424.txt
454	0-20000-0-08140	0	455	8140	3	VALLADOLID/VILLANUBLA			0	-4.855555555555554	41.71194444444445		19691016	19810511	1	0	63	NMS	67	Valladolid									['38', '85', '106', '107']							L.Haimberger	0	1.0		12.7	uadb_windc_8140.txt
455	0-20000-0-97260	0	456	97260	3	SUMBAWA BESAR/BRANGBIJI			0	117.41361111111112	-8.488055555555555		20180102	20211231	1	0	63	NMS	100	Sumbawa									['38', '85', '106', '107']							L.Haimberger	0	3.6		2.7	uadb_windc_97260.txt
456	0-20000-0-87078	0	457	87078	3	LAS LOMITAS			0	-60.59416666666666	-24.7025		19531007	19571031	1	0	63	NMS	10	Presidencia Roque Saenz Pena									['38', '85', '106', '107']							L.Haimberger	0	1.5		231.4	uadb_windc_87078.txt
457	0-20000-0-71869	0	458	71869	3	PRINCE ALBERT A, SASK			0	-105.66666666666669	53.21666666666667		19640129	19911028	1	0	63	NMS	37	Prince Albert									['38', '85', '106', '107']							L.Haimberger	0	1.0		5.2	uadb_trhc_71869.txt
458	0-20000-0-12580	0	459	12580	3	RZESZOW-JASIONKA			0	22.02	50.1113888888889		19691020	19741117	1	0	63	NMS	178	Rzeszow									['38', '85', '106', '107']							L.Haimberger	0	5.9		7.7	uadb_windc_12580.txt
459	0-20000-0-63270	0	460	63270	3	CHISIMAIO			0	42.43333333333333	-0.36666666666666653		19570702	19631207	1	0	63	NMS	205	Kismayo									['38', '85', '106', '107']							L.Haimberger	0	0.5		11.5	uadb_windc_63270.txt
460	0-20000-0-74370	0	461	74370	3	FORT DRUM/WHEELER-SACK AAF, NY			0	-75.73333333333333	44.05		19890510	19960208	1	0	63	NMS	231	Watertown									['38', '85', '106', '107']							L.Haimberger	0	0.3		16.8	uadb_trhc_74370.txt
461	0-20000-0-03023	0	462	3023	3	SOUTH UIST RANGE			0	-7.385000000000002	57.3575		20180118	20211201	1	0	63	NMS	76	Inverness									['38', '85', '106', '107']							L.Haimberger	0	1.2		189.0	uadb_trhc_3023.txt
462	0-20000-0-58527	0	463	58527	3	JINGDEZHEN			0	117.16861111111113	29.312222222222218		19700103	20020220	1	0	63	NMS	47	Jingdezhen									['38', '85', '106', '107']							L.Haimberger	0	3.3		1.0	uadb_trhc_58527.txt
463	0-20000-0-96797	0	464	96797	3	TEGAL			0	109.15	-6.85		19911003	20110104	1	0	63	NMS	100	Tegal									['38', '85', '106', '107']							L.Haimberger	0	0.0		2.4	uadb_trhc_96797.txt
464	0-20000-0-61090	0	465	61090	3	ZINDER			0	8.983333333333333	13.783333333333333		19701018	20110105	1	0	63	NMS	161	Zinder									['38', '85', '106', '107']							L.Haimberger	0	0.5		2.2	uadb_trhc_61090.txt
465	0-20300-0-63619	0	466	63619	3	MOYALE			0	39.05	3.533		19880929	19910908	1	0	63	NMS	68	Moyale									['38', '85', '106', '107']							L.Haimberger	0	0.3		2.6	uadb_windc_63619.txt
466	0-20000-0-42895	0	467	42895	3	BALASORE			0	86.93333333333334	21.516666666666666		19770622	19880222	1	0	63	NMS	104	Baleshwar									['38', '85', '106', '107']							L.Haimberger	0	1.9		0.7	uadb_trhc_42895.txt
467	0-20000-0-14307	0	468	13209	3	PULA AERODROME			0	13.931944444444444	44.89638888888889		19820301	19820505	1	0	63	NMS	97	Pula									['38', '85', '106', '107']							L.Haimberger	0	1.0		6.7	uadb_trhc_13209.txt
468	0-20000-0-04231	0	469	4231	3	MITTARFIK KANGERLUSSUAQ (SDR. STROEMFJORD LUFTHAVN)			0	-50.71666666666667	67.01666666666667		19490103	19500412	1	0	63	NMS	83	Nuuk									['38', '85', '106', '107']							L.Haimberger	0	4.1		317.1	uadb_trhc_4231.txt
469	0-20600-0-53821	0	470	53821	3	Hongde, China			0	107.2	36.77		19710419	19870719	1	0	63	NMS	47	Pingliang									['38', '85', '106', '107']							L.Haimberger	0	0.0		144.2	uadb_trhc_53821.txt
470	0-20000-0-57046	0	471	57046	3	HUA SHAN			0	110.08333333333331	34.48333333333333		19730118	19850429	1	0	63	NMS	47	Weinan									['38', '85', '106', '107']							L.Haimberger	0	3.4		56.2	uadb_trhc_57046.txt
471	0-20000-0-07558	0	472	7558	3	MILLAU			0	3.0194444444444444	44.118611111111115		19660301	19840626	1	0	63	NMS	74	Millau									['38', '85', '106', '107']							L.Haimberger	0	0.2		5.4	uadb_windc_7558.txt
472	0-20000-0-72509	0	473	72509	3	BOSTON/LOGAN INT., MA.			0	-71.03333333333333	42.36666666666667		19620327	19730426	1	0	63	NMS	231	Cambridge									['38', '85', '106', '107']							L.Haimberger	0	4.7		2.1	uadb_trhc_72509.txt
473	0-20000-0-43367	0	474	43368	3	CAR NICOBAR			0	92.83333333333331	9.166666666666666		19720429	19971020	1	0	63	NMS	104	Port Blair									['38', '85', '106', '107']							L.Haimberger	0	2.4		278.5	uadb_trhc_43368.txt
