	primary_id	primary_id_scheme	record_number	secondary_id	secondary_id_scheme	station_name	station_abbreviation	alternative_name	station_crs	longitude	latitude	local_gravity	start_date	end_date	station_type	platform_type	platform_sub_type	operating_institute	operating_territory	city	contact	role	observing_frequency	reporting_time	telecommunication_method	station_automation	measuring_system_model	measuring_system_id	observed_variables	comment	optional_data	bbox_min_longitude	bbox_max_longitude	bbox_min_latitude	bbox_max_latitude	metadata_contact	metadata_contact_role	distance_km	distance_km_minusLat	city_dist_km	elevation	file	inventory
0	0-20000-0-72712	0	1	woudc	3	CARIBOU/MUN., ME.			0	-68.01361111111112	46.86833333333333		1981-08-07	1981-08-07	1	0	63	NMS	231	Edmundston									['126', '137', '106', '107', '117']							L.Haimberger	0	1.3		60.1	191.0	woudc_46.867_-68.03.csv	OSCAR
1	0-20000-0-72469	0	2	woudc	3	DENVER/STAPLETON INT., CO.			0	-104.86944444444444	39.7675		1977-05-24	1977-05-24	1	0	63	NMS	231	Aurora									['126', '137', '106', '107', '117']							L.Haimberger	0	1.2		6.1	1612.0	woudc_39.767_-104.883.csv	OSCAR
2	0-20000-0-42540	0	3	woudc	3	MOUNT ABU			0	72.71666666666667	24.6		1965-03-23	1966-04-17	1	0	63	NMS	104	Mount Abu									['126', '137', '106', '107', '117']							L.Haimberger	0	1.7		0.0	1171.0	woudc_24.6_72.7.csv	OSCAR
3	0-20000-0-72247	0	4	woudc	3	LONGVIEW, TX			0	-94.65	32.35		1976-07-28	1976-10-02	1	0	63	NMS	231	Longview									['126', '137', '106', '107', '117']							L.Haimberger	0	19.1		0.9	124.0	woudc_32.5_-94.75.csv	OSCAR
4	0-20000-0-72293	0	5	woudc	3	SAN DIEGO/MIRAMAR,  NAS, CA.			0	-117.11666666666666	32.833333333333336		1977-05-25	1977-06-22	1	0	63	NMS	231	San Diego									['126', '137', '106', '107', '117']							L.Haimberger	0	11.0		4.4	9.0	woudc_32.75_-117.18.csv	OSCAR
5	0-20000-0-81406	0	6	woudc	3	CAYENNE			0	-52.69	5.17		1974-03-20	1974-03-22	1	0	63	NMS	74	Kourou									['126', '137', '106', '107', '117']							L.Haimberger	0	18.6		20.2	9.0	woudc_5.333_-52.65.csv	OSCAR
6	0-20000-0-78526	0	7	woudc	3	SAN JUAN/INT.,  PUERTO RICO			0	-65.99194444444444	18.43166666666667		1976-09-02	1976-09-10	1	0	63	NMS	181	San Juan									['126', '137', '106', '107', '117']							L.Haimberger	0	15.9		3.3	3.6	woudc_18.483_-66.133.csv	OSCAR
7	0-20000-0-78862	0	8	woudc	3	VC BIRD INT'L AIRPORT ANTIGUA			0	-61.78333333333333	17.116666666666667		1976-09-01	1976-09-10	1	0	63	NMS	3	Basseterre									['126', '137', '106', '107', '117']							L.Haimberger	0	18.4		99.3	10.0	woudc_17.283_-61.783.csv	OSCAR
8	0-20000-0-43003	0	9	woudc	3	BOMBAY / SANTACRUZ			0	72.85	19.116666666666667		1968-12-27	1969-12-15	1	0	63	NMS	104	Thana									['126', '137', '106', '107', '117']							L.Haimberger	0	0.0		15.3	14.6	woudc_19.117_72.85.csv	OSCAR
9	0-20000-0-89611	0	10	woudc	3	CASEY			0	110.52305555555556	-66.2825		1963-02-11	1963-11-15	1	0	63	NMS	13										['126', '137', '106', '107', '117']							L.Haimberger	0	3.6			42.3	woudc_-66.25_110.517.csv	OSCAR
10	0-20000-0-85799	0	11	woudc	3	PUERTO MONTT			0	-73.09777777777778	-41.435		1964-12-09	1965-02-24	1	0	63	NMS	45	Puerto Montt									['126', '137', '106', '107', '117']							L.Haimberger	0	22.2		9.6	84.0	woudc_-41.45_-72.833.csv	OSCAR
11	0-20000-0-72776	0	12	woudc	3	GREAT FALLS, MT.			0	-111.38472222222222	47.46138888888889		1977-05-19	1977-05-23	1	0	63	NMS	231	Great Falls									['126', '137', '106', '107', '117']							L.Haimberger	0	3.6		4.2	1131.0	woudc_47.483_-111.35.csv	OSCAR
12	0-20000-0-72786	0	13	woudc	3	SPOKANE, WA.			0	-117.62666666666668	47.68055555555555		1976-08-05	1976-08-15	1	0	63	NMS	231	Spokane									['126', '137', '106', '107', '117']							L.Haimberger	0	15.8		1.1	721.0	woudc_47.667_-117.417.csv	OSCAR
13	0-20000-0-72456	0	14	woudc	3	TOPEKA/MUN., KS.			0	-95.63055555555556	39.07222222222222		1963-04-27	1963-05-31	1	0	63	NMS	231	Topeka									['126', '137', '106', '107', '117']							L.Haimberger	0	0.6		4.4	268.6	woudc_39.067_-95.633.csv	OSCAR
14	0-20000-0-85201	0	15	woudc	3	LA PAZ/ALTO			0	-68.18333333333334	-16.516666666666666		1965-03-10	1965-09-22	1	0	63	NMS	29	La Paz									['126', '137', '106', '107', '117']							L.Haimberger	0	16.0		12.6	4038.0	woudc_-16.517_-68.033.csv	OSCAR
15	0-20300-0-24001	0	16	woudc	3	AINSWORTH AAF			0	-100.0	42.5833		1986-07-24	1986-07-30	1	0	63	NMS	231	North Platte									['126', '137', '106', '107', '117']							L.Haimberger	0	0.0		174.1	787.9	woudc_42.583_-100.0.csv	IGRA2
16	0-20000-0-72232	0	17	woudc	3	BATON ROUGE, LA, BATON ROUGE METROPOLITAN, RYAN FIELD ARPT			0	-91.14694444444446	30.536944444444448		1969-04-24	1969-06-02	1	0	63	NMS	231	Zachary									['126', '137', '106', '107', '117']							L.Haimberger	0	25.0		21.5	21.0	woudc_30.666_-90.933.csv	OSCAR
17	0-20000-0-94975	0	18	woudc	3	HOBART AIRPORT			0	147.50333333333333	-42.83388888888889		2021-02-01	2021-02-01	1	0	63	NMS	13	Hobart									['126', '137', '106', '107', '117']							L.Haimberger	0	0.7		14.6	27.4	woudc_-42.84_147.5.csv	OSCAR
18	0-20000-0-93781	0	19	woudc	3	CHRISTCHURCH AERO AWS			0	172.52694444444447	-43.48972222222222		1965-03-30	1965-12-22	1	0	63	NMS	170	Christchurch									['126', '137', '106', '107', '117']							L.Haimberger	0	2.0		8.8	35.7	woudc_-43.483_172.55.csv	OSCAR
19	0-20300-0-89671	0	20	woudc	3	ADARE HALLETT			0	170.2167	-72.3		1962-02-19	1963-11-16	1	0	63	NMS	9										['126', '137', '106', '107', '117']							L.Haimberger	0	1.9			5.2	woudc_-72.317_170.217.csv	IGRA2
20	0-20000-0-91701	0	21	woudc	3	KANTON ISLAND			0	-171.71666666666667	-2.7666666666666666		1965-02-24	1965-12-28	1	0	63	NMS	117										['126', '137', '106', '107', '117']							L.Haimberger	0	2.0			2.0	woudc_-2.76_-171.7.csv	OSCAR
21	0-20000-0-71639	0	22	woudc	3	TORONTO BUTTONVILLE A, ONT			0	-79.36999999999999	43.86222222222222		1976-11-23	1994-06-10	1	0	63	NMS	37	Toronto									['126', '137', '106', '107', '117']							L.Haimberger	0	12.2		13.3	198.1	woudc_43.78_-79.47.csv	OSCAR
22	0-20000-0-78807	0	23	woudc	3	COROZAL OESTE			0	-79.56666666666666	8.966666666666667		1980-08-30	1980-09-18	1	0	63	NMS	172	Panama									['126', '137', '106', '107', '117']							L.Haimberger	0	2.6		2.6	45.0	woudc_8.983_-79.55.csv	OSCAR
23	0-20000-0-08383	0	24	woudc	3	HUELVA			0	-6.911666666666667	37.27833333333333		1977-05-17	1983-09-30	1	0	63	NMS	67	Moguer									['126', '137', '106', '107', '117']							L.Haimberger	0	25.4		21.6	20.0	woudc_37.1_-6.733.csv	OSCAR
24	0-20000-0-70261	0	25	woudc	3	FAIRBANKS/INT., AK			0	-147.8766666666667	64.81611111111111		1964-11-10	1965-12-29	1	0	63	NMS	231	College									['126', '137', '106', '107', '117']							L.Haimberger	0	0.5		5.4	135.3	woudc_64.817_-147.867.csv	OSCAR
25	0-20500-0-26459	0	26	woudc	3	POKER FLAT			0	-147.48	65.12		1979-07-16	1982-06-12	1	0	63	NMS	231	College									['126', '137', '106', '107', '117']							L.Haimberger	0	1.5		34.3	196.9008	woudc_65.133_-147.483.csv	WBAN
26	0-20000-0-71748	0	27	woudc	3	GIMLI CLIMATE, MAN			0	-97.05	50.63333333333333		1980-07-15	1985-08-09	1	0	63	NMS	37	Winnipeg									['126', '137', '106', '107', '117']							L.Haimberger	0	0.0		83.8	230.11	woudc_50.633_-97.05.csv	OSCAR
27	0-20000-0-83063	0	28	woudc	3	PORTO NACIONAL (AERO)			0	-48.4	-10.7		1992-09-15	1992-10-21	1	0	63	NMS	30	Porto Nacional									['126', '137', '106', '107', '117']							L.Haimberger	0	11.1		14.3	265.0	woudc_-10.8_-48.4.csv	OSCAR
28	0-20000-0-68010	0	29	woudc	3	OKAUKUEJO			0	15.916666666666666	-19.183333333333334		1992-09-09	1992-10-18	1	0	63	NMS	159	Oshakati									['126', '137', '106', '107', '117']							L.Haimberger	0	2.5		158.5	1100.0	woudc_-19.2_15.9.csv	OSCAR
29	0-20000-0-83362	0	30	woudc	3	CUIABA (AERO)			0	-56.1	-15.65		1992-09-18	1992-10-10	1	0	63	NMS	30	Cuiaba									['126', '137', '106', '107', '117']							L.Haimberger	0	5.5		2.6	152.84	woudc_-15.6_-56.1.csv	OSCAR
30	0-20300-0-78801	0	31	woudc	3	USAF-DS3-601			0	-79.983	9.333		1977-07-16	1977-07-31	1	0	63	NMS	172	Colon									['126', '137', '106', '107', '117']							L.Haimberger	0	0.3		9.5	52.0	woudc_9.33_-79.983.csv	IGRA2
31	0-20000-0-71023	0	32	woudc	3	JIMMY LAKE AWOS, SASK			0	-109.96194444444444	54.90833333333333		1977-02-17	1981-12-01	1	0	63	NMS	37	Grand Centre									['126', '137', '106', '107', '117']							L.Haimberger	0	15.1		42.2	637.1	woudc_54.783_-110.05.csv	OSCAR
32	0-20000-0-74490	0	33	woudc	3	BEDFORD/HANSCOM AFB, MA.			0	-71.28333333333333	42.46666666666667		1969-06-11	1971-03-23	1	0	63	NMS	231	Lexington									['126', '137', '106', '107', '117']							L.Haimberger	0	2.3		3.5	41.0	woudc_42.45_-71.267.csv	OSCAR
33	0-20001-0-71909	0	34	woudc	3	IQALUIT UA, NU			0	-68.55	63.75		1991-11-07	1992-04-01	1	0	63	NMS	37										['126', '137', '106', '107', '117']							L.Haimberger	0	0.0			33.5	woudc_63.75_-68.55.csv	OSCAR
34	0-20000-0-71138	0	35	woudc	3	YORKTON, SASK (71138-0)			0	-102.46166666666667	51.26472222222223		1975-07-26	1978-08-24	1	0	63	NMS	37	Yorkton									['126', '137', '106', '107', '117']							L.Haimberger	0	0.4		5.2	498.3	woudc_51.263_-102.467.csv	OSCAR
35	0-20000-0-89324	0	36	woudc	3	BYRD STATION			0	-119.43805555555556	-80.0111111111111		1963-11-11	1966-12-22	1	0	63	NMS	9										['126', '137', '106', '107', '117']							L.Haimberger	0	2.6			1530.0	woudc_-80.03_-119.517.csv	OSCAR
36	0-20000-0-47186	0	37	woudc	3	National Typhoon Center			0	126.67833333333334	33.331388888888895		2001-02-27	2001-06-09	1	0	63	NMS	121	Fukue									['126', '137', '106', '107', '117']							L.Haimberger	0	25.0		236.4	21.65	woudc_33.5_126.5.csv	OSCAR
37	0-20001-0-72403	0	38	woudc	3	STERLING, VA.			0	-77.48583333333333	38.97666666666667		1962-08-01	1966-06-29	1	0	63	NMS	231	Herndon									['126', '137', '106', '107', '117']							L.Haimberger	0	0.7		8.5	98.0	woudc_38.983_-77.483.csv	OSCAR
38	0-20000-0-10384	0	39	woudc	3	BERLIN-TEMPELHOF			0	13.402222222222225	52.4675		1966-11-02	1973-01-17	1	0	63	NMS	56	Berlin									['126', '137', '106', '107', '117']							L.Haimberger	0	2.1		6.0	49.0	woudc_52.467_13.433.csv	OSCAR
39	0-20000-0-74750	0	40	woudc	3	PALESTINE, TX.			0	-95.71666666666668	31.78333333333333		1975-02-07	1985-06-16	1	0	63	NMS	231	Palestine									['126', '137', '106', '107', '117']							L.Haimberger	0	1.8		9.2	120.7008	woudc_31.8_-95.717.csv	OSCAR
40	0-20000-0-64450	0	41	woudc	3	BRAZZAVILLE /MAYA-MAYA			0	15.25	-4.25		1990-04-06	1992-10-20	1	0	63	NMS	39	Brazzaville									['126', '137', '106', '107', '117']							L.Haimberger	0	3.3		4.5	316.0	woudc_-4.28_15.25.csv	OSCAR
41	0-20000-0-15614	0	42	woudc	3	SOFIA (OBSERV.)			0	23.383333333333333	42.65		1982-02-17	1991-12-25	1	0	63	NMS	22	Novi Iskar									['126', '137', '106', '107', '117']							L.Haimberger	0	18.6		3.3	591.0	woudc_42.817_23.383.csv	OSCAR
42	0-20000-0-43064	0	43	woudc	3	PUNE / LOHOGAON AERODROME			0	73.91666666666667	18.58333333333333		1966-02-10	2011-11-02	1	0	63	NMS	104	Pune									['126', '137', '106', '107', '117']							L.Haimberger	0	2.5		1.8	593.0	woudc_18.6_73.9.csv	OSCAR
43	0-20000-0-16144	0	44	woudc	3	S. PIETRO CAPOFIUME RDS			0	11.6225	44.653888888888886		1984-02-08	1993-12-30	1	0	63	NMS	109	Molinella									['126', '137', '106', '107', '117']							L.Haimberger	0	0.6		5.4	9.0	woudc_44.65_11.617.csv	OSCAR
44	0-20500-0-90002	0	45	woudc	3	SOUTH POLE OBSERVTRY			0	-24.8	-90.0		1962-03-26	1987-12-30	1	0	63	NMS	89										['126', '137', '106', '107', '117']							L.Haimberger	0	1.9			2810.2560000000003	woudc_-89.983_-24.8.csv	WBAN
45	0-20000-0-43371	0	46	woudc	3	THIRUVANANTHAPURAM (43371-0)			0	76.95	8.483333333333333		1969-07-29	2011-12-28	1	0	63	NMS	104	Thiruvananthapuram									['126', '137', '106', '107', '117']							L.Haimberger	0	5.7		2.8	5.2	woudc_8.47_77.0.csv	OSCAR
46	0-20000-0-07503	0	47	woudc	3	BISCAROSSE			0	-1.2475	44.431666666666665		1976-03-16	1983-01-19	1	0	63	NMS	74	La Teste-De-Buch									['126', '137', '106', '107', '117']							L.Haimberger	0	7.3		30.0	39.0	woudc_44.367_-1.233.csv	OSCAR
47	0-20000-0-07588	0	48	woudc	3	ST-AUBAN-SUR-DURANCE			0	5.989722222222222	44.06222222222222		1981-06-16	1997-04-03	1	0	63	NMS	74	Manosque									['126', '137', '106', '107', '117']							L.Haimberger	0	26.8		13.0	461.0	woudc_43.93_5.71.csv	OSCAR
48	0-20001-0-16546	0	49	woudc	3	DECIMOMANNU RDS			0	8.9675	39.34611111111112		1968-07-31	1980-07-25	1	0	63	NMS	109	Assemini									['126', '137', '106', '107', '117']							L.Haimberger	0	12.8		6.4	2.24	woudc_39.25_9.05.csv	OSCAR
49	0-20000-0-06672	0	50	woudc	3	ALTDORF			0	8.621944444444445	46.886944444444445		1966-11-04	1968-07-29	1	0	63	NMS	42	Schwyz									['126', '137', '106', '107', '117']							L.Haimberger	0	9.3		24.7	439.78	woudc_46.817_8.555.csv	OSCAR
50	0-20000-0-71866	0	51	woudc	3	SASKATOON DIEFENBAKER INT'L A, SASK			0	-106.71666666666668	52.16666666666666		1990-08-12	2004-09-11	1	0	63	NMS	37	Saskatoon									['126', '137', '106', '107', '117']							L.Haimberger	0	27.0		44.0	504.1	woudc_52.02_-107.03.csv	OSCAR
51	0-20000-0-15420	0	52	woudc	3	BUCURESTI BANEASA			0	26.078055555555554	44.51055555555556		2015-06-24	2015-10-14	1	0	63	NMS	188	Otopeni									['126', '137', '106', '107', '117']							L.Haimberger	0	0.0		4.4	91.2	woudc_44.511_26.078.csv	OSCAR
52	0-20500-0-94759	0	53	woudc	3	FORT TICONDEROGA			0	-73.4	43.88		2006-06-30	2006-08-30	1	0	63	NMS	231	Rutland									['126', '137', '106', '107', '117']							L.Haimberger	0	19.8		63.8	64.00800000000001	woudc_43.92_-73.64.csv	WBAN
53	0-20000-0-71573	0	54	woudc	3	DELHI CS, ONT			0	-80.55	42.86666666666667		2006-04-24	2006-08-25	1	0	63	NMS	37	Tilsonburg									['126', '137', '106', '107', '117']							L.Haimberger	0	29.9		31.6	231.7	woudc_42.6_-80.6.csv	OSCAR
54	0-20000-0-80222	0	55	woudc	3	BOGOTA/ELDORADO			0	-74.15	4.7		1998-02-16	2008-09-25	1	0	63	NMS	48	Funza									['126', '137', '106', '107', '117']							L.Haimberger	0	1.1		8.2	2546.0	woudc_4.7_-74.14.csv	OSCAR
55	0-20000-0-94870	0	56	woudc	3	MOORABBIN AIRPORT			0	145.0963888888889	-37.98		1965-06-03	1982-09-14	1	0	63	NMS	13	Cranbourne									['126', '137', '106', '107', '117']							L.Haimberger	0	5.6		18.6	12.7	woudc_-38.03_145.1.csv	OSCAR
56	0-20000-0-65344	0	57	woudc	3	COTONOU			0	2.3833333333333333	6.35		2005-01-17	2007-01-26	1	0	63	NMS	25	Ouidah									['126', '137', '106', '107', '117']							L.Haimberger	0	23.0		23.7	9.0	woudc_6.21_2.23.csv	OSCAR
57	0-20000-0-71600	0	58	woudc	3	SABLE ISLAND, NS			0	-60.0	43.91666666666666		2004-07-04	2006-08-31	1	0	63	NMS	37	Sydney									['126', '137', '106', '107', '117']							L.Haimberger	0	1.7		247.0	62.5	woudc_43.93_-60.01.csv	OSCAR
58	0-246-0-101104	0	59	woudc	3	JOKIOINEN OBSERVATORY			0	23.4975	60.81388888888888		1995-01-12	1998-12-17	1	0	63	NMS	69	Forssa									['126', '137', '106', '107', '117']							L.Haimberger	0	1.6		7.5	103.0	woudc_60.8_23.5.csv	OSCAR
59	0-20000-0-72406	0	60	woudc	3	BALTIMORE/BALTIMORE-WASHINGTON INT., MD.			0	-76.66666666666667	39.18333333333333		2006-08-01	2006-08-28	1	0	63	NMS	231	Arnold									['126', '137', '106', '107', '117']							L.Haimberger	0	20.4		1.7	47.0	woudc_39.04_-76.52.csv	OSCAR
60	0-20000-0-72281	0	61	woudc	3	EL CENTRO NAF, CA.			0	-115.68333333333334	32.81666666666667		2006-08-07	2006-08-31	1	0	63	NMS	231	El Centro									['126', '137', '106', '107', '117']							L.Haimberger	0	28.4		17.2	-18.0	woudc_32.81_-115.38.csv	OSCAR
61	0-20000-0-82599	0	62	woudc	3	NATAL (AERO)			0	-35.25	-5.916666666666667		1979-08-10	2000-12-26	1	0	63	NMS	30	Natal									['126', '137', '106', '107', '117']							L.Haimberger	0	8.9		6.3	52.0	woudc_-5.92_-35.17.csv	OSCAR
62	0-20500-0-4846	0	63	woudc	3	VALPARAISO PORTER CO			0	-87.0	41.45		2006-04-19	2006-08-31	1	0	63	NMS	231	Valparaiso									['126', '137', '106', '107', '117']							L.Haimberger	0	5.6		5.9	234.3912	woudc_41.5_-87.0.csv	WBAN
63	0-20000-0-58974	0	64	woudc	3	PENGJIA YU			0	122.06666666666666	25.633333333333333		2022-04-18	2022-10-20	1	0	63	NMS	226	Juifang									['126', '137', '106', '107', '117']							L.Haimberger	0	1.5		63.8	102.0	woudc_25.6279_122.0801.csv	OSCAR
64	0-20000-0-91285	0	65	woudc	3	HILO HI, HAWAII			0	-155.05833333333334	19.71833333333333		1964-12-17	1997-02-05	1	0	63	NMS	231	Hilo									['126', '137', '106', '107', '117']							L.Haimberger	0	0.9		2.8	10.4	woudc_19.717_-155.067.csv	OSCAR
65	0-20600-0-91939	0	66	woudc	3	(made up station ID) Tahiti ozonesonde site, French Polynesia			0	-149.0	-18.0		1995-07-31	1999-12-27	1	0	63	NMS	174	Papara									['126', '137', '106', '107', '117']							L.Haimberger	0	0.0		64.5	-999.0	woudc_-18.0_-149.0.csv	SCHROEDER
66	0-20000-0-70026	0	67	woudc	3	BARROW/W. POST W. ROGERS			0	-156.78333333333333	71.28888888888889		1974-06-14	2008-04-21	1	0	63	NMS	231										['126', '137', '106', '107', '117']							L.Haimberger	0	6.7			11.9	woudc_71.3_-156.6.csv	OSCAR
67	0-20300-0-63799	0	68	woudc	3	MALINDI			0	40.1	-3.217		1999-03-06	2006-01-04	1	0	63	NMS	114	Malindi									['126', '137', '106', '107', '117']							L.Haimberger	0	27.0		26.4	19.0	woudc_-2.99_40.19.csv	IGRA2
68	0-52-130-78954	0	69	woudc	3	GRANTLEY ADAMS			0	-59.48333333333333	13.066666666666666		2006-07-19	2006-08-30	1	0	63	NMS	18	Bridgetown									['126', '137', '106', '107', '117']							L.Haimberger	0	11.8		21.3	56.0	woudc_13.16_-59.43.csv	OSCAR
69	0-20000-0-74001	0	70	woudc	3	REDSTONE ARSENAL, AL.			0	-86.63333333333334	34.6		1999-04-20	2007-12-15	1	0	63	NMS	231	Huntsville									['126', '137', '106', '107', '117']							L.Haimberger	0	13.3		5.1	196.0	woudc_34.72_-86.64.csv	OSCAR
70	0-20300-0-24163	0	71	woudc	3	PASCO			0	-119.1167	46.2667		2006-04-21	2006-05-15	1	0	63	NMS	231	Kennewick									['126', '137', '106', '107', '117']							L.Haimberger	0	8.1		2.2	123.7	woudc_46.2_-119.16.csv	IGRA2
71	0-20000-0-40800	0	72	woudc	3	ESFAHAN			0	51.70611111111111	32.5175		1995-07-31	2011-04-25	1	0	63	NMS	107	Esfahan									['126', '137', '106', '107', '117']							L.Haimberger	0	1.0		16.5	1550.4	woudc_32.51_51.7.csv	OSCAR
72	0-20500-0-93152	0	73	woudc	3	CAJON			0	-117.47	34.3		2006-02-23	2006-08-31	1	0	63	NMS	231	Glendora									['126', '137', '106', '107', '117']							L.Haimberger	0	23.9		33.0	932.9928	woudc_34.4_-117.7.csv	WBAN
73	0-20000-0-42182	0	74	woudc	3	NEW DELHI/SAFDARJUNG			0	77.2	28.58333333333333		1969-01-21	2016-12-07	1	0	63	NMS	104	Sohna									['126', '137', '106', '107', '117']							L.Haimberger	0	13.3		6.4	226.0	woudc_28.4823_77.1266.csv	OSCAR
74	0-20000-0-04202	0	75	woudc	3	PITUFFIK (THULE AIR BASE)			0	-68.75	76.53333333333333		1991-10-07	2003-11-04	1	0	63	NMS	83										['126', '137', '106', '107', '117']							L.Haimberger	0	0.5			77.0	woudc_76.53_-68.74.csv	OSCAR
75	0-20000-0-76679	0	76	woudc	3	AEROP. INTERNACIONAL MEXICO, D.F.			0	-99.19666666666669	19.40361111111111		2006-03-07	2006-09-20	1	0	63	NMS	156	Mexico									['126', '137', '106', '107', '117']							L.Haimberger	0	8.3		12.3	2278.0	woudc_19.33_-99.18.csv	OSCAR
76	0-20500-0-14841	0	77	woudc	3	PELLSTON EMMET CNTY			0	-84.78	45.57		2004-07-01	2004-08-08	1	0	63	NMS	231	Sault Sainte Marie									['126', '137', '106', '107', '117']							L.Haimberger	0	7.9		107.9	216.1032	woudc_45.56_-84.68.csv	WBAN
77	0-20001-0-04417	0	78	woudc	3	GEOSUMMIT			0	-38.45861111111111	72.58027777777778		2008-04-01	2008-07-12	1	0	63	NMS	83										['126', '137', '106', '107', '117']							L.Haimberger	0	2.6			3199.0	woudc_72.6_-38.5.csv	OSCAR
78	0-20000-0-72244	0	79	woudc	3	HOUSTON, TX WILLIAM P HOBBY ARPT			0	-95.27888888888889	29.645		2004-07-08	2006-08-31	1	0	63	NMS	231	West University Place									['126', '137', '106', '107', '117']							L.Haimberger	0	14.4		3.3	15.0	woudc_29.72_-95.4.csv	OSCAR
79	0-20000-0-89571	0	80	woudc	3	DAVIS			0	77.96722222222222	-68.57444444444444		2003-02-20	2019-01-15	1	0	63	NMS	214										['126', '137', '106', '107', '117']							L.Haimberger	0	0.6			23.2	woudc_-68.58_77.97.csv	OSCAR
80	0-20600-0-43551	0	81	woudc	3	(made up station ID) Kaashidhoo SHADOZ ozonesonde site, Maldives			0	73.47	4.97		1999-01-27	1999-03-28	1	0	63	NMS	154	Male									['126', '137', '106', '107', '117']							L.Haimberger	0	0.0		88.9	-999.0	woudc_4.97_73.47.csv	SCHROEDER
81	0-20300-0-94775	0	82	woudc	3	POINT JUDITH			0	-71.4833	41.3667		2006-03-08	2008-07-09	1	0	63	NMS	231	Narragansett									['126', '137', '106', '107', '117']							L.Haimberger	0	4.0		5.1	9.1	woudc_41.4_-71.5.csv	IGRA2
82	0-20000-0-47827	0	83	woudc	3	KAGOSHIMA			0	130.54805555555555	31.555		1969-01-30	2005-03-30	1	0	63	NMS	113	Hayato									['126', '137', '106', '107', '117']							L.Haimberger	0	7.0		18.1	31.67	woudc_31.6_130.6.csv	OSCAR
83	0-20000-0-87938	0	84	woudc	3	USHUAIA AERO			0	-68.30333333333333	-54.84		2008-04-14	2019-11-25	1	0	63	NMS	10	Ushuaia									['126', '137', '106', '107', '117']							L.Haimberger	0	1.2		5.6	57.0	woudc_-54.85_-68.31.csv	OSCAR
84	0-20000-0-84008	0	85	woudc	3	SAN CRISTOBAL (GALAPAGOS)			0	-89.6	-0.9		1998-03-25	2013-12-26	1	0	63	NMS	62										['126', '137', '106', '107', '117']							L.Haimberger	0	3.1			18.0	woudc_-0.92_-89.62.csv	OSCAR
85	0-20000-0-61902	0	86	woudc	3	WIDE AWAKE FIELD (ASCENSION IS.)			0	-14.405555555555557	-7.97		1998-01-02	2010-08-24	1	0	63	NMS	198										['126', '137', '106', '107', '117']							L.Haimberger	0	1.9			79.0	woudc_-7.98_-14.42.csv	OSCAR
86	0-20000-0-71296	0	87	woudc	3	EGBERT CS, ONT			0	-79.78	44.23305555555556		2003-12-15	2011-12-21	1	0	63	NMS	37	Alliston									['126', '137', '106', '107', '117']							L.Haimberger	0	0.3		11.3	251.0	woudc_44.23_-79.78.csv	OSCAR
87	0-20001-0-71569	0	88	woudc	3	BRATT'S LAKE UA, SASK			0	-104.7	50.2		2003-12-11	2011-11-30	1	0	63	NMS	37	Regina									['126', '137', '106', '107', '117']							L.Haimberger	0	0.0		28.4	580.0	woudc_50.2_-104.7.csv	OSCAR
88	0-20000-0-91689	0	89	woudc	3	SUVA			0	178.43333333333334	-18.133333333333333		1997-02-06	2017-12-15	1	0	63	NMS	70										['126', '137', '106', '107', '117']							L.Haimberger	0	3.5			2.0	woudc_-18.13_178.4.csv	OSCAR
89	0-20000-0-17130	0	90	woudc	3	ANKARA BÃ–LGE			0	32.88333333333333	39.95		1994-01-13	2012-12-19	1	0	63	NMS	223	Ankara									['126', '137', '106', '107', '117']							L.Haimberger	0	3.0		5.6	891.0	woudc_39.97_32.86.csv	OSCAR
90	0-20000-0-58968	0	91	woudc	3	TAIBEI			0	121.51666666666668	25.03333333333333		2000-01-21	2022-03-14	1	0	63	NMS	226	Shulin									['126', '137', '106', '107', '117']							L.Haimberger	0	8.5		1.7	9.0	woudc_24.9978_121.4424.csv	OSCAR
91	0-20000-0-82596	0	92	woudc	3	CEARA-MIRIM			0	-35.416666666666664	-5.65		1998-01-05	2017-12-27	1	0	63	NMS	30	Sao Miguel									['126', '137', '106', '107', '117']							L.Haimberger	0	25.8		12.1	61.0	woudc_-5.42_-35.38.csv	OSCAR
92	0-20000-0-94998	0	93	woudc	3	MACQUARIE ISLAND			0	158.93694444444444	-54.49944444444444		1994-03-04	2022-09-01	1	0	63	NMS	13										['126', '137', '106', '107', '117']							L.Haimberger	0	0.2			8.3	woudc_-54.5_158.94.csv	OSCAR
93	0-20000-0-72594	0	94	woudc	3	EUREKA, CA.			0	-124.16666666666669	40.8		1999-01-06	2008-07-12	1	0	63	NMS	231	Eureka									['126', '137', '106', '107', '117']							L.Haimberger	0	2.8		0.3	18.0	woudc_40.8_-124.2.csv	OSCAR
94	0-20000-0-60018	0	95	woudc	3	TENERIFE-GUIMAR			0	-16.38222222222222	28.31833333333333		1996-01-03	2003-05-28	1	0	63	NMS	67	Candelaria									['126', '137', '106', '107', '117']							L.Haimberger	0	19.7		12.0	36.0	woudc_28.46_-16.26.csv	OSCAR
95	0-20000-0-94866	0	96	woudc	3	MELBOURNE AIRPORT			0	144.8322222222222	-37.66555555555556		1982-09-30	2022-08-31	1	0	63	NMS	13	Melbourne									['126', '137', '106', '107', '117']							L.Haimberger	0	10.7		19.7	78.8	woudc_-37.69_144.95.csv	OSCAR
96	0-20000-0-72402	0	97	woudc	3	WALLOPS ISLAND, VA.			0	-75.48333333333333	37.93333333333333		1970-05-06	2016-07-19	1	0	63	NMS	231	Salisbury									['126', '137', '106', '107', '117']							L.Haimberger	0	1.2		48.5	12.2	woudc_37.93_-75.47.csv	OSCAR
97	0-20000-0-48820	0	98	woudc	3	HA NOI			0	105.8	21.03333333333333		2004-09-18	2017-10-19	1	0	63	NMS	239	Hanoi									['126', '137', '106', '107', '117']							L.Haimberger	0	1.5		5.8	6.0	woudc_21.02_105.8.csv	OSCAR
98	0-20000-0-06260	0	99	woudc	3	DE BILT AWS			0	5.179722222222223	52.098888888888894		1992-11-26	2021-09-30	1	0	63	NMS	165	De Bilt									['126', '137', '106', '107', '117']							L.Haimberger	0	0.2		1.2	3.5	woudc_52.1_5.177.csv	OSCAR
99	0-20000-0-16224	0	100	woudc	3	VIGNA DI VALLE			0	12.211388888888887	42.08027777777778		2011-01-25	2020-10-20	1	0	63	NMS	109	Bracciano									['126', '137', '106', '107', '117']							L.Haimberger	0	0.1		4.2	266.0	woudc_42.08_12.21.csv	OSCAR
100	0-20000-0-81200	0	101	woudc	3	ZORG EN HOOP			0	-55.18333333333333	5.816666666666666		1999-09-02	2021-09-28	1	0	63	NMS	206	Paramaribo									['126', '137', '106', '107', '117']							L.Haimberger	0	3.6		6.1	7.0	woudc_5.806_-55.214.csv	OSCAR
101	0-20000-0-06610	0	102	woudc	3	PAYERNE (6610-0)			0	6.9425	46.81166666666666		2021-01-04	2022-10-03	1	0	63	NMS	42	Fribourg									['126', '137', '106', '107', '117']							L.Haimberger	0	0.3		16.5	490.48	woudc_46.81_6.94.csv	OSCAR
102	0-20000-0-47936	0	103	woudc	3	NAHA			0	127.68722222222225	26.20722222222222		1989-09-20	2018-01-30	1	0	63	NMS	113	Haebaru									['126', '137', '106', '107', '117']							L.Haimberger	0	0.4		2.8	50.06	woudc_26.21_127.69.csv	OSCAR
103	0-20001-0-71913	0	104	woudc	3	CHURCHILL A UA, MAN			0	-94.06666666666666	58.73333333333333		1973-10-19	2021-06-30	1	0	63	NMS	37	Thompson									['126', '137', '106', '107', '117']							L.Haimberger	0	0.8		405.0	29.3	woudc_58.74_-94.06.csv	OSCAR
104	0-20001-0-01004	0	105	woudc	3	NY-ALESUND II			0	11.922222222222222	78.92333333333333		1990-10-31	2013-07-17	1	0	63	NMS	166										['126', '137', '106', '107', '117']							L.Haimberger	0	1.0			7.7	woudc_78.93_11.95.csv	OSCAR
105	0-20000-0-47412	0	106	woudc	3	SAPPORO			0	141.32861111111112	43.06		1969-01-09	2018-01-29	1	0	63	NMS	113	Ishikari									['126', '137', '106', '107', '117']							L.Haimberger	0	0.1		16.1	26.2	woudc_43.06_141.33.csv	OSCAR
106	0-20001-0-71203	0	107	woudc	3	KELOWNA UA, BC			0	-119.4002777777778	49.94083333333333		2003-11-19	2017-06-28	1	0	63	NMS	37	Kelowna									['126', '137', '106', '107', '117']							L.Haimberger	0	0.1		6.9	433.1	woudc_49.94_-119.4.csv	OSCAR
107	0-20001-0-03953	0	108	woudc	3	VALENTIA OBSERVATORY (3953-1)			0	-10.243333333333332	51.93805555555555		1994-01-07	2021-12-31	1	0	63	NMS	101	Tralee									['126', '137', '106', '107', '117']							L.Haimberger	0	0.3		52.3	25.0	woudc_51.94_-10.24.csv	OSCAR
108	0-20000-0-89532	0	109	woudc	3	SYOWA			0	39.58111111111111	-69.00527777777778		1966-03-17	2022-11-27	1	0	63	NMS	214										['126', '137', '106', '107', '117']							L.Haimberger	0	0.5			25.5	woudc_-69.01_39.58.csv	OSCAR
109	0-20000-0-11520	0	110	woudc	3	PRAHA-LIBUS			0	14.446944444444444	50.007777777777775		1979-01-30	2022-04-29	1	0	63	NMS	54	Prague									['126', '137', '106', '107', '117']							L.Haimberger	0	1.0		7.1	304.19	woudc_50.0_14.44.csv	OSCAR
110	0-20000-0-10954	0	111	woudc	3	ALTENSTADT			0	10.866666666666667	47.83416666666667		1966-11-02	2022-12-30	1	0	63	NMS	56	Peiting									['126', '137', '106', '107', '117']							L.Haimberger	0	10.7		6.5	985.72	woudc_47.8_11.0.csv	OSCAR
111	0-20000-0-91290	0	112	woudc	3	HILINA PALI ROAD,  HAWAII			0	-155.25	19.35		1998-01-14	2017-12-26	1	0	63	NMS	231	Hilo									['126', '137', '106', '107', '117']							L.Haimberger	0	23.8		33.6	15.0	woudc_19.43_-155.04.csv	OSCAR
112	0-20001-0-71082	0	113	woudc	3	ALERT UA, NU			0	-62.333333333333336	82.5		1987-12-05	2022-06-29	1	0	63	NMS	37										['126', '137', '106', '107', '117']							L.Haimberger	0	0.2			65.4	woudc_82.5_-62.35.csv	OSCAR
113	0-246-0-101932	0	114	woudc	3	SODANKYLA ARCTIC RESEARCH CENTRE			0	26.628888888888888	67.36666666666666		1988-03-14	2006-09-20	1	0	63	NMS	69	Rovaniemi									['126', '137', '106', '107', '117']							L.Haimberger	0	0.0		107.3	179.3	woudc_67.39_26.63.csv	OSCAR
114	0-20000-0-47646	0	115	woudc	3	TATENO			0	140.12583333333333	36.05805555555556		1968-11-28	2022-11-24	1	0	63	NMS	113	Tsukuba									['126', '137', '106', '107', '117']							L.Haimberger	0	0.4		2.4	27.38	woudc_36.06_140.13.csv	OSCAR
115	0-20000-0-06458	0	116	woudc	3	BEAUVECHAIN			0	4.763333333333334	50.74555555555556		1965-09-15	2022-07-29	1	0	63	NMS	20	Brussels									['126', '137', '106', '107', '117']							L.Haimberger	0	29.8		3.9	101.0	woudc_50.8_4.35.csv	OSCAR
116	0-20000-0-71119	0	117	woudc	3	STONY PLAIN UA, ALTA			0	-114.10833333333332	53.5475		1970-10-03	2022-06-22	1	0	63	NMS	37	Spruce Grove									['126', '137', '106', '107', '117']							L.Haimberger	0	0.3		12.3	766.3	woudc_53.55_-114.11.csv	OSCAR
117	0-20000-0-45004	0	118	woudc	3	KOWLOON (45004-0)			0	114.17277777777778	22.31194444444445		2000-01-05	2022-06-29	1	0	63	NMS	94	Shenzhen									['126', '137', '106', '107', '117']							L.Haimberger	0	0.4		25.0	66.4	woudc_22.31_114.17.csv	OSCAR
118	0-20000-0-61980	0	119	woudc	3	SAINT-DENIS/GILLOT (REUNION)			0	55.52861111111111	-20.8925		1998-01-06	2017-12-18	1	0	63	NMS	74	Sainte-Marie									['126', '137', '106', '107', '117']							L.Haimberger	0	19.2		20.9	13.0	woudc_-21.06_55.48.csv	OSCAR
119	0-20000-0-78762	0	120	woudc	3	JUAN SANTAMARIA INT. AIRPORT			0	-84.18333333333334	9.983333333333333		2005-07-08	2017-12-22	1	0	63	NMS	49	San Antonio									['126', '137', '106', '107', '117']							L.Haimberger	0	9.3		2.9	997.0	woudc_10.0_-84.1.csv	OSCAR
120	0-20001-0-10393	0	121	woudc	3	LINDENBERG (10393-1)			0	14.120555555555557	52.20916666666667		1975-01-08	2022-12-07	1	0	63	NMS	56	Furstenwalde									['126', '137', '106', '107', '117']							L.Haimberger	0	0.1		17.8	103.8	woudc_52.21_14.12.csv	OSCAR
121	0-20000-0-47138	0	122	woudc	3	POHANG			0	129.38	36.03194444444444		1995-01-12	2021-12-08	1	0	63	NMS	121	Nagato									['126', '137', '106', '107', '117']							L.Haimberger	0	0.2		246.6	3.58	woudc_36.03_129.38.csv	OSCAR
122	0-20000-0-12374	0	123	woudc	3	LEGIONOWO			0	20.95638888888889	52.407777777777774		1979-01-17	2022-10-26	1	0	63	NMS	178	Legionowo									['126', '137', '106', '107', '117']							L.Haimberger	0	0.9		2.8	106.47	woudc_52.4_20.96.csv	OSCAR
123	0-20001-0-08221	0	124	woudc	3	MADRID/BARAJAS RS			0	-3.579722222222222	40.46527777777778		1994-12-01	2022-12-21	1	0	63	NMS	67	Madrid									['126', '137', '106', '107', '117']							L.Haimberger	0	0.5		5.2	582.0	woudc_40.47_-3.58.csv	OSCAR
124	0-20000-0-93817	0	125	woudc	3	Lauder Observatory			0	169.6838888888889	-45.03777777777778		1986-08-02	2022-06-16	1	0	63	NMS	170	Dunedin									['126', '137', '106', '107', '117']							L.Haimberger	0	0.7		111.5	370.0	woudc_-45.044_169.684.csv	OSCAR
125	0-20000-0-06907	0	126	woudc	3	LAUSANNE			0	6.639722222222222	46.52222222222222		1968-09-20	2020-10-30	1	0	63	NMS	42	Prilly									['126', '137', '106', '107', '117']							L.Haimberger	0	6.4		5.4	456.78	woudc_46.49_6.57.csv	OSCAR
