level_0	index	WIGOS	station_name	latitude	longitude	elevation	ObsRems	original_lat	original_lon	station_id	start_date	end_date	isRadio	distance_km	distance_km_minusLat	inventory	WIGOS_calc	city	city_dist_km	city_lat	city_lon	station_id_igra	WMO_id	Unnamed: 0	date_min	date_max	lat_file	lon_file	file	file_dataset	file_min_date	file_max_date	file_statid	WIGOS_best	variables
0	0	0-20000-0-47636	NAGOYA (47636-0)	35.16777777777777	136.96555555555554	56.4	Automatic weather station (AWS), Climatological station, Precipitation station, Surface land meteorological station (SYNOP), Weather radar, GOS, CLIMAT(C), WRO, RBCN, RBSN(S)	35 10 04N	136 57 56E	47636	999.0	999.0	False	0.5		OSCAR	0-20000-0-47636	nisshin	0.7	35.165834000000004	136.963975						[35.17, 35.17]	[136.97, 136.97]	uadb_windc_47636.txt	ncar	19310107	19490731	47636	0-20000-0-47636	['38', '85', '106', '107']
1	2	0-20000-0-47634	GIFU AB	35.394444444444446	136.86944444444444	42.01	Surface land meteorological station (SYNOP), GOS	35 23 40N	136 52 10E	47634	999.0	999.0	False	26.5		OSCAR	0-20000-0-47634	nisshin	0.7	35.165834000000004	136.963975						[35.17, 35.17]	[136.97, 136.97]	uadb_windc_47636.txt	ncar	19310107	19490731	47636	0-20000-0-47636	['38', '85', '106', '107']
0	0															IGRA2	0-20300-0-nan	nisshin	0.7	35.165834000000004	136.963975						[35.17, 35.17]	[136.97, 136.97]	uadb_windc_47636.txt	ncar	19310107	19490731	47636	0-20000-0-47636	['38', '85', '106', '107']
0	0		NAGOYA	35.25	136.93	17.0688				43312	19461101.0	19580430.0		9.6		WBAN	0-20500-0-43312	nisshin	0.7	35.165834000000004	136.963975						[35.17, 35.17]	[136.97, 136.97]	uadb_windc_47636.txt	ncar	19310107	19490731	47636	0-20000-0-47636	['38', '85', '106', '107']
0	0															CHUAN	0-20400-0-nan	nisshin	0.7	35.165834000000004	136.963975						[35.17, 35.17]	[136.97, 136.97]	uadb_windc_47636.txt	ncar	19310107	19490731	47636	0-20000-0-47636	['38', '85', '106', '107']
0	0		Nagoya, Japan	35.17	136.97	-999.0				47636				0.0		SCHROEDER	0-20600-0-47636	nisshin	0.7	35.165834000000004	136.963975		47636	1333.0	2001-04-01 00:00:00	2001-04-01 00:00:00	[35.17, 35.17]	[136.97, 136.97]	uadb_windc_47636.txt	ncar	19310107	19490731	47636	0-20000-0-47636	['38', '85', '106', '107']
1	1		RJNN Nagoya - Komaki Field (operated by US Air Force), Japan (WBAN=43312)	35.25	136.93	-999.0				47635				9.6		SCHROEDER	0-20600-0-47635	nisshin	0.7	35.165834000000004	136.963975		47635	1332.0	1949-04-01 00:00:00	1956-01-01 00:00:00	[35.17, 35.17]	[136.97, 136.97]	uadb_windc_47636.txt	ncar	19310107	19490731	47636	0-20000-0-47636	['38', '85', '106', '107']
0	0		NAGOYA                   	35.166666666666664	136.96666666666667	55.0				47636				0.5		WMO	0-20700-0-47636	nisshin	0.7	35.165834000000004	136.963975		47636	614.0			[35.17, 35.17]	[136.97, 136.97]	uadb_windc_47636.txt	ncar	19310107	19490731	47636	0-20000-0-47636	['38', '85', '106', '107']
