level_0	index	WIGOS	station_name	latitude	longitude	elevation	ObsRems	original_lat	original_lon	station_id	start_date	end_date	isRadio	distance_km	distance_km_minusLat	inventory	WIGOS_calc	city	city_dist_km	city_lat	city_lon	station_id_igra	WMO_id	Unnamed: 0	date_min	date_max	lat_file	lon_file	file	file_dataset	file_min_date	file_max_date	file_statid	WIGOS_best	variables
0	0	0-20000-0-03769	CHARLWOOD	51.14388888888889	-0.22944444444444445	67.0	Surface land meteorological station (SYNOP), GOS	51 08 38N	000 13 46W	03769	999.0	999.0	False	5.3		OSCAR	0-20000-0-03769	crawley	4.8	51.116667	-0.183333						[51.1, 51.08]	[-0.19999999999998863, -0.22000000000002728]	uadb_windc_3774.txt	ncar	19530501	19920930	3774	0-20000-0-03769	['38', '85', '106', '107']
1	1	0-20000-0-03781	KENLEY AIRFIELD	51.303888888888885	-0.09138888888888888	170.0	Surface land meteorological station (SYNOP), GOS	51 18 14N	000 05 29W	03781	999.0	999.0	False	23.9		OSCAR	0-20000-0-03781	crawley	4.8	51.116667	-0.183333						[51.1, 51.08]	[-0.19999999999998863, -0.22000000000002728]	uadb_windc_3774.txt	ncar	19530501	19920930	3774	0-20000-0-03769	['38', '85', '106', '107']
0	0		CRAWLEY	51.083	-0.217	143.0				03774	1953.0	1992.0	True	2.2		IGRA2	0-20300-0-03774	crawley	4.8	51.116667	-0.183333	UKM00003774					[51.1, 51.08]	[-0.19999999999998863, -0.22000000000002728]	uadb_windc_3774.txt	ncar	19530501	19920930	3774	0-20000-0-03769	['38', '85', '106', '107']
0	0															WBAN	0-20500-0-nan	crawley	4.8	51.116667	-0.183333						[51.1, 51.08]	[-0.19999999999998863, -0.22000000000002728]	uadb_windc_3774.txt	ncar	19530501	19920930	3774	0-20000-0-03769	['38', '85', '106', '107']
0	0															CHUAN	0-20400-0-nan	crawley	4.8	51.116667	-0.183333						[51.1, 51.08]	[-0.19999999999998863, -0.22000000000002728]	uadb_windc_3774.txt	ncar	19530501	19920930	3774	0-20000-0-03769	['38', '85', '106', '107']
0	0		EGKK London (Crawley - Gatwick AP), England, UK	51.08	-0.22	-999.0				3774				2.6		SCHROEDER	0-20600-0-3774	crawley	4.8	51.116667	-0.183333		3774	147.0	1978-03-01 00:00:00	1988-11-01 00:00:00	[51.1, 51.08]	[-0.19999999999998863, -0.22000000000002728]	uadb_windc_3774.txt	ncar	19530501	19920930	3774	0-20000-0-03769	['38', '85', '106', '107']
1	1		(assigned station ID) Oxshott, Surrey, England, UK	51.32	-0.35	-999.0				3772				26.6		SCHROEDER	0-20600-0-3772	crawley	4.8	51.116667	-0.183333		3772	146.0	1904-02-19 00:00:00	1904-02-19 00:00:00	[51.1, 51.08]	[-0.19999999999998863, -0.22000000000002728]	uadb_windc_3774.txt	ncar	19530501	19920930	3774	0-20000-0-03769	['38', '85', '106', '107']
0	0		LONDON/GATWICK APT       	51.15	-0.1833333333333333	-999.0				03776				5.7		WMO	0-20700-0-03776	crawley	4.8	51.116667	-0.183333		03776	1179.0			[51.1, 51.08]	[-0.19999999999998863, -0.22000000000002728]	uadb_windc_3774.txt	ncar	19530501	19920930	3774	0-20000-0-03769	['38', '85', '106', '107']
