file_statid	station_id	station_name	latitude	longitude	elevation	original_lat	original_lon	distance_km	lat_file	lon_file	inventory	WIGOS	WMO_id	WIGOS_calc	file_min_date	file_max_date	start_date	end_date	isRadio	WIGOS_best	city	variables
8430	08430	MURCIA	38.00194444444445	-1.1708333333333334	62.0	38 00 07N	001 10 15W	0.2	[38.0, 37.98]	[-1.1200000000000045, -1.170000000000016]	OSCAR	0-20000-0-08430		0-20000-0-08430	19840527	20211231	999.0	999.0	True	0-20000-0-08430	murcia	['38', '85', '106', '107']
8430	08429	MURCIA/AL CANTARILLA	37.95777777777778	-1.2286111111111113	75.0	37 57 28N	001 13 43W	7.0	[38.0, 37.98]	[-1.1200000000000045, -1.170000000000016]	OSCAR	0-20000-0-08429		0-20000-0-08429	19840527	20211231	999.0	999.0	False	0-20000-0-08430	murcia	['38', '85', '106', '107']
8430	08364	FORTUNA	38.26444444444444	-1.1897222222222223		38 15 52N	001 11 23W	29.4	[38.0, 37.98]	[-1.1200000000000045, -1.170000000000016]	OSCAR	0-20000-0-08364		0-20000-0-08364	19840527	20211231	999.0	999.0	False	0-20000-0-08430	murcia	['38', '85', '106', '107']
8430	08430	MURCIA	38.0019	-1.1708	61.0			0.2	[38.0, 37.98]	[-1.1200000000000045, -1.170000000000016]	IGRA2			0-20300-0-08430	19840527	20211231	1984.0	2021.0	True	0-20000-0-08430	murcia	['38', '85', '106', '107']
8430									[38.0, 37.98]	[-1.1200000000000045, -1.170000000000016]	WBAN			0-20500-0-nan	19840527	20211231				0-20000-0-08430	murcia	['38', '85', '106', '107']
8430									[38.0, 37.98]	[-1.1200000000000045, -1.170000000000016]	CHUAN			0-20400-0-nan	19840527	20211231				0-20000-0-08430	murcia	['38', '85', '106', '107']
8430	8430	Murcia (Zarandona), Spain	37.98	-1.12	-999.0			4.9	[38.0, 37.98]	[-1.1200000000000045, -1.170000000000016]	SCHROEDER		8430	0-20600-0-8430	19840527	20211231				0-20000-0-08430	murcia	['38', '85', '106', '107']
8430	08430	MURCIA ALFONSO X         	37.98333333333333	-1.1166666666666667	-999.0			5.0	[38.0, 37.98]	[-1.1200000000000045, -1.170000000000016]	WMO		08430	0-20700-0-08430	19840527	20211231				0-20000-0-08430	murcia	['38', '85', '106', '107']
8430	08429	MURCIA/ALCANTARILLA      	37.95	-1.2333333333333334	-999.0			7.9	[38.0, 37.98]	[-1.1200000000000045, -1.170000000000016]	WMO		08429	0-20700-0-08429	19840527	20211231				0-20000-0-08430	murcia	['38', '85', '106', '107']
