file_statid	station_id	station_name	latitude	longitude	elevation	original_lat	original_lon	distance_km	lat_file	lon_file	inventory	WIGOS	WMO_id	WIGOS_calc	file_min_date	file_max_date	start_date	end_date	isRadio	WIGOS_best	city	variables
76904	76903	TAPACHULA, CHIS	14.887222222222222	-92.29638888888888	118.0	14 53 14N	092 17 47W	23.5	[14.92, 14.7]	[-92.25, -92.39999999999998]	OSCAR	0-20000-0-76903		0-20000-0-76903	19970912	20020507	999.0	999.0	False	0-20000-0-76903	tapachula	['38', '85', '106', '107']
76904	76903	TAPACHULA	14.9167	-92.25	118.0			28.9	[14.92, 14.7]	[-92.25, -92.39999999999998]	IGRA2			0-20300-0-76903	19970912	20020507	2011.0	2021.0	True	0-20000-0-76903	tapachula	['38', '85', '106', '107']
76904									[14.92, 14.7]	[-92.25, -92.39999999999998]	WBAN			0-20500-0-nan	19970912	20020507				0-20000-0-76903	tapachula	['38', '85', '106', '107']
76904									[14.92, 14.7]	[-92.25, -92.39999999999998]	CHUAN			0-20400-0-nan	19970912	20020507				0-20000-0-76903	tapachula	['38', '85', '106', '107']
76904	76921	Puerto Madero Naval Facility PACS-SONET pibal site (operated by SMAM = Secretaria de Marina Armada de Mexico [Mexican Navy]), Chiapas, Mexico	14.7	-92.4	-999.0			0.0	[14.92, 14.7]	[-92.25, -92.39999999999998]	SCHROEDER		76921	0-20600-0-76921	19970912	20020507				0-20000-0-76903	tapachula	['38', '85', '106', '107']
76904	76904	Tapachula AP (Operated by Pan American Airways), Chiapas, Mexico	14.88	-92.3	-999.0			22.6	[14.92, 14.7]	[-92.25, -92.39999999999998]	SCHROEDER		76904	0-20600-0-76904	19970912	20020507				0-20000-0-76903	tapachula	['38', '85', '106', '107']
76904	76903	Tapachula, Chiapas, Mexico	14.92	-92.27	-999.0			28.1	[14.92, 14.7]	[-92.25, -92.39999999999998]	SCHROEDER		76903	0-20600-0-76903	19970912	20020507				0-20000-0-76903	tapachula	['38', '85', '106', '107']
76904	76904	TAPACHULA                	14.916666666666666	-92.26666666666668	-999.0			27.9	[14.92, 14.7]	[-92.25, -92.39999999999998]	WMO		76904	0-20700-0-76904	19970912	20020507				0-20000-0-76903	tapachula	['38', '85', '106', '107']
76904	76903	TAPACHULA                	14.9	-92.26666666666668	-999.0			26.4	[14.92, 14.7]	[-92.25, -92.39999999999998]	WMO		76903	0-20700-0-76903	19970912	20020507				0-20000-0-76903	tapachula	['38', '85', '106', '107']
