level_0	index	WIGOS	station_name	latitude	longitude	elevation	ObsRems	original_lat	original_lon	station_id	start_date	end_date	isRadio	distance_km	distance_km_minusLat	inventory	WIGOS_calc	city	city_dist_km	city_lat	city_lon	station_id_igra	WMO_id	Unnamed: 0	date_min	date_max	lat_file	lon_file	file	file_dataset	file_min_date	file_max_date	file_statid	WIGOS_best	variables
0	0	0-20000-0-83928	URUGUAIANA (AERO)	-29.783333333333335	-57.03333333333333	74.0	Upper-air / Radiosonde station, Surface land meteorological station (SYNOP), RBSN(T), GOS	29 47 00S	057 02 00W	83928	999.0	999.0	True	0.5		OSCAR	0-20000-0-83928	uruguaiana	6.1	-29.75	-57.083333						[-29.78, -29.78]	[-57.02999999999997, -57.02999999999997]	uadb_windc_83928.txt	ncar	20180101	20211231	83928	0-20000-0-83928	['38', '85', '106', '107']
1	2	0-20000-0-83927	URUGUAIANA (83927-0)	-29.75	-57.083333333333336	62.0	Surface land meteorological station (SYNOP), RBSN(S), GOS	29 45 00S	057 05 00W	83927	999.0	999.0	False	6.1		OSCAR	0-20000-0-83927	uruguaiana	6.1	-29.75	-57.083333						[-29.78, -29.78]	[-57.02999999999997, -57.02999999999997]	uadb_windc_83928.txt	ncar	20180101	20211231	83928	0-20000-0-83928	['38', '85', '106', '107']
2	3	0-20000-0-86973	URUGUAIANA (86973-0)	-29.842499999999998	-57.0825	63.81	Surface land meteorological station (SYNOP), GOS	29 50 33S	057 04 57W	86973	999.0	999.0	False	8.6		OSCAR	0-20000-0-86973	uruguaiana	6.1	-29.75	-57.083333						[-29.78, -29.78]	[-57.02999999999997, -57.02999999999997]	uadb_windc_83928.txt	ncar	20180101	20211231	83928	0-20000-0-83928	['38', '85', '106', '107']
3	4	0-20000-0-87289	PASO DE LOS LIBRES AERO	-29.689444444444444	-57.14861111111111	70.0	Climatological station, Surface land meteorological station (SYNOP), GOS, CLIMAT(C), RBSN(S), GSN, RBCN	29 41 22S	057 08 55W	87289	999.0	999.0	False	15.2		OSCAR	0-20000-0-87289	uruguaiana	6.1	-29.75	-57.083333						[-29.78, -29.78]	[-57.02999999999997, -57.02999999999997]	uadb_windc_83928.txt	ncar	20180101	20211231	83928	0-20000-0-83928	['38', '85', '106', '107']
0	0		URUGUAIANA (AERO)	-29.7833	-57.0333	74.0				83928	1973.0	2021.0	True	0.5		IGRA2	0-20300-0-83928	uruguaiana	6.1	-29.75	-57.083333	BRM00083928					[-29.78, -29.78]	[-57.02999999999997, -57.02999999999997]	uadb_windc_83928.txt	ncar	20180101	20211231	83928	0-20000-0-83928	['38', '85', '106', '107']
0	0															WBAN	0-20500-0-nan	uruguaiana	6.1	-29.75	-57.083333						[-29.78, -29.78]	[-57.02999999999997, -57.02999999999997]	uadb_windc_83928.txt	ncar	20180101	20211231	83928	0-20000-0-83928	['38', '85', '106', '107']
0	0															CHUAN	0-20400-0-nan	uruguaiana	6.1	-29.75	-57.083333						[-29.78, -29.78]	[-57.02999999999997, -57.02999999999997]	uadb_windc_83928.txt	ncar	20180101	20211231	83928	0-20000-0-83928	['38', '85', '106', '107']
0	0		Uruguaiana AP, Brazil	-29.78	-57.03	-999.0				83928				0.0		SCHROEDER	0-20600-0-83928	uruguaiana	6.1	-29.75	-57.083333		83928	3539.0	9999999	9999999	[-29.78, -29.78]	[-57.02999999999997, -57.02999999999997]	uadb_windc_83928.txt	ncar	20180101	20211231	83928	0-20000-0-83928	['38', '85', '106', '107']
0	0		PASO DE LOS LIBRES AERO  	-29.683333333333334	-57.15	-999.0				87289				15.8		WMO	0-20700-0-87289	uruguaiana	6.1	-29.75	-57.083333		87289	1420.0			[-29.78, -29.78]	[-57.02999999999997, -57.02999999999997]	uadb_windc_83928.txt	ncar	20180101	20211231	83928	0-20000-0-83928	['38', '85', '106', '107']
