file_statid	station_id	station_name	latitude	longitude	elevation	original_lat	original_lon	distance_km	lat_file	lon_file	inventory	WIGOS	WMO_id	WIGOS_calc	file_min_date	file_max_date	start_date	end_date	isRadio	WIGOS_best	city	variables
6060	06060	FLYVESTATION KARUP	56.29333333333333	9.113888888888889	53.0	56 17 36N	009 06 50E	0.8	[56.3, 56.28]	[9.13, 9.12]	OSCAR	0-20000-0-06060		0-20000-0-06060	19990428	20211214	999.0	999.0	True	0-20000-0-06060	ikast	['38', '85', '106', '107']
6060	06068	ISENVAD	56.09388888888889	9.181111111111111	61.95	56 05 38N	009 10 52E	23.3	[56.3, 56.28]	[9.13, 9.12]	OSCAR	0-20000-0-06068		0-20000-0-06068	19990428	20211214	999.0	999.0	False	0-20000-0-06060	ikast	['38', '85', '106', '107']
6060	06056	MEJRUP	56.38305555555556	8.670277777777777	54.62	56 22 59N	008 40 13E	29.3	[56.3, 56.28]	[9.13, 9.12]	OSCAR	0-20000-0-06056		0-20000-0-06056	19990428	20211214	999.0	999.0	False	0-20000-0-06060	ikast	['38', '85', '106', '107']
6060	06060	FLYVESTATION KARUP	56.2933	9.1139	52.1			0.8	[56.3, 56.28]	[9.13, 9.12]	IGRA2			0-20300-0-06060	19990428	20211214	1999.0	2020.0	True	0-20000-0-06060	ikast	['38', '85', '106', '107']
6060									[56.3, 56.28]	[9.13, 9.12]	WBAN			0-20500-0-nan	19990428	20211214				0-20000-0-06060	ikast	['38', '85', '106', '107']
6060									[56.3, 56.28]	[9.13, 9.12]	CHUAN			0-20400-0-nan	19990428	20211214				0-20000-0-06060	ikast	['38', '85', '106', '107']
6060	6060	Karup, Denmark	56.2936	9.1129	-999.0			0.8	[56.3, 56.28]	[9.13, 9.12]	SCHROEDER		6060.0	0-20600-0-6060	19990428	20211214				0-20000-0-06060	ikast	['38', '85', '106', '107']
6060	6061	(made up station ID) Hald og Dollerup Bakker, Denmark	56.38	9.32	-999.0			15.2	[56.3, 56.28]	[9.13, 9.12]	SCHROEDER		6061.0	0-20600-0-6061	19990428	20211214				0-20000-0-06060	ikast	['38', '85', '106', '107']
6060									[56.3, 56.28]	[9.13, 9.12]	WMO			0-20700-0-nan	19990428	20211214				0-20000-0-06060	ikast	['38', '85', '106', '107']
