level_0	index	WIGOS	station_name	latitude	longitude	elevation	ObsRems	original_lat	original_lon	station_id	start_date	end_date	isRadio	distance_km	distance_km_minusLat	inventory	WIGOS_calc	city	city_dist_km	city_lat	city_lon	station_id_igra	WMO_id	Unnamed: 0	date_min	date_max	lat_file	lon_file	file	file_dataset	file_min_date	file_max_date	file_statid	WIGOS_best	variables
0	0	0-20000-0-61998	PORT-AUX-FRANCAIS (ILES KERGUELEN)	-49.352222222222224	70.24333333333334	30.0	Climatological station, Upper-air / Radiosonde station, Surface land meteorological station (SYNOP), GOS, CTBTO, RBSN(ST), ANTON(T), RBCN, GUAN, CLIMAT(C), GSN, ANTON	49 21 08S	070 14 36E	61998	999	999	True	3.0		OSCAR	0-20000-0-61998	None	None	None	None						[-49.33, -49.35]	[70.25, 70.22]	uadb_windc_61998.txt	ncar	19680201	20190704	61998	0-20000-0-61998	['38', '85', '106', '107']
0	0		PORT-AUX-FRANCAIS	-49.3522	70.2433	29.0				61998	1968	2018	True	3.0		IGRA2	0-20300-0-61998	None	None	None	None	FSM00061998					[-49.33, -49.35]	[70.25, 70.22]	uadb_windc_61998.txt	ncar	19680201	20190704	61998	0-20000-0-61998	['38', '85', '106', '107']
0	0															WBAN	0-20500-0-nan	None	None	None	None						[-49.33, -49.35]	[70.25, 70.22]	uadb_windc_61998.txt	ncar	19680201	20190704	61998	0-20000-0-61998	['38', '85', '106', '107']
0	0		Base de Port aux Français	-49.352	70.243	29				4403	195001	-999-999		3.0		CHUAN	0-20400-0-4403	None	None	None	None		61998				[-49.33, -49.35]	[70.25, 70.22]	uadb_windc_61998.txt	ncar	19680201	20190704	61998	0-20000-0-61998	['38', '85', '106', '107']
1	1		Base de Port aux Français	-49.352	70.243	29				4404	195001	-999-999		3.0		CHUAN	0-20400-0-4404	None	None	None	None		61998				[-49.33, -49.35]	[70.25, 70.22]	uadb_windc_61998.txt	ncar	19680201	20190704	61998	0-20000-0-61998	['38', '85', '106', '107']
0	0		Port-aux-Francais, Kerguelen Island (France)	-49.33	70.22	-999				61998				0.0		SCHROEDER	0-20600-0-61998	None	None	None	None		61998	1895.0	1979-04-01 00:00:00	1987-10-01 00:00:00	[-49.33, -49.35]	[70.25, 70.22]	uadb_windc_61998.txt	ncar	19680201	20190704	61998	0-20000-0-61998	['38', '85', '106', '107']
0	0		PORT AUX FRANCAIS        	-49.35	70.25	30.0				61998				3.1		WMO	0-20700-0-61998	None	None	None	None		61998	8.0			[-49.33, -49.35]	[70.25, 70.22]	uadb_windc_61998.txt	ncar	19680201	20190704	61998	0-20000-0-61998	['38', '85', '106', '107']
