file_statid	station_id	station_name	latitude	longitude	elevation	original_lat	original_lon	distance_km	lat_file	lon_file	inventory	WIGOS	WMO_id	WIGOS_calc	file_min_date	file_max_date	start_date	end_date	isRadio	WIGOS_best	city	variables
47590	47590	SENDAI (47590-0)	38.261944444444445	140.89666666666665	43.79	38 15 43N	140 53 48E	4.2	[38.3, 38.27]	[140.9, 140.9]	OSCAR	0-20000-0-47590		0-20000-0-47590	19400510	20080331	999.0	999.0	False	0-20000-0-47590	rifu	['38', '85', '106', '107']
47590	47567	KASUMINOME AB	38.23555555555556	140.92305555555555	10.01	38 14 08N	140 55 23E	7.4	[38.3, 38.27]	[140.9, 140.9]	OSCAR	0-20000-0-47567		0-20000-0-47567	19400510	20080331	999.0	999.0	False	0-20000-0-47590	rifu	['38', '85', '106', '107']
47590	47569	SENDAI AIRPORT	38.13972222222222	140.91694444444443	4.71	38 08 23N	140 55 01E	17.9	[38.3, 38.27]	[140.9, 140.9]	OSCAR	0-20000-0-47569		0-20000-0-47569	19400510	20080331	999.0	999.0	False	0-20000-0-47590	rifu	['38', '85', '106', '107']
47590	47591	MATSUSHIMA AB	38.403055555555554	141.21194444444444	5.13	38 24 11N	141 12 43E	29.6	[38.3, 38.27]	[140.9, 140.9]	OSCAR	0-20000-0-47591		0-20000-0-47591	19400510	20080331	999.0	999.0	False	0-20000-0-47590	rifu	['38', '85', '106', '107']
47590	47590	SENDAI	38.267	140.9	43.0			3.7	[38.3, 38.27]	[140.9, 140.9]	IGRA2			0-20300-0-47590	19400510	20080331	1956.0	2008.0	True	0-20000-0-47590	rifu	['38', '85', '106', '107']
47590	43402	KASUMINOM	38.22	140.92	8.2296			9.1	[38.3, 38.27]	[140.9, 140.9]	WBAN			0-20500-0-43402	19400510	20080331	19541201.0	19560731.0		0-20000-0-47590	rifu	['38', '85', '106', '107']
47590									[38.3, 38.27]	[140.9, 140.9]	CHUAN			0-20400-0-nan	19400510	20080331				0-20000-0-47590	rifu	['38', '85', '106', '107']
47590	47590	Sendai, Japan	38.27	140.9	-999.0			3.3	[38.3, 38.27]	[140.9, 140.9]	SCHROEDER		47590	0-20600-0-47590	19400510	20080331				0-20000-0-47590	rifu	['38', '85', '106', '107']
47590	47590	SENDAI                   	38.266666666666666	140.9	43.0			3.7	[38.3, 38.27]	[140.9, 140.9]	WMO		47590	0-20700-0-47590	19400510	20080331				0-20000-0-47590	rifu	['38', '85', '106', '107']
