file_statid	station_id	station_name	latitude	longitude	elevation	original_lat	original_lon	distance_km	lat_file	lon_file	inventory	WIGOS	WMO_id	WIGOS_calc	file_min_date	file_max_date	start_date	end_date	isRadio	WIGOS_best	city	variables
76394	76394	AEROP.INTERNACIONAL MONTERREY, N.L.	25.866666666666667	-100.23333333333333		25 52 00N	100 14 00W	0.5	[25.87, 25.87]	[-100.23000000000002, -100.23000000000002]	OSCAR	0-20000-0-76394		0-20000-0-76394	20180104	20211219	999.0	999.0	True	0-20000-0-76394	cienaga de flores	['38', '85', '106', '107']
76394	76393	MONTERREY, N.L.	25.6825	-100.27166666666666	515.0	25 40 57N	100 16 18W	21.2	[25.87, 25.87]	[-100.23000000000002, -100.23000000000002]	OSCAR	0-20000-0-76393		0-20000-0-76393	20180104	20211219	999.0	999.0	False	0-20000-0-76394	cienaga de flores	['38', '85', '106', '107']
76394	76394	AEROP.INTERNACIONAL MONTERREY,	25.8667	-100.2333	448.0			0.5	[25.87, 25.87]	[-100.23000000000002, -100.23000000000002]	IGRA2			0-20300-0-76394	20180104	20211219	1964.0	2021.0	True	0-20000-0-76394	cienaga de flores	['38', '85', '106', '107']
76394	22012	MONTERREY	25.87	-100.25	423.0624			2.0	[25.87, 25.87]	[-100.23000000000002, -100.23000000000002]	WBAN			0-20500-0-22012	20180104	20211219	19640901.0	99991231.0		0-20000-0-76394	cienaga de flores	['38', '85', '106', '107']
76394									[25.87, 25.87]	[-100.23000000000002, -100.23000000000002]	CHUAN			0-20400-0-nan	20180104	20211219				0-20000-0-76394	cienaga de flores	['38', '85', '106', '107']
76394	76394	Monterrey - Del Norte AP, Nuevo Leon, Mexico	25.87	-100.25	-999.0			2.0	[25.87, 25.87]	[-100.23000000000002, -100.23000000000002]	SCHROEDER		76394	0-20600-0-76394	20180104	20211219				0-20000-0-76394	cienaga de flores	['38', '85', '106', '107']
76394	76393	MONTERREY                	25.666666666666668	-100.3	-999.0			23.6	[25.87, 25.87]	[-100.23000000000002, -100.23000000000002]	WMO		76393	0-20700-0-76393	20180104	20211219				0-20000-0-76394	cienaga de flores	['38', '85', '106', '107']
