file_statid	station_id	station_name	latitude	longitude	elevation	original_lat	original_lon	distance_km	lat_file	lon_file	inventory	WIGOS	WMO_id	WIGOS_calc	file_min_date	file_max_date	start_date	end_date	isRadio	WIGOS_best	city	variables
82244	82244	SANTAREM (AERO)	-2.4333333333333336	-54.71666666666667	72.0	02 26 00S	054 43 00W	7.2	[-2.42, -2.42]	[-54.77999999999997, -54.77999999999997]	OSCAR	0-20000-0-82244		0-20000-0-82244	20180101	20211231	999.0	999.0	True	0-20000-0-82244	santarem	['38', '85', '106', '107']
82244	82244	SANTAREM (AERO)	-2.4333	-54.7167	72.0			7.2	[-2.42, -2.42]	[-54.77999999999997, -54.77999999999997]	IGRA2			0-20300-0-82244	20180101	20211231	1973.0	2021.0	True	0-20000-0-82244	santarem	['38', '85', '106', '107']
82244									[-2.42, -2.42]	[-54.77999999999997, -54.77999999999997]	WBAN			0-20500-0-nan	20180101	20211231				0-20000-0-82244	santarem	['38', '85', '106', '107']
82244									[-2.42, -2.42]	[-54.77999999999997, -54.77999999999997]	CHUAN			0-20400-0-nan	20180101	20211231				0-20000-0-82244	santarem	['38', '85', '106', '107']
82244	82244	Santarem AP, Brazil	-2.43	-54.72	-999.0			6.8	[-2.42, -2.42]	[-54.77999999999997, -54.77999999999997]	SCHROEDER		82244	0-20600-0-82244	20180101	20211231				0-20000-0-82244	santarem	['38', '85', '106', '107']
82244	82245	(made up station ID) Santarem AP, Brazil sodar	-2.43	-54.72	-999.0			6.8	[-2.42, -2.42]	[-54.77999999999997, -54.77999999999997]	SCHROEDER		82245	0-20600-0-82245	20180101	20211231				0-20000-0-82244	santarem	['38', '85', '106', '107']
82244	82247	(made up station ID) Pindobal, Brazil	-2.57	-54.97	-999.0			26.9	[-2.42, -2.42]	[-54.77999999999997, -54.77999999999997]	SCHROEDER		82247	0-20600-0-82247	20180101	20211231				0-20000-0-82244	santarem	['38', '85', '106', '107']
82244	82243	TAPERINHA                	-2.4166666666666665	-54.7	-999.0			8.9	[-2.42, -2.42]	[-54.77999999999997, -54.77999999999997]	WMO		82243	0-20700-0-82243	20180101	20211231				0-20000-0-82244	santarem	['38', '85', '106', '107']
