level_0	index	WIGOS	station_name	latitude	longitude	elevation	ObsRems	original_lat	original_lon	station_id	start_date	end_date	isRadio	distance_km	distance_km_minusLat	inventory	WIGOS_calc	city	city_dist_km	city_lat	city_lon	station_id_igra	WMO_id	Unnamed: 0	date_min	date_max	lat_file	lon_file	file	file_dataset	file_min_date	file_max_date	file_statid	WIGOS_best	variables
0	0	0-20000-0-06060	FLYVESTATION KARUP	56.29333333333333	9.113888888888889	53.0	Upper-air / Radiosonde station, Surface land meteorological station (SYNOP), RBSN(S), GOS	56 17 36N	009 06 50E	06060	999.0	999.0	True	0.8		OSCAR	0-20000-0-06060	ikast	16.1	56.136747	9.160023						[56.3, 56.28]	[9.13, 9.12]	uadb_windc_6060.txt	ncar	19990428	20211214	6060	0-20000-0-06060	['38', '85', '106', '107']
1	1	0-20000-0-06068	ISENVAD	56.09388888888889	9.181111111111111	61.95	Surface land meteorological station (SYNOP), GOS	56 05 38N	009 10 52E	06068	999.0	999.0	False	23.3		OSCAR	0-20000-0-06068	ikast	16.1	56.136747	9.160023						[56.3, 56.28]	[9.13, 9.12]	uadb_windc_6060.txt	ncar	19990428	20211214	6060	0-20000-0-06060	['38', '85', '106', '107']
2	2	0-20000-0-06056	MEJRUP	56.38305555555556	8.670277777777777	54.62	Surface land meteorological station (SYNOP), GOS	56 22 59N	008 40 13E	06056	999.0	999.0	False	29.3		OSCAR	0-20000-0-06056	ikast	16.1	56.136747	9.160023						[56.3, 56.28]	[9.13, 9.12]	uadb_windc_6060.txt	ncar	19990428	20211214	6060	0-20000-0-06060	['38', '85', '106', '107']
0	0		FLYVESTATION KARUP	56.2933	9.1139	52.1				06060	1999.0	2020.0	True	0.8		IGRA2	0-20300-0-06060	ikast	16.1	56.136747	9.160023	DAM00006060					[56.3, 56.28]	[9.13, 9.12]	uadb_windc_6060.txt	ncar	19990428	20211214	6060	0-20000-0-06060	['38', '85', '106', '107']
0	0															WBAN	0-20500-0-nan	ikast	16.1	56.136747	9.160023						[56.3, 56.28]	[9.13, 9.12]	uadb_windc_6060.txt	ncar	19990428	20211214	6060	0-20000-0-06060	['38', '85', '106', '107']
0	0															CHUAN	0-20400-0-nan	ikast	16.1	56.136747	9.160023						[56.3, 56.28]	[9.13, 9.12]	uadb_windc_6060.txt	ncar	19990428	20211214	6060	0-20000-0-06060	['38', '85', '106', '107']
0	0		Karup, Denmark	56.2936	9.1129	-999.0				6060				0.8		SCHROEDER	0-20600-0-6060	ikast	16.1	56.136747	9.160023		6060.0	213.0	1999-04-28 00:00:00	1999-04-28 00:00:00	[56.3, 56.28]	[9.13, 9.12]	uadb_windc_6060.txt	ncar	19990428	20211214	6060	0-20000-0-06060	['38', '85', '106', '107']
1	1		(made up station ID) Hald og Dollerup Bakker, Denmark	56.38	9.32	-999.0				6061				15.2		SCHROEDER	0-20600-0-6061	ikast	16.1	56.136747	9.160023		6061.0	214.0	1902-06-01 00:00:00	1902-06-01 00:00:00	[56.3, 56.28]	[9.13, 9.12]	uadb_windc_6060.txt	ncar	19990428	20211214	6060	0-20000-0-06060	['38', '85', '106', '107']
0	0															WMO	0-20700-0-nan	ikast	16.1	56.136747	9.160023						[56.3, 56.28]	[9.13, 9.12]	uadb_windc_6060.txt	ncar	19990428	20211214	6060	0-20000-0-06060	['38', '85', '106', '107']
