level_0	index	WIGOS	station_name	latitude	longitude	elevation	ObsRems	original_lat	original_lon	station_id	start_date	end_date	isRadio	distance_km	distance_km_minusLat	inventory	WIGOS_calc	city	city_dist_km	city_lat	city_lon	station_id_igra	WMO_id	Unnamed: 0	date_min	date_max	lat_file	lon_file	file	file_dataset	file_min_date	file_max_date	file_statid	WIGOS_best	variables
0	0	0-20001-0-34882	ASTRAHAN' (34882-1)	46.28333333333333	47.983333333333334		Upper-air / Radiosonde station, GOS, RBSN(T)	46 17 00N	047 59 00E	34882	999	999	True	2.1		OSCAR	0-20001-0-34882	astrakhan	8.1	46.349683	48.040756						[46.28, 46.28]	[48.01, 48.01]	uadb_windc_34882.txt	ncar	20180101	20211231	34882	0-20001-0-34882	['38', '85', '106', '107']
1	1	0-20000-0-34880	ASTRAHAN' (34880-0)	46.28333333333333	47.983333333333334	-20.6	Climatological station, Surface land meteorological station (SYNOP), RBCN, GOS, GSN, CLIMAT(C), RBSN(S)	46 17 00N	047 59 00E	34880	999	999	False	2.1		OSCAR	0-20000-0-34880	astrakhan	8.1	46.349683	48.040756						[46.28, 46.28]	[48.01, 48.01]	uadb_windc_34882.txt	ncar	20180101	20211231	34882	0-20001-0-34882	['38', '85', '106', '107']
0	0		ASTRAHAN	46.2833	47.9833	-17.0				34882	1939	2021	True	2.1		IGRA2	0-20300-0-34882	astrakhan	8.1	46.349683	48.040756	RSM00034882					[46.28, 46.28]	[48.01, 48.01]	uadb_windc_34882.txt	ncar	20180101	20211231	34882	0-20001-0-34882	['38', '85', '106', '107']
0	0															WBAN	0-20500-0-nan	astrakhan	8.1	46.349683	48.040756						[46.28, 46.28]	[48.01, 48.01]	uadb_windc_34882.txt	ncar	20180101	20211231	34882	0-20001-0-34882	['38', '85', '106', '107']
0	0		Astrakhan	46.35	47.97	-24				6159	-999-999	-999-999		8.4		CHUAN	0-20400-0-6159	astrakhan	8.1	46.349683	48.040756		-999				[46.28, 46.28]	[48.01, 48.01]	uadb_windc_34882.txt	ncar	20180101	20211231	34882	0-20001-0-34882	['38', '85', '106', '107']
0	0		Astrakhan, Russia	46.34	48.04	-999				34880				7.1		SCHROEDER	0-20600-0-34880	astrakhan	8.1	46.349683	48.040756		34880	858.0	1935-01-01 00:00:00	2006-02-14 00:00:00	[46.28, 46.28]	[48.01, 48.01]	uadb_windc_34882.txt	ncar	20180101	20211231	34882	0-20001-0-34882	['38', '85', '106', '107']
0	0		ASTRAHAN'                	46.266666666666666	48.03333333333333	-21.0				34880				2.3		WMO	0-20700-0-34880	astrakhan	8.1	46.349683	48.040756		34880	1036.0			[46.28, 46.28]	[48.01, 48.01]	uadb_windc_34882.txt	ncar	20180101	20211231	34882	0-20001-0-34882	['38', '85', '106', '107']
