file_statid	station_id	station_name	latitude	longitude	elevation	original_lat	original_lon	distance_km	lat_file	lon_file	inventory	WIGOS	WMO_id	WIGOS_calc	file_min_date	file_max_date	start_date	end_date	isRadio	WIGOS_best	city	variables
6086	06081	BLAAVANDSHUK FYR	55.5575	8.082777777777778	17.62	55 33 27N	008 04 58E	10.8	[55.58, 55.58]	[8.25, 8.25]	OSCAR	0-20000-0-06081		0-20000-0-06081	20120910	20210826	999.0	999.0	False	0-20000-0-06081	varde	['38', '85', '106', '107']
6086	06088	NORDBY	55.44833333333333	8.399722222222222	4.0	55 26 54N	008 23 59E	17.4	[55.58, 55.58]	[8.25, 8.25]	OSCAR	0-20000-0-06088		0-20000-0-06088	20120910	20210826	999.0	999.0	False	0-20000-0-06081	varde	['38', '85', '106', '107']
6086	06080	ESBJERG LUFTHAVN	55.528055555555554	8.563055555555556	29.0	55 31 41N	008 33 47E	20.6	[55.58, 55.58]	[8.25, 8.25]	OSCAR	0-20000-0-06080		0-20000-0-06080	20120910	20210826	999.0	999.0	False	0-20000-0-06081	varde	['38', '85', '106', '107']
6086	06016	HORNS REV A	55.50694444444444	7.873611111111112		55 30 25N	007 52 25E	25.1	[55.58, 55.58]	[8.25, 8.25]	OSCAR	0-20000-0-06016		0-20000-0-06016	20120910	20210826	999.0	999.0	False	0-20000-0-06081	varde	['38', '85', '106', '107']
6086									[55.58, 55.58]	[8.25, 8.25]	IGRA2			0-20300-0-nan	20120910	20210826				0-20000-0-06081	varde	['38', '85', '106', '107']
6086									[55.58, 55.58]	[8.25, 8.25]	WBAN			0-20500-0-nan	20120910	20210826				0-20000-0-06081	varde	['38', '85', '106', '107']
6086									[55.58, 55.58]	[8.25, 8.25]	CHUAN			0-20400-0-nan	20120910	20210826				0-20000-0-06081	varde	['38', '85', '106', '107']
6086	6086	Oksbol, Denmark	55.58	8.25	-999.0			0.0	[55.58, 55.58]	[8.25, 8.25]	SCHROEDER		6086	0-20600-0-6086	20120910	20210826				0-20000-0-06081	varde	['38', '85', '106', '107']
6086	06088	NORDBY                   	55.45	8.4	-999.0			17.3	[55.58, 55.58]	[8.25, 8.25]	WMO		06088	0-20700-0-06088	20120910	20210826				0-20000-0-06081	varde	['38', '85', '106', '107']
