level_0	index	WIGOS	station_name	latitude	longitude	elevation	ObsRems	original_lat	original_lon	station_id	start_date	end_date	isRadio	distance_km	distance_km_minusLat	inventory	WIGOS_calc	city	city_dist_km	city_lat	city_lon	station_id_igra	WMO_id	Unnamed: 0	date_min	date_max	lat_file	lon_file	file	file_dataset	file_min_date	file_max_date	file_statid	WIGOS_best	variables
0	0	0-20000-0-97690	JAYAPURA/SENTANI	-2.575833333333333	140.51833333333335	99.0	Climatological station, Surface land meteorological station (SYNOP), GSN, RBSN(SP), GOS, RBCN, CLIMAT(C)	02 34 33S	140 31 06E	97690	999.0	999.0	False	4.3		OSCAR	0-20000-0-97690	vanimo	88.1	-2.6666667	141.2666667						[-2.57, -2.57]	[140.48, 140.48]	uadb_windc_97690.txt	ncar	20180102	20211231	97690	0-20000-0-97690	['38', '85', '106', '107']
1	2	0-20000-0-97698	JAYAPURA/DOK II	-2.5377777777777775	140.71499999999997	3.0	Surface land meteorological station (SYNOP), GOS	02 32 16S	140 42 54E	97698	999.0	999.0	False	26.4		OSCAR	0-20000-0-97698	vanimo	88.1	-2.6666667	141.2666667						[-2.57, -2.57]	[140.48, 140.48]	uadb_windc_97690.txt	ncar	20180102	20211231	97690	0-20000-0-97690	['38', '85', '106', '107']
0	0		JAYAPURA/SENTANI	-2.5667	140.4833	99.0				97690	1973.0	2021.0	True	0.5		IGRA2	0-20300-0-97690	vanimo	88.1	-2.6666667	141.2666667	IDM00097690					[-2.57, -2.57]	[140.48, 140.48]	uadb_windc_97690.txt	ncar	20180102	20211231	97690	0-20000-0-97690	['38', '85', '106', '107']
0	0		HOLLANDIA AAF	-2.55	140.52	122.2248				80421	19440401.0	19450930.0		5.0		WBAN	0-20500-0-80421	vanimo	88.1	-2.6666667	141.2666667						[-2.57, -2.57]	[140.48, 140.48]	uadb_windc_97690.txt	ncar	20180102	20211231	97690	0-20000-0-97690	['38', '85', '106', '107']
0	0															CHUAN	0-20400-0-nan	vanimo	88.1	-2.6666667	141.2666667						[-2.57, -2.57]	[140.48, 140.48]	uadb_windc_97690.txt	ncar	20180102	20211231	97690	0-20000-0-97690	['38', '85', '106', '107']
0	0		WAJJ Jayapura - Sentani AP, Irian Jaya, Indonesia	-2.57	140.48	-999.0				97690				0.0		SCHROEDER	0-20600-0-97690	vanimo	88.1	-2.6666667	141.2666667		97690	4059.0	9999999	9999999	[-2.57, -2.57]	[140.48, 140.48]	uadb_windc_97690.txt	ncar	20180102	20211231	97690	0-20000-0-97690	['38', '85', '106', '107']
0	0		JAYAPURA/SENTANI         	-2.5666666666666664	140.48333333333332	-999.0				97690				0.5		WMO	0-20700-0-97690	vanimo	88.1	-2.6666667	141.2666667		97690	2225.0			[-2.57, -2.57]	[140.48, 140.48]	uadb_windc_97690.txt	ncar	20180102	20211231	97690	0-20000-0-97690	['38', '85', '106', '107']
1	2		SENTANI                  	-2.5	140.48333333333332	-999.0				96Z45				7.7		WMO	0-20700-0-96Z45	vanimo	88.1	-2.6666667	141.2666667		96Z45	3350.0			[-2.57, -2.57]	[140.48, 140.48]	uadb_windc_97690.txt	ncar	20180102	20211231	97690	0-20000-0-97690	['38', '85', '106', '107']
