level_0	index	WIGOS	station_name	latitude	longitude	elevation	ObsRems	original_lat	original_lon	station_id	start_date	end_date	isRadio	distance_km	distance_km_minusLat	inventory	WIGOS_calc	city	city_dist_km	city_lat	city_lon	station_id_igra	WMO_id	Unnamed: 0	date_min	date_max	lat_file	lon_file	file	file_dataset	file_min_date	file_max_date	file_statid	WIGOS_best	variables
0	0	0-20000-0-38927	TERMEZ	37.28333333333333	67.31666666666666	311.0	Climatological station, Surface land meteorological station (SYNOP), CLIMAT(C), RBCN, RBSN(S), GOS	37 17 00N	067 19 00E	38927	999.0	999.0	False	5.9		OSCAR	0-20000-0-38927	termiz	1.0	37.22416670000001	67.2783333						[37.28, 37.23]	[67.32, 67.27]	uadb_trhc_38927.txt	ncar	19630101	19961107	38927	0-20000-0-38927	['38', '85', '106', '107']
1	2	0-20000-0-40916	HAIRATAN	37.21666666666667	67.41666666666667	300.0	Surface land meteorological station (SYNOP), GOS	37 13 00N	067 25 00E	40916	999.0	999.0	False	8.7		OSCAR	0-20000-0-40916	termiz	1.0	37.22416670000001	67.2783333						[37.28, 37.23]	[67.32, 67.27]	uadb_trhc_38927.txt	ncar	19630101	19961107	38927	0-20000-0-38927	['38', '85', '106', '107']
0	0		TERMEZ	37.233	67.267	310.0				38927	1963.0	1996.0	True	4.7		IGRA2	0-20300-0-38927	termiz	1.0	37.22416670000001	67.2783333	UZM00038927					[37.28, 37.23]	[67.32, 67.27]	uadb_trhc_38927.txt	ncar	19630101	19961107	38927	0-20000-0-38927	['38', '85', '106', '107']
0	0															WBAN	0-20500-0-nan	termiz	1.0	37.22416670000001	67.2783333						[37.28, 37.23]	[67.32, 67.27]	uadb_trhc_38927.txt	ncar	19630101	19961107	38927	0-20000-0-38927	['38', '85', '106', '107']
0	0															CHUAN	0-20400-0-nan	termiz	1.0	37.22416670000001	67.2783333						[37.28, 37.23]	[67.32, 67.27]	uadb_trhc_38927.txt	ncar	19630101	19961107	38927	0-20000-0-38927	['38', '85', '106', '107']
0	0		UTST Termez AP, Uzbekistan	37.28	67.32	-999.0				38927				5.5		SCHROEDER	0-20600-0-38927	termiz	1.0	37.22416670000001	67.2783333		38927	926.0	1961-01-01 00:00:00	1995-10-07 00:00:00	[37.28, 37.23]	[67.32, 67.27]	uadb_trhc_38927.txt	ncar	19630101	19961107	38927	0-20000-0-38927	['38', '85', '106', '107']
1	1		Termiz - German Contingent International Security Assistance Force (GECONISAF), Uzbekistan	37.282	67.323	-999.0				99877				5.8		SCHROEDER	0-20600-0-99877	termiz	1.0	37.22416670000001	67.2783333		99877	4083.0	2004-06-01 00:00:00	2007-12-31 00:00:00	[37.28, 37.23]	[67.32, 67.27]	uadb_trhc_38927.txt	ncar	19630101	19961107	38927	0-20000-0-38927	['38', '85', '106', '107']
0	0		TERMEZ                   	37.23333333333333	67.26666666666667	-999.0				38927				4.7		WMO	0-20700-0-38927	termiz	1.0	37.22416670000001	67.2783333		38927	2629.0			[37.28, 37.23]	[67.32, 67.27]	uadb_trhc_38927.txt	ncar	19630101	19961107	38927	0-20000-0-38927	['38', '85', '106', '107']
