level_0	index	WIGOS	station_name	latitude	longitude	elevation	ObsRems	original_lat	original_lon	station_id	start_date	end_date	isRadio	distance_km	distance_km_minusLat	inventory	WIGOS_calc	city	city_dist_km	city_lat	city_lon	station_id_igra	WMO_id	Unnamed: 0	date_min	date_max	lat_file	lon_file	file	file_dataset	file_min_date	file_max_date	file_statid	WIGOS_best	variables
0	0	0-20000-0-06081	BLAAVANDSHUK FYR	55.5575	8.082777777777778	17.62	Surface land meteorological station (SYNOP), GOS	55 33 27N	008 04 58E	06081	999.0	999.0	False	10.8		OSCAR	0-20000-0-06081	varde	15.3	55.62157	8.48073						[55.58, 55.58]	[8.25, 8.25]	uadb_trhc_6086.txt	ncar	20120910	20210826	6086	0-20000-0-06081	['38', '85', '106', '107']
1	1	0-20000-0-06088	NORDBY	55.44833333333333	8.399722222222222	4.0	Surface land meteorological station (SYNOP), GOS	55 26 54N	008 23 59E	06088	999.0	999.0	False	17.4		OSCAR	0-20000-0-06088	varde	15.3	55.62157	8.48073						[55.58, 55.58]	[8.25, 8.25]	uadb_trhc_6086.txt	ncar	20120910	20210826	6086	0-20000-0-06081	['38', '85', '106', '107']
2	2	0-20000-0-06080	ESBJERG LUFTHAVN	55.528055555555554	8.563055555555556	29.0	Surface land meteorological station (SYNOP), GOS	55 31 41N	008 33 47E	06080	999.0	999.0	False	20.6		OSCAR	0-20000-0-06080	varde	15.3	55.62157	8.48073						[55.58, 55.58]	[8.25, 8.25]	uadb_trhc_6086.txt	ncar	20120910	20210826	6086	0-20000-0-06081	['38', '85', '106', '107']
3	3	0-20000-0-06016	HORNS REV A	55.50694444444444	7.873611111111112		Surface land meteorological station (SYNOP), GOS	55 30 25N	007 52 25E	06016	999.0	999.0	False	25.1		OSCAR	0-20000-0-06016	varde	15.3	55.62157	8.48073						[55.58, 55.58]	[8.25, 8.25]	uadb_trhc_6086.txt	ncar	20120910	20210826	6086	0-20000-0-06081	['38', '85', '106', '107']
0	0															IGRA2	0-20300-0-nan	varde	15.3	55.62157	8.48073						[55.58, 55.58]	[8.25, 8.25]	uadb_trhc_6086.txt	ncar	20120910	20210826	6086	0-20000-0-06081	['38', '85', '106', '107']
0	0															WBAN	0-20500-0-nan	varde	15.3	55.62157	8.48073						[55.58, 55.58]	[8.25, 8.25]	uadb_trhc_6086.txt	ncar	20120910	20210826	6086	0-20000-0-06081	['38', '85', '106', '107']
0	0															CHUAN	0-20400-0-nan	varde	15.3	55.62157	8.48073						[55.58, 55.58]	[8.25, 8.25]	uadb_trhc_6086.txt	ncar	20120910	20210826	6086	0-20000-0-06081	['38', '85', '106', '107']
0	0		Oksbol, Denmark	55.58	8.25	-999.0				6086				0.0		SCHROEDER	0-20600-0-6086	varde	15.3	55.62157	8.48073		6086	216.0	2009-08-31 00:00:00	2009-08-31 00:00:00	[55.58, 55.58]	[8.25, 8.25]	uadb_trhc_6086.txt	ncar	20120910	20210826	6086	0-20000-0-06081	['38', '85', '106', '107']
0	0		NORDBY                   	55.45	8.4	-999.0				06088				17.3		WMO	0-20700-0-06088	varde	15.3	55.62157	8.48073		06088	3628.0			[55.58, 55.58]	[8.25, 8.25]	uadb_trhc_6086.txt	ncar	20120910	20210826	6086	0-20000-0-06081	['38', '85', '106', '107']
