primary_id	secondary_id	station_name	latitude	longitude	start	end	file
0-20000-0-24246	[24246]	ASTORIA/CLATSOP, OR.	46.169998	-123.879997	1941-12-03 00:00:00	1946-05-19 00:00:00	/raid60/scratch/leo/scratch/era5/odbs/1759/era5.1759.conv.2:24246
0-20000-0-13836	[13836]	MACON/LEWIS B.WILSON, GA.	32.700001	-83.650002	1942-01-13 00:00:00	1944-12-31 00:00:00	/raid60/scratch/leo/scratch/era5/odbs/1759/era5.1759.conv.2:13836
0-20000-0-24163	[24163]	HANFORD, WA.	46.23	-119.120003	1942-09-01 00:00:00	1945-11-30 00:00:00	/raid60/scratch/leo/scratch/era5/odbs/1759/era5.1759.conv.2:24163
0-20000-0-10806	[10806]	TOBIAS BOLANOS PALMA INTERNATIONAL AIRPORT	9.9	-84.129997	1943-03-02 00:00:00	1945-09-21 00:00:00	/raid60/scratch/leo/scratch/era5/odbs/1759/era5.1759.conv.2:10806
0-20000-0-13838	[13838]	MOBILE/BATES FIELD,  AL.	30.629999	-88.07	1943-01-06 00:00:00	1945-01-31 00:00:00	/raid60/scratch/leo/scratch/era5/odbs/1759/era5.1759.conv.2:13838
0-20000-0-26203	[26203]	FORT SIMPSON CLIMATE, NWT	61.869999	-121.349998	1943-06-04 00:00:00	1958-12-31 00:00:00	/raid60/scratch/leo/scratch/era5/odbs/1759/era5.1759.conv.2:26203
[]	[51301]		12.9	-38.349998	1943-10-01 00:00:00	1946-03-31 00:00:00	/raid60/scratch/leo/scratch/era5/odbs/1759/era5.1759.conv.2:51301
0-20000-0-13837	[13837]	AUGUSTA/BUSH FIELD,  GA.	33.470001	-82.029999	1942-09-09 00:00:00	1945-01-06 00:00:00	/raid60/scratch/leo/scratch/era5/odbs/1759/era5.1759.conv.2:13837
0-20000-0-04330	[17203]	DANEBORG	74.5	-20.23	1944-12-18 00:00:00	1946-02-03 00:00:00	/raid60/scratch/leo/scratch/era5/odbs/1759/era5.1759.conv.2:17203
[]	[13719]	CUMBERLAND	39.669998	-78.669998	1929-01-09 00:00:00	1931-09-10 00:00:00	/raid60/scratch/leo/scratch/era5/odbs/1759/era5.1759.conv.2:13719
0-20000-0-25301	[25301]	ANNETTE ISLAND, AK	55.029999	-131.580002	1942-02-02 00:00:00	1947-07-29 00:00:00	/raid60/scratch/leo/scratch/era5/odbs/1759/era5.1759.conv.2:25301
0-686-0-61660	[11101]	DAKAR-DIASS-AIBD	14.72	-17.23	1943-06-18 00:00:00	1944-05-30 00:00:00	/raid60/scratch/leo/scratch/era5/odbs/1759/era5.1759.conv.2:11101
0-20000-0-93113	[93113]	LONG BEACH/LB AIRP. DAUGHERTY FIELD,  CA.	33.75	-118.25	1935-09-02 00:00:00	1947-05-31 00:00:00	/raid60/scratch/leo/scratch/era5/odbs/1759/era5.1759.conv.2:93113
0-20000-0-13841	[13841]	WILMINGTON, OH.	39.43	-83.800003	1943-12-23 00:00:00	1949-10-07 00:00:00	/raid60/scratch/leo/scratch/era5/odbs/1759/era5.1759.conv.2:13841
0-20000-0-95767	[94772]	LAKE MACQUARIE AWS	-33.049999	151.600006	1949-02-05 00:00:00	1953-07-24 00:00:00	/raid60/scratch/leo/scratch/era5/odbs/1759/era5.1759.conv.1:94772
[]	[26601]	POINT HOPE	68.349998	-166.779999	1943-09-28 00:00:00	1945-10-25 00:00:00	/raid60/scratch/leo/scratch/era5/odbs/1759/era5.1759.conv.2:26601
0-20000-0-32932	[32932]	IMPHAL/TULIHAL	24.77	93.900002	1944-12-12 00:00:00	1945-09-03 00:00:00	/raid60/scratch/leo/scratch/era5/odbs/1759/era5.1759.conv.2:32932
[]	[51302]		12.9	-38.349998	1943-10-01 00:00:00	1945-04-30 00:00:00	/raid60/scratch/leo/scratch/era5/odbs/1759/era5.1759.conv.2:51302
0-20000-0-41406	[41406]	WEATHER FORECAST OFFICE, GUAM, MARIANA IS.	13.48	144.800003	1944-09-13 00:00:00	1954-02-28 00:00:00	/raid60/scratch/leo/scratch/era5/odbs/1759/era5.1759.conv.2:41406
[]	[80704]		8.07	178.380005	1944-01-14 00:00:00	1944-01-14 00:00:00	/raid60/scratch/leo/scratch/era5/odbs/1759/era5.1759.conv.2:80704
[]	[13839]	DOTHAN (NAPIER FIELD)	31.32	-85.449997	1942-04-08 00:00:00	1945-01-31 00:00:00	/raid60/scratch/leo/scratch/era5/odbs/1759/era5.1759.conv.2:13839
0-20000-0-21503	[21503]	HILO HI, HAWAII	19.719999	-155.050003	1944-04-04 00:00:00	1945-12-26 00:00:00	/raid60/scratch/leo/scratch/era5/odbs/1759/era5.1759.conv.2:21503
0-20000-0-20571	[20571]	COLOMBO	6.9	79.870003	1944-01-01 00:00:00	1948-12-31 00:00:00	/raid60/scratch/leo/scratch/era5/odbs/1759/era5.1759.conv.6:20571
0-20000-0-11501	[11501]	GRANTLEY ADAMS	13.07	-59.5	1943-10-01 00:00:00	1945-12-31 00:00:00	/raid60/scratch/leo/scratch/era5/odbs/1759/era5.1759.conv.2:11501
0-20000-0-32936	[32936]	BHAMO	24.27	97.25	1945-02-18 00:00:00	1945-09-14 00:00:00	/raid60/scratch/leo/scratch/era5/odbs/1759/era5.1759.conv.2:32936
[]	[13855]	TULLAHOMA WILLIAM NORTHERN AAF	35.380001	-86.230003	1943-08-17 00:00:00	1945-01-06 00:00:00	/raid60/scratch/leo/scratch/era5/odbs/1759/era5.1759.conv.2:13855
0-20000-0-10501	[10501]	CAYENNE MATOURY	4.83	-52.369999	1944-08-01 00:00:00	1946-03-31 00:00:00	/raid60/scratch/leo/scratch/era5/odbs/1759/era5.1759.conv.2:10501
0-20000-0-26605	[26605]	NUNIVAK	60.200001	-166.100006	1943-10-12 00:00:00	1945-08-31 00:00:00	/raid60/scratch/leo/scratch/era5/odbs/1759/era5.1759.conv.2:26605
0-20000-0-20696	[20696]	GANGNEUNG	37.75	128.899994	1935-07-01 00:00:00	1943-01-31 00:00:00	/raid60/scratch/leo/scratch/era5/odbs/1759/era5.1759.conv.6:20696
0-20000-0-41411	[41411]	WEATHER FORECAST OFFICE, GUAM, MARIANA IS.	13.43	144.630005	1944-12-14 00:00:00	1945-07-31 00:00:00	/raid60/scratch/leo/scratch/era5/odbs/1759/era5.1759.conv.2:41411
[]	[51304]		12.78	-38.5	1943-06-11 00:00:00	1945-03-31 00:00:00	/raid60/scratch/leo/scratch/era5/odbs/1759/era5.1759.conv.2:51304
0-20000-0-33003	[33003]	BIZERTE	37.200001	9.83	1944-04-07 00:00:00	1944-11-09 00:00:00	/raid60/scratch/leo/scratch/era5/odbs/1759/era5.1759.conv.2:33003
[]	[81302]		12.43	130.869995	1944-08-23 00:00:00	1945-01-23 00:00:00	/raid60/scratch/leo/scratch/era5/odbs/1759/era5.1759.conv.2:81302
0-20000-0-25302	[25302]	YAKUTAT, AK	59.52	-139.669998	1942-08-08 00:00:00	1948-07-29 00:00:00	/raid60/scratch/leo/scratch/era5/odbs/1759/era5.1759.conv.2:25302
0-20000-0-22516	[22516]	KAHULUI AIRPORT, MAUI, HAWAII	20.9	-156.429993	1944-02-01 00:00:00	1945-11-07 00:00:00	/raid60/scratch/leo/scratch/era5/odbs/1759/era5.1759.conv.2:22516
0-20000-0-13846	[13846]	TYNDALL AFB, FL.	30.07	-85.580002	1942-05-29 00:00:00	1952-11-25 00:00:00	/raid60/scratch/leo/scratch/era5/odbs/1759/era5.1759.conv.2:13846
0-20000-0-20574	[20574]	TRINCOMALEE	8.58	81.25	1944-01-01 00:00:00	1948-12-31 00:00:00	/raid60/scratch/leo/scratch/era5/odbs/1759/era5.1759.conv.6:20574
0-20000-0-32938	[32938]	SHWEBO	22.58	95.730003	1945-02-03 00:00:00	1945-08-31 00:00:00	/raid60/scratch/leo/scratch/era5/odbs/1759/era5.1759.conv.2:32938
0-20000-0-11605	[11605]	PIARCO INT. AIRPORT,  TRINIDAD	10.5	-61.400002	1943-03-23 00:00:00	1943-10-20 00:00:00	/raid60/scratch/leo/scratch/era5/odbs/1759/era5.1759.conv.2:11605
[]	[13859]	WALTERBORO AAF	32.919998	-80.650002	1943-03-11 00:00:00	1945-01-31 00:00:00	/raid60/scratch/leo/scratch/era5/odbs/1759/era5.1759.conv.2:13859
0-20000-0-26608	[26608]	UNALAKLEET	63.900002	-160.779999	1943-08-25 00:00:00	1945-11-14 00:00:00	/raid60/scratch/leo/scratch/era5/odbs/1759/era5.1759.conv.2:26608
0-20000-0-10504	[10504]	AMAPA	2.08	-50.869999	1944-06-01 00:00:00	1946-08-31 00:00:00	/raid60/scratch/leo/scratch/era5/odbs/1759/era5.1759.conv.2:10504
0-20000-0-13802	[13802]	ST.LOUIS/LAMBERT,  ST.LOUIS INT., MO.	38.549999	-89.849998	1929-03-14 00:00:00	1959-09-30 00:00:00	/raid60/scratch/leo/scratch/era5/odbs/1759/era5.1759.conv.2:13802
[]	[52401]		22.92	-43.779999	1943-12-06 00:00:00	1945-08-27 00:00:00	/raid60/scratch/leo/scratch/era5/odbs/1759/era5.1759.conv.2:52401
0-20000-0-41413	[41413]	TINIAN, MARIANA ISLANDS	15.0	145.630005	1944-12-02 00:00:00	1945-11-30 00:00:00	/raid60/scratch/leo/scratch/era5/odbs/1759/era5.1759.conv.2:41413
0-20000-0-16560	[33019]	CAGLIARI ELMAS	39.25	9.08	1944-08-29 00:00:00	1946-01-19 00:00:00	/raid60/scratch/leo/scratch/era5/odbs/1759/era5.1759.conv.2:33019
[]	[81404]		10.6	142.300003	1944-02-01 00:00:00	1944-09-26 00:00:00	/raid60/scratch/leo/scratch/era5/odbs/1759/era5.1759.conv.2:81404
0-20000-0-20699	[20699]	WONSAN	39.18	127.43	1935-01-04 00:00:00	1943-01-31 00:00:00	/raid60/scratch/leo/scratch/era5/odbs/1759/era5.1759.conv.6:20699
0-20000-0-23009	[23009]	ROSWELL/INDUSTRIAL AIR CENTER, NM	33.299999	-104.519997	1944-05-09 00:00:00	1954-09-30 00:00:00	/raid60/scratch/leo/scratch/era5/odbs/1759/era5.1759.conv.2:23009
0-20000-0-13849	[13849]	SHAW AFB, SC.	33.970001	-80.480003	1942-03-19 00:00:00	1954-04-29 00:00:00	/raid60/scratch/leo/scratch/era5/odbs/1759/era5.1759.conv.2:13849
0-20000-0-25504	[25504]	PORT HEIDEN	56.950001	-158.649994	1942-10-10 00:00:00	1945-10-02 00:00:00	/raid60/scratch/leo/scratch/era5/odbs/1759/era5.1759.conv.2:25504
0-20000-0-20575	[20575]	MANNAR	9.0	79.830002	1944-01-01 00:00:00	1948-12-31 00:00:00	/raid60/scratch/leo/scratch/era5/odbs/1759/era5.1759.conv.6:20575
0-20000-0-32939	[32939]	MOGOKE	23.379999	96.57	1945-02-12 00:00:00	1945-03-31 00:00:00	/raid60/scratch/leo/scratch/era5/odbs/1759/era5.1759.conv.2:32939
0-20000-0-11617	[11617]	PIARCO INT. AIRPORT,  TRINIDAD	10.5	-61.400002	1943-04-01 00:00:00	1943-10-31 00:00:00	/raid60/scratch/leo/scratch/era5/odbs/1759/era5.1759.conv.2:11617
0-20000-0-13860	[13860]	MACON/LEWIS B.WILSON, GA.	32.630001	-83.599998	1943-01-10 00:00:00	1954-02-28 00:00:00	/raid60/scratch/leo/scratch/era5/odbs/1759/era5.1759.conv.2:13860
0-20000-0-82098	[10506]	MACAPA	0.03	-51.02	1944-01-18 00:00:00	1945-09-12 00:00:00	/raid60/scratch/leo/scratch/era5/odbs/1759/era5.1759.conv.2:10506
0-20000-0-26609	[26609]	WALES	65.620003	-168.050003	1943-07-02 00:00:00	1945-10-08 00:00:00	/raid60/scratch/leo/scratch/era5/odbs/1759/era5.1759.conv.2:26609
[]	[60501]		9.07	-158.020004	1943-08-01 00:00:00	1946-07-01 00:00:00	/raid60/scratch/leo/scratch/era5/odbs/1759/era5.1759.conv.2:60501
0-20000-0-41604	[41604]	ENIWETAK ATOLL AWS, MARSHALL IS.	11.75	162.25	1944-03-08 00:00:00	1945-01-15 00:00:00	/raid60/scratch/leo/scratch/era5/odbs/1759/era5.1759.conv.2:41604
0-20000-0-33109	[33109]	TUNIS-CARTHAGE	36.849998	10.25	1944-03-24 00:00:00	1946-01-08 00:00:00	/raid60/scratch/leo/scratch/era5/odbs/1759/era5.1759.conv.2:33109
[]	[81408]		19.27	146.75	1944-02-02 00:00:00	1944-05-15 00:00:00	/raid60/scratch/leo/scratch/era5/odbs/1759/era5.1759.conv.2:81408
[]	[13851]	MARIANNA (AAF)	30.83	-85.199997	1942-12-02 00:00:00	1945-01-31 00:00:00	/raid60/scratch/leo/scratch/era5/odbs/1759/era5.1759.conv.2:13851
0-20000-0-23015	[23015]	MELROSE GUNNERY RANGE, NM.	34.48	-104.220001	1944-02-15 00:00:00	1945-06-30 00:00:00	/raid60/scratch/leo/scratch/era5/odbs/1759/era5.1759.conv.2:23015
0-20000-0-32941	[32941]	NYAUNG-U	21.4	94.629997	1945-02-15 00:00:00	1945-03-31 00:00:00	/raid60/scratch/leo/scratch/era5/odbs/1759/era5.1759.conv.2:32941
[]	[22061]		29.35	74.0	1944-01-11 00:00:00	1946-10-27 00:00:00	/raid60/scratch/leo/scratch/era5/odbs/1759/era5.1759.conv.6:22061
0-20000-0-11707	[11707]	KINGSTON/NORMAN MANLEY	17.83	-76.669998	1943-07-12 00:00:00	1943-12-31 00:00:00	/raid60/scratch/leo/scratch/era5/odbs/1759/era5.1759.conv.2:11707
0-20000-0-20700	[20700]	KIMCHAEK	40.669998	129.199997	1935-04-02 00:00:00	1943-01-30 00:00:00	/raid60/scratch/leo/scratch/era5/odbs/1759/era5.1759.conv.6:20700
0-20000-0-10712	[10712]	COROZAL OESTE	8.98	-79.57	1944-08-01 00:00:00	1945-10-28 00:00:00	/raid60/scratch/leo/scratch/era5/odbs/1759/era5.1759.conv.2:10712
0-20000-0-30001	[30001]	LAGOS ROOF	6.45	3.4	1943-07-03 00:00:00	1944-11-12 00:00:00	/raid60/scratch/leo/scratch/era5/odbs/1759/era5.1759.conv.2:30001
[]	[60701]		2.77	-171.720001	1943-04-13 00:00:00	1946-07-18 00:00:00	/raid60/scratch/leo/scratch/era5/odbs/1759/era5.1759.conv.2:60701
0-20000-0-42001	[42001]	ZHIJIANG	27.450001	109.629997	1944-06-19 00:00:00	1946-01-04 00:00:00	/raid60/scratch/leo/scratch/era5/odbs/1759/era5.1759.conv.2:42001
[]	[33201]	GAMBUT	31.870001	24.6	1944-01-21 00:00:00	1944-02-22 00:00:00	/raid60/scratch/leo/scratch/era5/odbs/1759/era5.1759.conv.2:33201
[]	[81410]		10.93	142.479996	1944-10-05 00:00:00	1945-01-10 00:00:00	/raid60/scratch/leo/scratch/era5/odbs/1759/era5.1759.conv.2:81410
[]	[23018]	HOBBS AAF	32.75	-103.220001	1944-12-20 00:00:00	1945-06-25 00:00:00	/raid60/scratch/leo/scratch/era5/odbs/1759/era5.1759.conv.2:23018
[]	[13856]	TUSKEGEE (AAF)	32.5	-85.769997	1942-11-01 00:00:00	1945-01-31 00:00:00	/raid60/scratch/leo/scratch/era5/odbs/1759/era5.1759.conv.2:13856
0-20000-0-32942	[32942]	LASHIO	22.98	97.75	1945-05-10 00:00:00	1945-08-14 00:00:00	/raid60/scratch/leo/scratch/era5/odbs/1759/era5.1759.conv.2:32942
[]	[13903]	ARDMORE AFB	34.299999	-97.099998	1943-01-22 00:00:00	1961-05-31 00:00:00	/raid60/scratch/leo/scratch/era5/odbs/1759/era5.1759.conv.2:13903
0-20000-0-11803	[11803]	CORINTO	12.48	-87.18	1943-04-21 00:00:00	1945-11-30 00:00:00	/raid60/scratch/leo/scratch/era5/odbs/1759/era5.1759.conv.2:11803
[]	[10713]	SAN JOSE ISLAND	8.25	-79.129997	1944-10-01 00:00:00	1947-12-31 00:00:00	/raid60/scratch/leo/scratch/era5/odbs/1759/era5.1759.conv.2:10713
0-20000-0-31001	[31001]	KANO	12.05	8.53	1943-05-03 00:00:00	1945-06-17 00:00:00	/raid60/scratch/leo/scratch/era5/odbs/1759/era5.1759.conv.2:31001
0-20000-0-20706	[20706]	SENBONG	42.32	130.399994	1935-07-06 00:00:00	1943-01-31 00:00:00	/raid60/scratch/leo/scratch/era5/odbs/1759/era5.1759.conv.6:20706
0-20000-0-42003	[42003]	LIUZHOU	24.299999	109.269997	1944-05-05 00:00:00	1947-06-24 00:00:00	/raid60/scratch/leo/scratch/era5/odbs/1759/era5.1759.conv.2:42003
[]	[60702]		2.73	-171.720001	1943-05-01 00:00:00	1945-09-10 00:00:00	/raid60/scratch/leo/scratch/era5/odbs/1759/era5.1759.conv.2:60702
[]	[81502]		10.62	150.669998	1944-07-01 00:00:00	1944-08-30 00:00:00	/raid60/scratch/leo/scratch/era5/odbs/1759/era5.1759.conv.2:81502
0-20000-0-33203	[33203]	NOUZHA	31.200001	29.879999	1944-09-04 00:00:00	1945-03-29 00:00:00	/raid60/scratch/leo/scratch/era5/odbs/1759/era5.1759.conv.2:33203
0-20000-0-23012	[23012]	DENVER/STAPLETON INT., CO.	39.720001	-104.879997	1940-01-24 00:00:00	1956-08-14 00:00:00	/raid60/scratch/leo/scratch/era5/odbs/1759/era5.1759.conv.2:23012
[]	[22097]	ALLAHABAD/BAMHRAULI	25.42	81.82	1944-01-01 00:00:00	1948-12-31 00:00:00	/raid60/scratch/leo/scratch/era5/odbs/1759/era5.1759.conv.6:22097
0-20000-0-23101	[23101]	GILA BEND AAF, AZ.	32.450001	-112.849998	1944-11-04 00:00:00	1946-01-18 00:00:00	/raid60/scratch/leo/scratch/era5/odbs/1759/era5.1759.conv.2:23101
[]	[32943]	KUTKAI	23.469999	97.919998	1945-03-06 00:00:00	1945-04-24 00:00:00	/raid60/scratch/leo/scratch/era5/odbs/1759/era5.1759.conv.2:32943
0-20000-0-13857	[13857]	MOODY AFB, GA	30.969999	-83.199997	1942-06-01 00:00:00	1954-04-30 00:00:00	/raid60/scratch/leo/scratch/era5/odbs/1759/era5.1759.conv.2:13857
0-20000-0-13904	[13904]	AUSTIN-BERGSTROM INTL AIRPORT, TX.	30.200001	-97.669998	1943-10-01 00:00:00	1948-12-21 00:00:00	/raid60/scratch/leo/scratch/era5/odbs/1759/era5.1759.conv.2:13904
0-20000-0-25603	[25603]	COLD BAY, AK	55.200001	-162.720001	1942-06-09 00:00:00	1954-03-31 00:00:00	/raid60/scratch/leo/scratch/era5/odbs/1759/era5.1759.conv.2:25603
0-20000-0-11902	[11902]	SAN JOSE (78647-0)	13.92	-90.830002	1943-07-01 00:00:00	1946-08-11 00:00:00	/raid60/scratch/leo/scratch/era5/odbs/1759/era5.1759.conv.2:11902
0-20000-0-11103	[11103]	DAKAR/YOFF	14.75	-17.5	1944-05-31 00:00:00	1946-09-30 00:00:00	/raid60/scratch/leo/scratch/era5/odbs/1759/era5.1759.conv.2:11103
0-20000-0-31101	[31101]	MAIDUGURI	11.85	13.08	1943-06-01 00:00:00	1945-06-15 00:00:00	/raid60/scratch/leo/scratch/era5/odbs/1759/era5.1759.conv.2:31101
[]	[42004]	YANGKAI	25.5	103.080002	1944-03-29 00:00:00	1945-10-31 00:00:00	/raid60/scratch/leo/scratch/era5/odbs/1759/era5.1759.conv.2:42004
[]	[61502]		16.450001	-151.770004	1943-07-26 00:00:00	1944-09-01 00:00:00	/raid60/scratch/leo/scratch/era5/odbs/1759/era5.1759.conv.2:61502
[]	[81605]		17.530001	167.300003	1944-01-01 00:00:00	1944-07-28 00:00:00	/raid60/scratch/leo/scratch/era5/odbs/1759/era5.1759.conv.2:81605
0-20000-0-33204	[33204]	TOBRUK	31.85	23.93	1944-10-27 00:00:00	1945-09-22 00:00:00	/raid60/scratch/leo/scratch/era5/odbs/1759/era5.1759.conv.2:33204
0-20000-0-13821	[13821]	MONTGOMERY/DANNELLY,  AL.	32.400002	-86.349998	1929-01-03 00:00:00	1954-12-17 00:00:00	/raid60/scratch/leo/scratch/era5/odbs/1759/era5.1759.conv.2:13821
0-20000-0-23208	[23208]	SACRAMENTO/EXECUTIVE CA.	38.669998	-121.400002	1940-05-17 00:00:00	1951-02-14 00:00:00	/raid60/scratch/leo/scratch/era5/odbs/1759/era5.1759.conv.2:23208
0-20000-0-23398	[23398]	CHUPUNGNYEONG	36.220001	128.0	1935-10-01 00:00:00	1943-01-31 00:00:00	/raid60/scratch/leo/scratch/era5/odbs/1759/era5.1759.conv.6:23398
0-20000-0-23116	[23116]	BURBANK, CA	34.150002	-118.300003	1944-09-25 00:00:00	1945-02-16 00:00:00	/raid60/scratch/leo/scratch/era5/odbs/1759/era5.1759.conv.2:23116
0-20000-0-22121	[22121]	JHARSIGUDA	21.92	84.080002	1944-05-11 00:00:00	1948-12-30 00:00:00	/raid60/scratch/leo/scratch/era5/odbs/1759/era5.1759.conv.6:22121
0-20000-0-12101	[12101]	ATAR	20.469999	-13.03	1943-05-06 00:00:00	1945-09-02 00:00:00	/raid60/scratch/leo/scratch/era5/odbs/1759/era5.1759.conv.2:12101
0-20000-0-32945	[32945]	SITTWE	20.129999	92.879997	1945-03-02 00:00:00	1945-10-31 00:00:00	/raid60/scratch/leo/scratch/era5/odbs/1759/era5.1759.conv.2:32945
0-20000-0-70222	[26501]	GALENA A.	64.720001	-156.899994	1942-09-22 00:00:00	1965-01-31 00:00:00	/raid60/scratch/leo/scratch/era5/odbs/1759/era5.1759.conv.2:26501
0-20000-0-42007	[42007]	NANNING	22.799999	108.300003	1944-06-29 00:00:00	1945-09-08 00:00:00	/raid60/scratch/leo/scratch/era5/odbs/1759/era5.1759.conv.2:42007
0-20000-0-11608	[11608]	SAN JUAN/INT.,  PUERTO RICO	18.469999	-66.120003	1944-05-04 00:00:00	1945-12-09 00:00:00	/raid60/scratch/leo/scratch/era5/odbs/1759/era5.1759.conv.2:11608
[]	[61701]		13.23	-176.149994	1943-08-09 00:00:00	1944-05-14 00:00:00	/raid60/scratch/leo/scratch/era5/odbs/1759/era5.1759.conv.2:61701
0-20000-0-31201	[31201]	EL FASHER	13.63	25.35	1943-07-10 00:00:00	1945-06-13 00:00:00	/raid60/scratch/leo/scratch/era5/odbs/1759/era5.1759.conv.2:31201
0-20000-0-33205	[33205]	MERSA MATRUH	31.450001	27.200001	1944-12-29 00:00:00	1945-02-19 00:00:00	/raid60/scratch/leo/scratch/era5/odbs/1759/era5.1759.conv.2:33205
[]	[93102]	FALLON NAAS	39.43	-118.68	1944-08-03 00:00:00	1958-12-12 00:00:00	/raid60/scratch/leo/scratch/era5/odbs/1759/era5.1759.conv.2:93102
0-20000-0-41219	[41219]	SANGLEY POINT	14.48	120.919998	1940-07-01 00:00:00	1940-07-30 00:00:00	/raid60/scratch/leo/scratch/era5/odbs/1759/era5.1759.conv.2:41219
0-20000-0-22134	[22134]	SUPAUL (42353-0)	25.870001	86.620003	1944-01-01 00:00:00	1948-12-31 00:00:00	/raid60/scratch/leo/scratch/era5/odbs/1759/era5.1759.conv.6:22134
0-20000-0-23124	[23124]	LOS ANGELES /INT.,  CA.	34.07	-118.43	1944-01-13 00:00:00	1945-08-31 00:00:00	/raid60/scratch/leo/scratch/era5/odbs/1759/era5.1759.conv.2:23124
0-20000-0-13920	[13920]	TOPEKA/MUN., KS.	38.950001	-95.669998	1943-02-01 00:00:00	1955-09-29 00:00:00	/raid60/scratch/leo/scratch/era5/odbs/1759/era5.1759.conv.2:13920
[]	[12707]	WALKER CAY	27.27	-78.379997	1943-11-08 00:00:00	1944-07-31 00:00:00	/raid60/scratch/leo/scratch/era5/odbs/1759/era5.1759.conv.2:12707
0-20000-0-32946	[32946]	DHAKA	23.780001	90.379997	1945-03-03 00:00:00	1945-12-23 00:00:00	/raid60/scratch/leo/scratch/era5/odbs/1759/era5.1759.conv.2:32946
0-20000-0-32701	[32701]	AGRA (42261-0)	27.17	78.029999	1942-11-06 00:00:00	1946-02-07 00:00:00	/raid60/scratch/leo/scratch/era5/odbs/1759/era5.1759.conv.2:32701
[]	[62701]		21.25	-175.130005	1943-01-01 00:00:00	1943-06-28 00:00:00	/raid60/scratch/leo/scratch/era5/odbs/1759/era5.1759.conv.2:62701
0-20000-0-42008	[42008]	ZHANYI	25.629999	103.779999	1944-02-22 00:00:00	1945-10-30 00:00:00	/raid60/scratch/leo/scratch/era5/odbs/1759/era5.1759.conv.2:42008
0-20000-0-40180	[33301]	BEN-GURION INT. AIRPORT	32.0	34.900002	1944-04-22 00:00:00	1945-05-17 00:00:00	/raid60/scratch/leo/scratch/era5/odbs/1759/era5.1759.conv.2:33301
0-20000-0-31202	[31202]	GENINA	13.45	22.450001	1943-07-28 00:00:00	1945-05-22 00:00:00	/raid60/scratch/leo/scratch/era5/odbs/1759/era5.1759.conv.2:31202
0-20000-0-11615	[11615]	SANTO DOMINGO (78486-0)	18.48	-69.900002	1944-04-13 00:00:00	1946-04-20 00:00:00	/raid60/scratch/leo/scratch/era5/odbs/1759/era5.1759.conv.2:11615
0-20000-0-23130	[23130]	BURBANK, CA	34.220001	-118.5	1944-03-30 00:00:00	1945-02-22 00:00:00	/raid60/scratch/leo/scratch/era5/odbs/1759/era5.1759.conv.2:23130
0-20000-0-22145	[22145]	JAMSHEDPUR (42798-0)	22.82	86.18	1944-01-01 00:00:00	1948-12-31 00:00:00	/raid60/scratch/leo/scratch/era5/odbs/1759/era5.1759.conv.6:22145
0-20000-0-12801	[12801]	BAUTA, LA HABANA	22.879999	-82.5	1943-06-18 00:00:00	1946-05-15 00:00:00	/raid60/scratch/leo/scratch/era5/odbs/1759/era5.1759.conv.2:12801
0-20000-0-32953	[32953]	MEIKTILA	20.879999	95.879997	1945-03-23 00:00:00	1945-04-25 00:00:00	/raid60/scratch/leo/scratch/era5/odbs/1759/era5.1759.conv.2:32953
0-20000-0-42009	[42009]	LIJING	26.879999	100.230003	1944-04-02 00:00:00	1945-07-28 00:00:00	/raid60/scratch/leo/scratch/era5/odbs/1759/era5.1759.conv.2:42009
[]	[80405]		6.57	146.729996	1943-10-01 00:00:00	1945-08-09 00:00:00	/raid60/scratch/leo/scratch/era5/odbs/1759/era5.1759.conv.2:80405
0-20000-0-33305	[33305]	RUTBAH	32.93	39.73	1944-08-31 00:00:00	1945-12-23 00:00:00	/raid60/scratch/leo/scratch/era5/odbs/1759/era5.1759.conv.2:33305
[]	[11708]	NAVASSA ISLAND	18.48	-75.019997	1944-03-26 00:00:00	1944-04-30 00:00:00	/raid60/scratch/leo/scratch/era5/odbs/1759/era5.1759.conv.2:11708
0-20000-0-31301	[31301]	ASMARA	15.03	39.049999	1943-04-24 00:00:00	1943-12-31 00:00:00	/raid60/scratch/leo/scratch/era5/odbs/1759/era5.1759.conv.2:31301
0-20000-0-32901	[32901]	DIBRUGARH /MOHANBARI	27.5	95.120003	1942-10-28 00:00:00	1946-01-25 00:00:00	/raid60/scratch/leo/scratch/era5/odbs/1759/era5.1759.conv.2:32901
0-20000-0-23136	[23136]	POINT MUGU/NAS, CA.	34.220001	-119.07	1944-05-03 00:00:00	1944-10-09 00:00:00	/raid60/scratch/leo/scratch/era5/odbs/1759/era5.1759.conv.2:23136
0-20000-0-22152	[22152]	COOCH BEHAR	26.33	89.449997	1944-02-11 00:00:00	1948-12-30 00:00:00	/raid60/scratch/leo/scratch/era5/odbs/1759/era5.1759.conv.6:22152
[]	[12802]	FORT MYERS (BUCKINGHAM AAF)	26.65	-81.720001	1943-10-05 00:00:00	1945-10-07 00:00:00	/raid60/scratch/leo/scratch/era5/odbs/1759/era5.1759.conv.2:12802
0-20000-0-33034	[33034]	ANNABA	36.830002	7.8	1945-07-01 00:00:00	1945-07-01 00:00:00	/raid60/scratch/leo/scratch/era5/odbs/1759/era5.1759.conv.2:33034
0-20000-0-42011	[42011]	XICHANG	27.92	102.300003	1944-08-06 00:00:00	1944-12-28 00:00:00	/raid60/scratch/leo/scratch/era5/odbs/1759/era5.1759.conv.2:42011
0-20000-0-13922	[13922]	SMOKEY HILL GUNNERY RANGE, KS.	38.799999	-97.629997	1943-08-16 00:00:00	1958-10-15 00:00:00	/raid60/scratch/leo/scratch/era5/odbs/1759/era5.1759.conv.2:13922
0-20000-0-33406	[33406]	HAMEDAN	34.849998	48.529999	1944-10-03 00:00:00	1945-08-14 00:00:00	/raid60/scratch/leo/scratch/era5/odbs/1759/era5.1759.conv.2:33406
[]	[80406]		8.53	140.419998	1943-02-02 00:00:00	1945-09-15 00:00:00	/raid60/scratch/leo/scratch/era5/odbs/1759/era5.1759.conv.2:80406
0-20000-0-12702	[12702]	GRAND TURK	21.48	-71.519997	1944-04-15 00:00:00	1947-08-30 00:00:00	/raid60/scratch/leo/scratch/era5/odbs/1759/era5.1759.conv.2:12702
0-20000-0-31303	[31303]	SHAMBAT OBSERVATORY	15.83	32.529999	1943-04-05 00:00:00	1945-07-13 00:00:00	/raid60/scratch/leo/scratch/era5/odbs/1759/era5.1759.conv.2:31303
0-20000-0-23139	[23139]	LOS ANGELES /INT.,  CA.	33.799999	-118.330002	1944-06-01 00:00:00	1944-08-29 00:00:00	/raid60/scratch/leo/scratch/era5/odbs/1759/era5.1759.conv.2:23139
0-20000-0-16603	[16603]	IQALUIT A, NU	63.75	-68.550003	1943-07-02 00:00:00	1971-09-30 00:00:00	/raid60/scratch/leo/scratch/era5/odbs/1759/era5.1759.conv.2:16603
0-20000-0-22154	[22154]	RAJARHAT, KURIGRAM	25.879999	89.43	1945-06-01 00:00:00	1946-04-14 00:00:00	/raid60/scratch/leo/scratch/era5/odbs/1759/era5.1759.conv.6:22154
0-20000-0-93104	[93104]	CHINA LAKE, NAF, CA.	35.68	-117.68	1944-12-01 00:00:00	1979-11-14 00:00:00	/raid60/scratch/leo/scratch/era5/odbs/1759/era5.1759.conv.2:93104
0-20000-0-12803	[12803]	FORT LAUDERDALE, FL, FORT LAUDERDALE-HOLYWOOD INT. ARPT	26.370001	-80.099998	1943-05-01 00:00:00	1945-09-08 00:00:00	/raid60/scratch/leo/scratch/era5/odbs/1759/era5.1759.conv.2:12803
0-20000-0-42012	[42012]	YIBIN	28.82	104.529999	1944-04-04 00:00:00	1945-08-29 00:00:00	/raid60/scratch/leo/scratch/era5/odbs/1759/era5.1759.conv.2:42012
[]	[80408]		6.07	145.919998	1943-11-13 00:00:00	1944-09-16 00:00:00	/raid60/scratch/leo/scratch/era5/odbs/1759/era5.1759.conv.2:80408
0-20000-0-33501	[33501]	TEHRAN-MEHRABAD	35.720001	51.380001	1944-03-20 00:00:00	1945-12-11 00:00:00	/raid60/scratch/leo/scratch/era5/odbs/1759/era5.1759.conv.2:33501
0-20000-0-12703	[12703]	ABRAHAM'S BAY,  MAYAGUANA	22.35	-72.980003	1944-07-30 00:00:00	1945-10-20 00:00:00	/raid60/scratch/leo/scratch/era5/odbs/1759/era5.1759.conv.2:12703
0-20000-0-31401	[31401]	ADEN	12.87	44.970001	1943-05-08 00:00:00	1945-06-06 00:00:00	/raid60/scratch/leo/scratch/era5/odbs/1759/era5.1759.conv.2:31401
[]	[23140]	COOLIDGE (AAF)	32.93	-111.419998	1944-11-07 00:00:00	1945-10-29 00:00:00	/raid60/scratch/leo/scratch/era5/odbs/1759/era5.1759.conv.2:23140
0-20000-0-13750	[13750]	NORFOLK/INT., VA.	36.93	-76.3	1919-02-01 00:00:00	1919-12-31 00:00:00	/raid60/scratch/leo/scratch/era5/odbs/1759/era5.1759.conv.1919
0-20000-0-13927	[13927]	JACKSON/ALLEN C. THOMPSON FIELD, MS.	32.330002	-90.220001	1943-01-17 00:00:00	1955-04-30 00:00:00	/raid60/scratch/leo/scratch/era5/odbs/1759/era5.1759.conv.2:13927
0-20000-0-93105	[93105]	PHOENIX/SKY HARBOR,  INT, AZ.	33.43	-112.370003	1944-08-01 00:00:00	1948-10-14 00:00:00	/raid60/scratch/leo/scratch/era5/odbs/1759/era5.1759.conv.2:93105
0-20000-0-22157	[22157]	BOGRA	24.85	89.379997	1944-01-01 00:00:00	1948-12-31 00:00:00	/raid60/scratch/leo/scratch/era5/odbs/1759/era5.1759.conv.6:22157
0-20000-0-12808	[12808]	TAMPA BAY AREA, FL.	28.0	-82.019997	1943-06-17 00:00:00	1945-03-31 00:00:00	/raid60/scratch/leo/scratch/era5/odbs/1759/era5.1759.conv.2:12808
0-20000-0-42014	[42014]	SIMAO	22.450001	101.029999	1944-05-14 00:00:00	1944-12-31 00:00:00	/raid60/scratch/leo/scratch/era5/odbs/1759/era5.1759.conv.2:42014
0-20000-0-34001	[34001]	SOLENZARA	42.029999	9.37	1944-03-19 00:00:00	1944-11-30 00:00:00	/raid60/scratch/leo/scratch/era5/odbs/1759/era5.1759.conv.2:34001
0-20000-0-12705	[12705]	CAIBARIEN, VILLA CLARA	22.629999	-79.230003	1944-08-01 00:00:00	1944-08-31 00:00:00	/raid60/scratch/leo/scratch/era5/odbs/1759/era5.1759.conv.2:12705
[]	[80409]		9.45	147.179993	1943-05-09 00:00:00	1944-05-27 00:00:00	/raid60/scratch/leo/scratch/era5/odbs/1759/era5.1759.conv.2:80409
0-20000-0-31501	[31501]	SALALAH AIRPORT	17.049999	54.099998	1943-04-11 00:00:00	1945-05-12 00:00:00	/raid60/scratch/leo/scratch/era5/odbs/1759/era5.1759.conv.2:31501
0-20000-0-23141	[23141]	INDIAN SPRINGS GUNNERY RANGE, NV.	36.580002	-115.68	1944-08-17 00:00:00	1964-06-30 00:00:00	/raid60/scratch/leo/scratch/era5/odbs/1759/era5.1759.conv.2:23141
[]	[13930]	KNOBNOSTER SEDALIA AFB	38.73	-93.57	1943-01-01 00:00:00	1945-01-31 00:00:00	/raid60/scratch/leo/scratch/era5/odbs/1759/era5.1759.conv.2:13930
0-20000-0-13750	[13750]	NORFOLK/INT., VA.	36.93	-76.3	1920-01-02 00:00:00	1920-12-31 00:00:00	/raid60/scratch/leo/scratch/era5/odbs/1759/era5.1759.conv.1920
0-20000-0-22171	[22171]	COMILLA	23.469999	91.18	1944-01-01 00:00:00	1946-11-20 00:00:00	/raid60/scratch/leo/scratch/era5/odbs/1759/era5.1759.conv.6:22171
0-20000-0-93106	[93106]	LONG BEACH/LB AIRP. DAUGHERTY FIELD,  CA.	33.799999	-118.120003	1944-05-01 00:00:00	1950-08-10 00:00:00	/raid60/scratch/leo/scratch/era5/odbs/1759/era5.1759.conv.2:93106
[]	[12811]	FORT MYERS (PAIGE FIELD)	26.58	-81.870003	1943-08-13 00:00:00	1944-09-08 00:00:00	/raid60/scratch/leo/scratch/era5/odbs/1759/era5.1759.conv.2:12811
0-20000-0-07761	[34003]	AJACCIO	41.919998	8.8	1944-07-01 00:00:00	1944-10-19 00:00:00	/raid60/scratch/leo/scratch/era5/odbs/1759/era5.1759.conv.2:34003
0-20000-0-42015	[42015]	LUXI	25.0	103.580002	1944-07-20 00:00:00	1945-11-11 00:00:00	/raid60/scratch/leo/scratch/era5/odbs/1759/era5.1759.conv.2:42015
[]	[80412]		6.62	147.850006	1943-12-15 00:00:00	1945-08-31 00:00:00	/raid60/scratch/leo/scratch/era5/odbs/1759/era5.1759.conv.2:80412
0-20000-0-12804	[12804]	AVON PARK GUNNERY RANGE, FL.	27.629999	-81.330002	1944-01-21 00:00:00	1964-12-29 00:00:00	/raid60/scratch/leo/scratch/era5/odbs/1759/era5.1759.conv.2:12804
0-20000-0-23144	[23144]	SAN DIEGO/LINDBERGH,  CA.	32.73	-117.169998	1944-06-16 00:00:00	1945-07-08 00:00:00	/raid60/scratch/leo/scratch/era5/odbs/1759/era5.1759.conv.2:23144
0-20000-0-32001	[32001]	AMUNDSEN-SCOTT	-90.010002	179.990005	1943-03-20 00:00:00	1945-06-14 00:00:00	/raid60/scratch/leo/scratch/era5/odbs/1759/era5.1759.conv.2:32001
0-20000-0-13933	[13933]	GREENWOOD, MS, GREENWOOD-LEFLORE ARPT	33.5	-90.080002	1943-02-11 00:00:00	1945-01-28 00:00:00	/raid60/scratch/leo/scratch/era5/odbs/1759/era5.1759.conv.2:13933
0-20000-0-22187	[22187]	IMPHAL/TULIHAL	24.870001	93.919998	1944-01-03 00:00:00	1945-02-26 00:00:00	/raid60/scratch/leo/scratch/era5/odbs/1759/era5.1759.conv.6:22187
0-20000-0-12814	[12814]	TAMPA BAY AREA, FL.	27.379999	-82.550003	1943-03-16 00:00:00	1945-04-27 00:00:00	/raid60/scratch/leo/scratch/era5/odbs/1759/era5.1759.conv.2:12814
0-20000-0-93115	[93115]	SAN DIEGO/LINDBERGH,  CA.	32.57	-117.120003	1944-01-04 00:00:00	1946-04-29 00:00:00	/raid60/scratch/leo/scratch/era5/odbs/1759/era5.1759.conv.2:93115
0-20000-0-34004	[34004]	SOLENZARA	42.0	9.38	1944-04-23 00:00:00	1944-08-20 00:00:00	/raid60/scratch/leo/scratch/era5/odbs/1759/era5.1759.conv.2:34004
0-20000-0-42016	[42016]	CHONGQING (57516-1)	29.5	106.370003	1944-11-25 00:00:00	1946-01-25 00:00:00	/raid60/scratch/leo/scratch/era5/odbs/1759/era5.1759.conv.2:42016
0-20000-0-93829	[93829]	PENSACOLA, FL	30.35	-87.27	1920-12-31 00:00:00	1921-12-31 00:00:00	/raid60/scratch/leo/scratch/era5/odbs/1759/era5.1759.conv.1921
0-20000-0-91321	[80416]	SATAWALL AWS,  CAROLINE IS.	7.33	146.729996	1943-03-02 00:00:00	1943-08-31 00:00:00	/raid60/scratch/leo/scratch/era5/odbs/1759/era5.1759.conv.2:80416
0-20000-0-12809	[12809]	AVON PARK GUNNERY RANGE, FL.	27.950001	-81.779999	1944-04-15 00:00:00	1945-03-01 00:00:00	/raid60/scratch/leo/scratch/era5/odbs/1759/era5.1759.conv.2:12809
0-20000-0-23150	[23150]	BURBANK, CA	34.18	-118.32	1944-06-28 00:00:00	1944-07-06 00:00:00	/raid60/scratch/leo/scratch/era5/odbs/1759/era5.1759.conv.2:23150
0-20000-0-32501	[32501]	MASIRAH	20.65	58.900002	1943-05-13 00:00:00	1945-06-05 00:00:00	/raid60/scratch/leo/scratch/era5/odbs/1759/era5.1759.conv.2:32501
0-20000-0-22220	[22220]	BOMBAY / SANTACRUZ	19.1	72.849998	1944-01-01 00:00:00	1948-12-31 00:00:00	/raid60/scratch/leo/scratch/era5/odbs/1759/era5.1759.conv.6:22220
0-20000-0-12816	[12816]	GAINSVILLE, FL GAINSVILLE RGNL ARPT	29.700001	-82.269997	1943-12-17 00:00:00	1944-10-14 00:00:00	/raid60/scratch/leo/scratch/era5/odbs/1759/era5.1759.conv.2:12816
[]	[93121]	TWENTYNINE PALM NAAS	34.220001	-116.050003	1944-10-03 00:00:00	1945-10-26 00:00:00	/raid60/scratch/leo/scratch/era5/odbs/1759/era5.1759.conv.2:93121
0-20000-0-34005	[34005]	BASTIA	42.57	9.45	1944-07-26 00:00:00	1945-05-31 00:00:00	/raid60/scratch/leo/scratch/era5/odbs/1759/era5.1759.conv.2:34005
0-20000-0-57776	[42101]	NANYUE	26.93	112.57	1944-04-04 00:00:00	1944-06-19 00:00:00	/raid60/scratch/leo/scratch/era5/odbs/1759/era5.1759.conv.2:42101
0-20000-0-13934	[13934]	ENGLAND AFB, LA.	31.33	-92.550003	1943-09-25 00:00:00	1955-04-30 00:00:00	/raid60/scratch/leo/scratch/era5/odbs/1759/era5.1759.conv.2:13934
[]	[12812]	PUNTA GORDA CHARLOTT	26.92	-81.980003	1944-03-07 00:00:00	1945-01-31 00:00:00	/raid60/scratch/leo/scratch/era5/odbs/1759/era5.1759.conv.2:12812
[]	[80419]		6.87	146.350006	1943-08-18 00:00:00	1943-09-24 00:00:00	/raid60/scratch/leo/scratch/era5/odbs/1759/era5.1759.conv.2:80419
0-20000-0-23212	[23212]	SHERIDAN, CA	39.099998	-121.57	1944-08-25 00:00:00	1944-08-25 00:00:00	/raid60/scratch/leo/scratch/era5/odbs/1759/era5.1759.conv.2:23212
[]	[32803]	CHAKULIA	22.450001	86.699997	1943-09-01 00:00:00	1945-04-30 00:00:00	/raid60/scratch/leo/scratch/era5/odbs/1759/era5.1759.conv.2:32803
[]	[41407]	GUAM MARSHALL ISLAND	13.47	144.25	1921-12-31 00:00:00	1922-12-31 00:00:00	/raid60/scratch/leo/scratch/era5/odbs/1759/era5.1759.conv.1922
[]	[12818]	BROOKSVILLE HERNANDO	28.48	-82.449997	1943-12-19 00:00:00	1944-03-13 00:00:00	/raid60/scratch/leo/scratch/era5/odbs/1759/era5.1759.conv.2:12818
0-20000-0-93841	[93841]	PENSACOLA, FL	30.719999	-87.019997	1944-06-01 00:00:00	1954-03-08 00:00:00	/raid60/scratch/leo/scratch/era5/odbs/1759/era5.1759.conv.2:93841
0-20000-0-22228	[22228]	VENGURLA	15.92	73.669998	1944-01-01 00:00:00	1948-12-31 00:00:00	/raid60/scratch/leo/scratch/era5/odbs/1759/era5.1759.conv.6:22228
0-20000-0-34007	[34007]	CANNES	43.52	6.67	1944-08-19 00:00:00	1944-08-21 00:00:00	/raid60/scratch/leo/scratch/era5/odbs/1759/era5.1759.conv.2:34007
0-20000-0-42102	[42102]	GUILIN	25.33	110.169998	1944-03-27 00:00:00	1944-08-11 00:00:00	/raid60/scratch/leo/scratch/era5/odbs/1759/era5.1759.conv.2:42102
[]	[13946]	VICTORIA (WALKER AAF)	38.900002	-99.099998	1943-12-05 00:00:00	1946-01-31 00:00:00	/raid60/scratch/leo/scratch/era5/odbs/1759/era5.1759.conv.2:13946
[]	[80502]		9.2	152.949997	1943-08-18 00:00:00	1945-02-09 00:00:00	/raid60/scratch/leo/scratch/era5/odbs/1759/era5.1759.conv.2:80502
0-20000-0-12813	[12813]	ORLANDO/JETPORT FL.	28.280001	-81.419998	1944-03-26 00:00:00	1945-07-30 00:00:00	/raid60/scratch/leo/scratch/era5/odbs/1759/era5.1759.conv.2:12813
0-20000-0-47582	[47582]	AKITA (47582-0)	39.720001	140.100006	1936-02-03 00:00:00	1979-12-31 00:00:00	/raid60/scratch/leo/scratch/era5/odbs/1759/era5.1759.conv.1:47582
0-20000-0-23240	[23240]	MERCED/CASTLE AFB,  CA.	37.400002	-121.129997	1944-01-17 00:00:00	1946-03-29 00:00:00	/raid60/scratch/leo/scratch/era5/odbs/1759/era5.1759.conv.2:23240
0-20000-0-13861	[13861]	WAYCROSS/WARE CO., GA	31.25	-82.400002	1942-11-08 00:00:00	1979-12-31 00:00:00	/raid60/scratch/leo/scratch/era5/odbs/1759/era5.1759.conv.2:13861
[]	[12819]	LEESBURG (AAF)	28.799999	-81.800003	1943-12-19 00:00:00	1944-03-09 00:00:00	/raid60/scratch/leo/scratch/era5/odbs/1759/era5.1759.conv.2:12819
0-20000-0-93911	[93911]	TINKER AFB, OK.	35.349998	-96.949997	1944-06-01 00:00:00	1945-05-31 00:00:00	/raid60/scratch/leo/scratch/era5/odbs/1759/era5.1759.conv.2:93911
0-20000-0-32806	[32806]	RAJARHAT, KURIGRAM	25.879999	89.470001	1943-12-01 00:00:00	1946-03-30 00:00:00	/raid60/scratch/leo/scratch/era5/odbs/1759/era5.1759.conv.2:32806
0-20000-0-07790	[34009]	BASTIA	42.48	9.5	1944-10-17 00:00:00	1944-11-21 00:00:00	/raid60/scratch/leo/scratch/era5/odbs/1759/era5.1759.conv.2:34009
0-20000-0-57866	[42103]	LINGLING	26.25	111.529999	1944-03-09 00:00:00	1944-06-23 00:00:00	/raid60/scratch/leo/scratch/era5/odbs/1759/era5.1759.conv.2:42103
0-20000-0-22251	[22251]	KANNIYAKUMARI	8.18	77.43	1944-01-01 00:00:00	1948-12-31 00:00:00	/raid60/scratch/leo/scratch/era5/odbs/1759/era5.1759.conv.6:22251
[]	[13999]	CLINTON-SHERMAN AP	35.369999	-99.18	1943-07-02 00:00:00	1946-05-15 00:00:00	/raid60/scratch/leo/scratch/era5/odbs/1759/era5.1759.conv.2:13999
0-20000-0-72205	[12815]	ORLANDO/JETPORT FL.	28.450001	-81.32	1944-01-30 00:00:00	1946-08-31 00:00:00	/raid60/scratch/leo/scratch/era5/odbs/1759/era5.1759.conv.2:12815
0-20000-0-13840	[13840]	DAYTON/. COX, OH.	39.869999	-84.120003	1929-03-18 00:00:00	1971-12-31 00:00:00	/raid60/scratch/leo/scratch/era5/odbs/1759/era5.1759.conv.2:13840
[]	[80504]		8.33	157.270004	1943-11-30 00:00:00	1945-03-10 00:00:00	/raid60/scratch/leo/scratch/era5/odbs/1759/era5.1759.conv.2:80504
0-20000-0-11629	[11629]	SANTO DOMINGO (78486-0)	18.469999	-69.879997	1923-01-01 00:00:00	1923-12-31 00:00:00	/raid60/scratch/leo/scratch/era5/odbs/1759/era5.1759.conv.1923
0-20000-0-47584	[47584]	MORIOKA	39.700001	141.169998	1936-10-01 00:00:00	1949-07-14 00:00:00	/raid60/scratch/leo/scratch/era5/odbs/1759/era5.1759.conv.1:47584
0-20000-0-23241	[23241]	SALINAS, CA, SALINAS MUNI ARPT	36.880001	-121.400002	1944-10-18 00:00:00	1945-10-11 00:00:00	/raid60/scratch/leo/scratch/era5/odbs/1759/era5.1759.conv.2:23241
[]	[12820]	DUNNELLON	29.07	-82.370003	1943-12-20 00:00:00	1944-03-12 00:00:00	/raid60/scratch/leo/scratch/era5/odbs/1759/era5.1759.conv.2:12820
0-20000-0-50101	[50101]	WIDE AWAKE FIELD (ASCENSION IS.)	-7.97	-14.4	1942-09-12 00:00:00	1970-05-31 00:00:00	/raid60/scratch/leo/scratch/era5/odbs/1759/era5.1759.conv.2:50101
0-20000-0-20303	[20303]	ADEN	12.82	45.029999	1944-01-23 00:00:00	1948-12-29 00:00:00	/raid60/scratch/leo/scratch/era5/odbs/1759/era5.1759.conv.6:20303
0-20000-0-34010	[34010]	DOLE-TAVAUX	47.099998	5.45	1944-09-20 00:00:00	1944-10-31 00:00:00	/raid60/scratch/leo/scratch/era5/odbs/1759/era5.1759.conv.2:34010
[]	[42104]	SUICHWAN	26.42	114.5	1944-04-05 00:00:00	1944-06-21 00:00:00	/raid60/scratch/leo/scratch/era5/odbs/1759/era5.1759.conv.2:42104
0-20000-0-32808	[32808]	BANKURA	23.620001	87.199997	1943-05-31 00:00:00	1945-12-29 00:00:00	/raid60/scratch/leo/scratch/era5/odbs/1759/era5.1759.conv.2:32808
0-20000-0-22840	[22840]	SALALAH AIRPORT	17.049999	54.099998	1944-01-01 00:00:00	1947-05-13 00:00:00	/raid60/scratch/leo/scratch/era5/odbs/1759/era5.1759.conv.6:22840
0-20000-0-14501	[14501]	GANDER AIRPORT CS, NFLD	48.950001	-54.57	1943-06-03 00:00:00	1945-08-31 00:00:00	/raid60/scratch/leo/scratch/era5/odbs/1759/era5.1759.conv.2:14501
0-20000-0-47401	[47401]	WAKKANAI	45.419998	141.679993	1941-11-11 00:00:00	1979-12-31 00:00:00	/raid60/scratch/leo/scratch/era5/odbs/1759/era5.1759.conv.1:47401
0-20000-0-12817	[12817]	GAINSVILLE, FL GAINSVILLE RGNL ARPT	29.83	-82.07	1944-01-06 00:00:00	1944-02-19 00:00:00	/raid60/scratch/leo/scratch/era5/odbs/1759/era5.1759.conv.2:12817
0-20000-0-13908	[13908]	DALLAS, TX, DALLAS LOVE FIELD ARPT	32.849998	-96.849998	1929-01-06 00:00:00	1930-07-27 00:00:00	/raid60/scratch/leo/scratch/era5/odbs/1759/era5.1759.conv.2:13908
[]	[80511]		6.5	155.169998	1943-12-20 00:00:00	1944-02-29 00:00:00	/raid60/scratch/leo/scratch/era5/odbs/1759/era5.1759.conv.2:80511
0-20000-0-25501	[25501]	KODIAK, AK	57.75	-152.520004	1941-12-02 00:00:00	1979-12-31 00:00:00	/raid60/scratch/leo/scratch/era5/odbs/1759/era5.1759.conv.2:25501
0-20000-0-13909	[13909]	Southern Great Plains (SCP) Central Facility	36.349998	-97.919998	1942-02-03 00:00:00	1956-09-21 00:00:00	/raid60/scratch/leo/scratch/era5/odbs/1759/era5.1759.conv.2:13909
0-20000-0-23249	[23249]	SALINAS, CA, SALINAS MUNI ARPT	36.93	-121.779999	1944-03-23 00:00:00	1945-09-30 00:00:00	/raid60/scratch/leo/scratch/era5/odbs/1759/era5.1759.conv.2:23249
0-20000-0-72212	[12822]	CROSS CITY/CROSS CITY A., FL.	29.629999	-83.120003	1943-12-24 00:00:00	1944-02-27 00:00:00	/raid60/scratch/leo/scratch/era5/odbs/1759/era5.1759.conv.2:12822
0-20000-0-34011	[34011]	CHAMBERY-AIX-LES-BAINS	45.599998	5.5	1944-09-06 00:00:00	1944-09-06 00:00:00	/raid60/scratch/leo/scratch/era5/odbs/1759/era5.1759.conv.2:34011
[]	[50801]		2.2	-81.0	1942-07-26 00:00:00	1946-01-14 00:00:00	/raid60/scratch/leo/scratch/era5/odbs/1759/era5.1759.conv.2:50801
0-20000-0-20307	[20307]	DUBAI INTERNATIONAL AIRPORT	25.33	55.400002	1944-01-02 00:00:00	1948-12-30 00:00:00	/raid60/scratch/leo/scratch/era5/odbs/1759/era5.1759.conv.6:20307
0-20000-0-47662	[47662]	TOKYO	35.68	139.770004	1936-07-02 00:00:00	1949-10-31 00:00:00	/raid60/scratch/leo/scratch/era5/odbs/1759/era5.1759.conv.1:47662
0-20000-0-14780	[14780]	LAKEHURST/NAS, NJ.	40.03	-74.31	1924-01-01 00:00:00	1924-12-31 00:00:00	/raid60/scratch/leo/scratch/era5/odbs/1759/era5.1759.conv.1924
0-20000-0-32904	[32904]	GOLAGHAT	26.719999	94.169998	1943-09-24 00:00:00	1945-10-10 00:00:00	/raid60/scratch/leo/scratch/era5/odbs/1759/era5.1759.conv.2:32904
0-20000-0-22841	[22841]	MASIRAH	20.700001	58.919998	1944-01-01 00:00:00	1948-11-22 00:00:00	/raid60/scratch/leo/scratch/era5/odbs/1759/era5.1759.conv.6:22841
[]	[43001]	CHENGDU	30.25	104.029999	1944-02-09 00:00:00	1944-09-25 00:00:00	/raid60/scratch/leo/scratch/era5/odbs/1759/era5.1759.conv.2:43001
[]	[80512]		8.33	157.169998	1943-09-01 00:00:00	1943-11-30 00:00:00	/raid60/scratch/leo/scratch/era5/odbs/1759/era5.1759.conv.2:80512
0-20000-0-12823	[12823]	GAINSVILLE, FL GAINSVILLE RGNL ARPT	29.35	-82.470001	1944-01-23 00:00:00	1944-03-10 00:00:00	/raid60/scratch/leo/scratch/era5/odbs/1759/era5.1759.conv.2:12823
[]	[14603]	HOULTON AAF	46.119999	-67.779999	1943-02-13 00:00:00	1945-10-19 00:00:00	/raid60/scratch/leo/scratch/era5/odbs/1759/era5.1759.conv.2:14603
0-20000-0-13916	[13916]	HASKELL, OK.	35.75	-95.370003	1929-01-03 00:00:00	1942-07-03 00:00:00	/raid60/scratch/leo/scratch/era5/odbs/1759/era5.1759.conv.2:13916
0-20000-0-61702	[61702]	PAGO PAGO/INT.AIRP. AMERICAN SAMOA	-14.33	-170.679993	1941-03-18 00:00:00	1950-05-29 00:00:00	/raid60/scratch/leo/scratch/era5/odbs/1759/era5.1759.conv.2:61702
0-20000-0-13918	[13918]	OKLAHOMA CITY/W. ROGERS WORLD, OK.	35.400002	-97.599998	1942-01-26 00:00:00	1944-11-15 00:00:00	/raid60/scratch/leo/scratch/era5/odbs/1759/era5.1759.conv.2:13918
[]	[24010]	LEWISTOWN 2 SW	47.049999	-109.449997	1944-05-05 00:00:00	1944-11-29 00:00:00	/raid60/scratch/leo/scratch/era5/odbs/1759/era5.1759.conv.2:24010
0-20000-0-74787	[12846]	DAYTONA BEACH, FL, DAYTONA BEACH INT. ARPT	29.18	-81.07	1943-11-01 00:00:00	1946-04-10 00:00:00	/raid60/scratch/leo/scratch/era5/odbs/1759/era5.1759.conv.2:12846
0-20000-0-07765	[34013]	SOLENZARA	42.0	9.4	1944-12-17 00:00:00	1945-04-06 00:00:00	/raid60/scratch/leo/scratch/era5/odbs/1759/era5.1759.conv.2:34013
0-20000-0-32905	[32905]	KURMITOLA, DIA	23.85	90.480003	1943-09-03 00:00:00	1945-02-28 00:00:00	/raid60/scratch/leo/scratch/era5/odbs/1759/era5.1759.conv.2:32905
[]	[50802]		4.53	-81.230003	1942-10-29 00:00:00	1947-09-30 00:00:00	/raid60/scratch/leo/scratch/era5/odbs/1759/era5.1759.conv.2:50802
0-20000-0-20308	[20308]	BAHRAIN (INT. AIRPORT)	26.23	50.580002	1944-01-02 00:00:00	1948-08-28 00:00:00	/raid60/scratch/leo/scratch/era5/odbs/1759/era5.1759.conv.6:20308
0-20001-0-53845	[43002]	YAN AN (53845-1)	36.52	109.449997	1944-11-23 00:00:00	1946-03-23 00:00:00	/raid60/scratch/leo/scratch/era5/odbs/1759/era5.1759.conv.2:43002
0-20000-0-47768	[47768]	OKAYAMA	34.68	133.919998	1936-08-11 00:00:00	1941-05-30 00:00:00	/raid60/scratch/leo/scratch/era5/odbs/1759/era5.1759.conv.1:47768
[]	[80513]		8.6	157.919998	1943-10-02 00:00:00	1944-03-28 00:00:00	/raid60/scratch/leo/scratch/era5/odbs/1759/era5.1759.conv.2:80513
[]	[12825]	VENICE (AAF)	27.08	-82.43	1944-05-11 00:00:00	1945-10-23 00:00:00	/raid60/scratch/leo/scratch/era5/odbs/1759/era5.1759.conv.2:12825
0-20000-0-22920	[22920]	KOLKATA/DUM DUM	22.77	88.370003	1945-01-29 00:00:00	1946-07-24 00:00:00	/raid60/scratch/leo/scratch/era5/odbs/1759/era5.1759.conv.6:22920
[]	[41407]	GUAM MARSHALL ISLAND	13.47	144.25	1924-12-31 00:00:00	1925-12-31 00:00:00	/raid60/scratch/leo/scratch/era5/odbs/1759/era5.1759.conv.1925
0-20000-0-74787	[12847]	DAYTONA BEACH, FL, DAYTONA BEACH INT. ARPT	29.08	-81.419998	1943-04-15 00:00:00	1945-05-30 00:00:00	/raid60/scratch/leo/scratch/era5/odbs/1759/era5.1759.conv.2:12847
0-20000-0-34014	[34014]	AMUNDSEN-SCOTT	-90.010002	179.990005	1944-06-14 00:00:00	1944-07-08 00:00:00	/raid60/scratch/leo/scratch/era5/odbs/1759/era5.1759.conv.2:34014
0-20000-0-50903	[50903]	BALTRA AEROPUERTO (GALAPAGOS)	-0.47	-90.300003	1942-08-04 00:00:00	1948-10-31 00:00:00	/raid60/scratch/leo/scratch/era5/odbs/1759/era5.1759.conv.2:50903
0-20000-0-33014	[33014]	CAGLIARI ELMAS	39.299999	9.17	1943-11-06 00:00:00	1944-09-07 00:00:00	/raid60/scratch/leo/scratch/era5/odbs/1759/era5.1759.conv.2:33014
[]	[87400]		-32.830002	-70.080002	1936-04-07 00:00:00	1939-04-20 00:00:00	/raid60/scratch/leo/scratch/era5/odbs/1759/era5.1759.conv.1:87400
[]	[13923]	SHERMAN PERRIN FIELD	33.720001	-96.669998	1942-04-01 00:00:00	1952-06-25 00:00:00	/raid60/scratch/leo/scratch/era5/odbs/1759/era5.1759.conv.2:13923
[]	[12828]	LEESBURG (AAF)	28.68	-82.080002	1944-05-18 00:00:00	1945-08-31 00:00:00	/raid60/scratch/leo/scratch/era5/odbs/1759/era5.1759.conv.2:12828
[]	[30712]		7.23	72.43	1944-01-05 00:00:00	1948-11-12 00:00:00	/raid60/scratch/leo/scratch/era5/odbs/1759/era5.1759.conv.6:30712
0-20000-0-14611	[14611]	BRUNSWICK/NAS, ME.	43.880001	-69.93	1943-09-10 00:00:00	1959-04-28 00:00:00	/raid60/scratch/leo/scratch/era5/odbs/1759/era5.1759.conv.2:14611
0-20000-0-80601	[80601]	HONIARA/HENDERSON AWS	-9.43	160.050003	1943-03-16 00:00:00	1949-07-15 00:00:00	/raid60/scratch/leo/scratch/era5/odbs/1759/era5.1759.conv.2:80601
0-20000-0-20343	[20343]	JIWANI	25.17	61.779999	1944-01-04 00:00:00	1948-11-21 00:00:00	/raid60/scratch/leo/scratch/era5/odbs/1759/era5.1759.conv.6:20343
0-20000-0-34016	[34016]	NANCY-ESSEY	48.669998	6.2	1944-11-17 00:00:00	1944-11-25 00:00:00	/raid60/scratch/leo/scratch/era5/odbs/1759/era5.1759.conv.2:34016
0-20000-0-12849	[12849]	FORT LAUDERDALE, FL, FORT LAUDERDALE-HOLYWOOD INT. ARPT	26.07	-80.150002	1943-01-08 00:00:00	1946-05-31 00:00:00	/raid60/scratch/leo/scratch/era5/odbs/1759/era5.1759.conv.2:12849
0-20000-0-13921	[13921]	KANSAS CITY,  INTNL., MO.	39.369999	-94.919998	1929-03-17 00:00:00	1953-10-19 00:00:00	/raid60/scratch/leo/scratch/era5/odbs/1759/era5.1759.conv.2:13921
[]	[33123]	WHEELUS	32.900002	13.28	1945-10-01 00:00:00	1970-02-28 00:00:00	/raid60/scratch/leo/scratch/era5/odbs/1759/era5.1759.conv.2:33123
0-20000-0-33015	[33015]	TUNIS-CARTHAGE	36.869999	9.9	1943-08-01 00:00:00	1943-10-26 00:00:00	/raid60/scratch/leo/scratch/era5/odbs/1759/era5.1759.conv.2:33015
[]	[50904]	GALAPAGOS IS NF	0.43	-90.279999	1942-11-20 00:00:00	1945-11-30 00:00:00	/raid60/scratch/leo/scratch/era5/odbs/1759/era5.1759.conv.2:50904
0-20000-0-11616	[11616]	C. AMALIE/TRUMAN,  ST. THOMAS	18.32	-65.279999	1936-01-20 00:00:00	1940-02-21 00:00:00	/raid60/scratch/leo/scratch/era5/odbs/1759/era5.1759.conv.2:11616
0-20000-0-12848	[12848]	MIAMI, FL (72202-0)	25.73	-80.230003	1944-05-05 00:00:00	1945-02-28 00:00:00	/raid60/scratch/leo/scratch/era5/odbs/1759/era5.1759.conv.2:12848
0-20000-0-22517	[22517]	HONOLULU, OAHU, HAWAII	21.35	-157.95	1926-01-01 00:00:00	1926-12-31 00:00:00	/raid60/scratch/leo/scratch/era5/odbs/1759/era5.1759.conv.1926
[]	[80602]		9.43	160.179993	1943-08-04 00:00:00	1945-05-19 00:00:00	/raid60/scratch/leo/scratch/era5/odbs/1759/era5.1759.conv.2:80602
[]	[14612]	ROCKLAND	44.119999	-69.169998	1943-11-01 00:00:00	1944-12-27 00:00:00	/raid60/scratch/leo/scratch/era5/odbs/1759/era5.1759.conv.2:14612
0-20000-0-13928	[13928]	WACO, MADISON-COOPER, TX.	31.620001	-97.220001	1942-08-26 00:00:00	1952-05-31 00:00:00	/raid60/scratch/leo/scratch/era5/odbs/1759/era5.1759.conv.2:13928
0-20000-0-78763	[78763]	TOBIAS BOLANOS PALMA INTERNATIONAL AIRPORT	9.93	-84.099998	1944-04-03 00:00:00	1954-03-30 00:00:00	/raid60/scratch/leo/scratch/era5/odbs/1759/era5.1759.conv.6:78763
0-20000-0-20345	[20345]	DAL BANDIN	28.9	64.43	1944-01-01 00:00:00	1948-12-28 00:00:00	/raid60/scratch/leo/scratch/era5/odbs/1759/era5.1759.conv.6:20345
[]	[45702]	AMCHITKA ISLAND	51.380001	179.25	1944-06-07 00:00:00	1965-10-30 00:00:00	/raid60/scratch/leo/scratch/era5/odbs/1759/era5.1759.conv.2:45702
0-20000-0-34020	[34020]	LUXEUIL	47.619999	6.17	1944-09-22 00:00:00	1944-09-25 00:00:00	/raid60/scratch/leo/scratch/era5/odbs/1759/era5.1759.conv.2:34020
0-20000-0-93837	[93837]	JACKSONVILLE, FL CRAIG MUNI ARPT	30.23	-81.68	1941-09-03 00:00:00	1955-10-31 00:00:00	/raid60/scratch/leo/scratch/era5/odbs/1759/era5.1759.conv.2:93837
0-20000-0-74795	[12851]	COCOA/PATRICK AFB,  FL.	28.1	-80.629997	1943-09-02 00:00:00	1945-10-31 00:00:00	/raid60/scratch/leo/scratch/era5/odbs/1759/era5.1759.conv.2:12851
0-20000-0-33023	[33023]	DAR EL BEIDA VILLE	36.720001	3.23	1943-04-01 00:00:00	1946-01-08 00:00:00	/raid60/scratch/leo/scratch/era5/odbs/1759/era5.1759.conv.2:33023
[]	[61503]		16.469999	-151.75	1942-04-25 00:00:00	1945-10-30 00:00:00	/raid60/scratch/leo/scratch/era5/odbs/1759/era5.1759.conv.2:61503
0-20000-0-24101	[24101]	OGDEN, UT	41.119999	-112.010002	1944-05-09 00:00:00	1956-08-07 00:00:00	/raid60/scratch/leo/scratch/era5/odbs/1759/era5.1759.conv.2:24101
0-20000-0-33206	[33206]	ATHINAI HELLINIKON	37.900002	23.73	1945-01-21 00:00:00	1952-01-31 00:00:00	/raid60/scratch/leo/scratch/era5/odbs/1759/era5.1759.conv.2:33206
0-20000-0-23211	[23211]	ALAMEDA/NAS, CA.	38.07	-122.519997	1936-07-01 00:00:00	1951-07-31 00:00:00	/raid60/scratch/leo/scratch/era5/odbs/1759/era5.1759.conv.2:23211
0-20000-0-12905	[12905]	GALVESTON, TX.	29.27	-94.849998	1944-05-31 00:00:00	1945-11-16 00:00:00	/raid60/scratch/leo/scratch/era5/odbs/1759/era5.1759.conv.2:12905
0-20000-0-14702	[14702]	BEDFORD/HANSCOM AFB, MA.	42.470001	-71.279999	1943-02-12 00:00:00	1952-05-30 00:00:00	/raid60/scratch/leo/scratch/era5/odbs/1759/era5.1759.conv.2:14702
0-20000-0-13936	[13936]	BATON ROUGE, LA, BATON ROUGE METROPOLITAN, RYAN FIELD ARPT	30.530001	-91.150002	1942-02-21 00:00:00	1945-02-13 00:00:00	/raid60/scratch/leo/scratch/era5/odbs/1759/era5.1759.conv.2:13936
[]	[45703]	KISKA ISLAND	51.98	177.570007	1944-08-19 00:00:00	1945-10-08 00:00:00	/raid60/scratch/leo/scratch/era5/odbs/1759/era5.1759.conv.2:45703
0-20000-0-20348	[20348]	ZHOB	31.35	69.449997	1944-01-01 00:00:00	1948-12-31 00:00:00	/raid60/scratch/leo/scratch/era5/odbs/1759/era5.1759.conv.6:20348
0-20000-0-80701	[80701]	NANUMEA	-5.7	176.149994	1943-11-13 00:00:00	1965-10-22 00:00:00	/raid60/scratch/leo/scratch/era5/odbs/1759/era5.1759.conv.2:80701
0-20000-0-16801	[16801]	CORAL HARBOUR UA, NU	64.199997	-83.370003	1943-06-01 00:00:00	1971-09-30 00:00:00	/raid60/scratch/leo/scratch/era5/odbs/1759/era5.1759.conv.2:16801
0-20000-0-13947	[13947]	FORT RILEY, KS. (ARMY)	39.049999	-96.769997	1929-03-05 00:00:00	1958-10-12 00:00:00	/raid60/scratch/leo/scratch/era5/odbs/1759/era5.1759.conv.2:13947
0-20000-0-34021	[34021]	AMBERIEU	45.970001	5.33	1944-09-11 00:00:00	1944-09-20 00:00:00	/raid60/scratch/leo/scratch/era5/odbs/1759/era5.1759.conv.2:34021
0-20000-0-22517	[22517]	HONOLULU, OAHU, HAWAII	21.35	-157.95	1927-01-01 00:00:00	1927-12-31 00:00:00	/raid60/scratch/leo/scratch/era5/odbs/1759/era5.1759.conv.1927
0-20000-0-12853	[12853]	MIAMI, FL (72202-0)	25.620001	-80.419998	1943-02-01 00:00:00	1945-11-16 00:00:00	/raid60/scratch/leo/scratch/era5/odbs/1759/era5.1759.conv.2:12853
0-20000-0-33025	[33025]	MASCARA-GHRISS	35.380001	0.12	1943-05-21 00:00:00	1943-06-16 00:00:00	/raid60/scratch/leo/scratch/era5/odbs/1759/era5.1759.conv.2:33025
0-20000-0-47607	[47607]	TOYAMA	36.700001	137.199997	1942-06-30 00:00:00	1946-09-09 00:00:00	/raid60/scratch/leo/scratch/era5/odbs/1759/era5.1759.conv.1:47607
[]	[61703]		13.33	-176.149994	1942-10-01 00:00:00	1943-07-31 00:00:00	/raid60/scratch/leo/scratch/era5/odbs/1759/era5.1759.conv.2:61703
0-20000-0-24102	[24102]	BOISE/MUN., ID.	43.630001	-116.199997	1944-10-09 00:00:00	1945-02-12 00:00:00	/raid60/scratch/leo/scratch/era5/odbs/1759/era5.1759.conv.2:24102
0-20000-0-33304	[33304]	ATHALASSA	35.150002	33.279999	1945-01-20 00:00:00	1945-07-31 00:00:00	/raid60/scratch/leo/scratch/era5/odbs/1759/era5.1759.conv.2:33304
[]	[12907]	LAREDO	27.530001	-99.470001	1944-06-06 00:00:00	1945-03-04 00:00:00	/raid60/scratch/leo/scratch/era5/odbs/1759/era5.1759.conv.2:12907
0-20000-0-47632	[47632]	GIFU	35.400002	136.770004	1937-08-20 00:00:00	1941-07-29 00:00:00	/raid60/scratch/leo/scratch/era5/odbs/1759/era5.1759.conv.1:47632
0-20000-0-13937	[13937]	FORT POLK, LA. (ARMY)	30.83	-93.370003	1942-12-13 00:00:00	1945-03-22 00:00:00	/raid60/scratch/leo/scratch/era5/odbs/1759/era5.1759.conv.2:13937
[]	[45711]	AMCHITKA ISLAND	51.400002	179.270004	1944-04-07 00:00:00	1944-04-29 00:00:00	/raid60/scratch/leo/scratch/era5/odbs/1759/era5.1759.conv.2:45711
0-20000-0-20354	[20354]	DROSH	35.57	71.779999	1944-02-16 00:00:00	1955-08-23 00:00:00	/raid60/scratch/leo/scratch/era5/odbs/1759/era5.1759.conv.6:20354
[]	[80702]		8.52	179.220001	1943-07-21 00:00:00	1943-10-17 00:00:00	/raid60/scratch/leo/scratch/era5/odbs/1759/era5.1759.conv.2:80702
0-20000-0-34023	[34023]	SALON DE PROVENCE	43.630001	5.1	1944-08-29 00:00:00	1944-09-05 00:00:00	/raid60/scratch/leo/scratch/era5/odbs/1759/era5.1759.conv.2:34023
0-20000-0-14704	[14704]	CHATHAM, MA.	41.650002	-70.519997	1943-08-18 00:00:00	1965-08-01 00:00:00	/raid60/scratch/leo/scratch/era5/odbs/1759/era5.1759.conv.2:14704
0-20000-0-17501	[17501]	MITTARFIK UPERNAVIK (UPERNAVIK LUFTHAVN)	72.75	-56.0	1943-12-01 00:00:00	1943-12-01 00:00:00	/raid60/scratch/leo/scratch/era5/odbs/1759/era5.1759.conv.2:17501
0-20000-0-60714	[33027]	BIZERTE	37.119999	9.67	1943-08-05 00:00:00	1943-09-17 00:00:00	/raid60/scratch/leo/scratch/era5/odbs/1759/era5.1759.conv.2:33027
0-20000-0-12854	[12854]	ORLANDO/JETPORT FL.	28.780001	-81.230003	1943-10-01 00:00:00	1959-03-31 00:00:00	/raid60/scratch/leo/scratch/era5/odbs/1759/era5.1759.conv.2:12854
[]	[62702]		21.129999	-175.179993	1942-06-12 00:00:00	1942-12-31 00:00:00	/raid60/scratch/leo/scratch/era5/odbs/1759/era5.1759.conv.2:62702
0-20000-0-47675	[47675]	OSHIMA	34.77	139.380005	1942-08-01 00:00:00	1944-10-16 00:00:00	/raid60/scratch/leo/scratch/era5/odbs/1759/era5.1759.conv.1:47675
0-20000-0-33306	[33306]	ANKARA GUVERCINLIK HAVALMANI	39.950001	32.75	1945-02-02 00:00:00	1946-02-17 00:00:00	/raid60/scratch/leo/scratch/era5/odbs/1759/era5.1759.conv.2:33306
[]	[24107]	MONIDA	44.57	-112.32	1944-05-03 00:00:00	1944-07-30 00:00:00	/raid60/scratch/leo/scratch/era5/odbs/1759/era5.1759.conv.2:24107
0-20000-0-74745	[12910]	AUSTIN-BERGSTROM INTL AIRPORT, TX.	29.879999	-97.870003	1944-07-25 00:00:00	1945-08-14 00:00:00	/raid60/scratch/leo/scratch/era5/odbs/1759/era5.1759.conv.2:12910
0-20000-0-47777	[47777]	WAKAYAMA	34.23	135.169998	1937-11-11 00:00:00	1941-02-27 00:00:00	/raid60/scratch/leo/scratch/era5/odbs/1759/era5.1759.conv.1:47777
0-20000-0-47930	[47930]	NAHA AIRPORT	26.2	127.65	1928-01-01 00:00:00	1928-12-31 00:00:00	/raid60/scratch/leo/scratch/era5/odbs/1759/era5.1759.conv.1928
[]	[81301]		13.3	131.130005	1943-04-04 00:00:00	1944-08-21 00:00:00	/raid60/scratch/leo/scratch/era5/odbs/1759/era5.1759.conv.2:81301
0-20000-0-34102	[34102]	GROTTAGLIE	40.43	17.629999	1944-04-07 00:00:00	1945-04-30 00:00:00	/raid60/scratch/leo/scratch/era5/odbs/1759/era5.1759.conv.2:34102
[]	[14707]	FISHERS ISLAND FORT H G WRIGHT	41.330002	-72.050003	1943-10-20 00:00:00	1944-01-10 00:00:00	/raid60/scratch/leo/scratch/era5/odbs/1759/era5.1759.conv.2:14707
0-20000-0-33031	[33031]	RELIZANE	35.619999	0.62	1943-02-07 00:00:00	1945-12-14 00:00:00	/raid60/scratch/leo/scratch/era5/odbs/1759/era5.1759.conv.2:33031
0-20000-0-12855	[12855]	VERO BEACH, FL, VERO BEACH MUNI ARPT	27.65	-80.419998	1943-09-02 00:00:00	1946-03-29 00:00:00	/raid60/scratch/leo/scratch/era5/odbs/1759/era5.1759.conv.2:12855
0-20000-0-24108	[24108]	POCATELLO/MUN., ID.	42.919998	-112.57	1944-05-01 00:00:00	1944-12-16 00:00:00	/raid60/scratch/leo/scratch/era5/odbs/1759/era5.1759.conv.2:24108
0-20000-0-13939	[13939]	GREENVILLE, MS MID DELTA RGNL ARPT	33.48	-90.980003	1942-03-20 00:00:00	1954-04-30 00:00:00	/raid60/scratch/leo/scratch/era5/odbs/1759/era5.1759.conv.2:13939
[]	[80402]		8.77	148.369995	1942-11-07 00:00:00	1945-08-14 00:00:00	/raid60/scratch/leo/scratch/era5/odbs/1759/era5.1759.conv.2:80402
0-20000-0-33307	[33307]	ADANA AKRPAA HAVALMANI	36.98	35.299999	1945-04-11 00:00:00	1946-01-17 00:00:00	/raid60/scratch/leo/scratch/era5/odbs/1759/era5.1759.conv.2:33307
0-20000-0-12914	[12914]	VICTORIA/VICTORIA REGIONAL, TX.	28.77	-97.120003	1944-09-01 00:00:00	1945-06-20 00:00:00	/raid60/scratch/leo/scratch/era5/odbs/1759/era5.1759.conv.2:12914
0-20000-0-20355	[20355]	PESHAWAR	34.02	71.580002	1944-01-01 00:00:00	1955-10-30 00:00:00	/raid60/scratch/leo/scratch/era5/odbs/1759/era5.1759.conv.6:20355
0-20000-0-47420	[47420]	NEMURO	43.330002	145.580002	1941-10-01 00:00:00	1979-12-31 00:00:00	/raid60/scratch/leo/scratch/era5/odbs/1759/era5.1759.conv.1:47420
[]	[81304]		13.05	131.070007	1943-01-01 00:00:00	1943-05-31 00:00:00	/raid60/scratch/leo/scratch/era5/odbs/1759/era5.1759.conv.2:81304
0-20000-0-47887	[47887]	MATSUYAMA	33.830002	132.779999	1937-10-26 00:00:00	1941-06-16 00:00:00	/raid60/scratch/leo/scratch/era5/odbs/1759/era5.1759.conv.1:47887
0-20000-0-34103	[34103]	NAPOLI/CAPODICHINO	40.919998	14.43	1944-03-01 00:00:00	1944-07-01 00:00:00	/raid60/scratch/leo/scratch/era5/odbs/1759/era5.1759.conv.2:34103
0-20000-0-14709	[14709]	NEW YORK, NY, CENTRAL PARK	40.849998	-73.919998	1943-12-02 00:00:00	1944-06-30 00:00:00	/raid60/scratch/leo/scratch/era5/odbs/1759/era5.1759.conv.2:14709
0-20000-0-33044	[33044]	CONSTANTINE	36.119999	6.35	1943-01-30 00:00:00	1944-07-01 00:00:00	/raid60/scratch/leo/scratch/era5/odbs/1759/era5.1759.conv.2:33044
0-20000-0-12856	[12856]	LA FE, ISLA DE LA JUVENTUD	21.73	-82.769997	1943-08-01 00:00:00	1944-05-31 00:00:00	/raid60/scratch/leo/scratch/era5/odbs/1759/era5.1759.conv.2:12856
0-20000-0-24110	[24110]	EPHRATA, WA, EPHRATA MUNI ARPT	47.18	-119.330002	1944-05-05 00:00:00	1953-11-28 00:00:00	/raid60/scratch/leo/scratch/era5/odbs/1759/era5.1759.conv.2:24110
[]	[80604]		9.42	160.050003	1942-11-12 00:00:00	1942-12-31 00:00:00	/raid60/scratch/leo/scratch/era5/odbs/1759/era5.1759.conv.2:80604
0-20000-0-33404	[33404]	ARAK (40769-0)	34.080002	49.650002	1945-01-07 00:00:00	1945-12-09 00:00:00	/raid60/scratch/leo/scratch/era5/odbs/1759/era5.1759.conv.2:33404
0-20000-0-13007	[13007]	OUJDA	34.75	-1.92	1944-03-19 00:00:00	1945-04-11 00:00:00	/raid60/scratch/leo/scratch/era5/odbs/1759/era5.1759.conv.2:13007
0-20000-0-20364	[20364]	LAHORE CITY	31.58	74.330002	1944-01-03 00:00:00	1948-12-31 00:00:00	/raid60/scratch/leo/scratch/era5/odbs/1759/era5.1759.conv.6:20364
0-20000-0-47930	[47930]	NAHA AIRPORT	26.2	127.65	1929-01-01 00:00:00	1929-12-31 00:00:00	/raid60/scratch/leo/scratch/era5/odbs/1759/era5.1759.conv.1929
0-20000-0-14708	[14708]	NEW YORK/JOHN F. KENNEDY INT., NY.	40.73	-73.599998	1929-08-15 00:00:00	1956-09-18 00:00:00	/raid60/scratch/leo/scratch/era5/odbs/1759/era5.1759.conv.2:14708
[]	[81409]		19.6	146.830002	1943-03-23 00:00:00	1943-09-29 00:00:00	/raid60/scratch/leo/scratch/era5/odbs/1759/era5.1759.conv.2:81409
0-20000-0-34104	[34104]	AMENDOLA	41.43	15.53	1944-12-01 00:00:00	1946-03-20 00:00:00	/raid60/scratch/leo/scratch/era5/odbs/1759/era5.1759.conv.2:34104
0-20000-0-33045	[33045]	ALGER-PORT	36.77	3.08	1943-07-02 00:00:00	1944-03-31 00:00:00	/raid60/scratch/leo/scratch/era5/odbs/1759/era5.1759.conv.2:33045
0-20000-0-14712	[14712]	ALLENTOWN/A.-BETHLEHEM-EASTON, PA.	40.380001	-75.970001	1943-08-14 00:00:00	1948-12-22 00:00:00	/raid60/scratch/leo/scratch/era5/odbs/1759/era5.1759.conv.2:14712
0-20000-0-12857	[12857]	ISABEL RUBIO, PINAR DEL RIO	22.07	-84.150002	1943-11-02 00:00:00	1945-11-28 00:00:00	/raid60/scratch/leo/scratch/era5/odbs/1759/era5.1759.conv.2:12857
0-20000-0-33405	[33405]	HABANYAH	33.369999	43.57	1945-06-09 00:00:00	1945-09-19 00:00:00	/raid60/scratch/leo/scratch/era5/odbs/1759/era5.1759.conv.2:33405
0-20000-0-24111	[24111]	WENDOVER/AF. AUX. FIELD, UT.	40.720001	-114.07	1944-05-01 00:00:00	1949-10-27 00:00:00	/raid60/scratch/leo/scratch/era5/odbs/1759/era5.1759.conv.2:24111
[]	[81306]		14.45	132.270004	1942-12-02 00:00:00	1943-03-26 00:00:00	/raid60/scratch/leo/scratch/era5/odbs/1759/era5.1759.conv.2:81306
0-20000-0-13012	[13012]	MEKNES	33.900002	-5.47	1944-11-01 00:00:00	1945-09-28 00:00:00	/raid60/scratch/leo/scratch/era5/odbs/1759/era5.1759.conv.2:13012
0-20000-0-83248	[83248]	SALVADOR (AERO)	-12.9	-38.330002	1937-07-03 00:00:00	1969-12-12 00:00:00	/raid60/scratch/leo/scratch/era5/odbs/1759/era5.1759.conv.1:83248
0-20000-0-20368	[20368]	AMBALA	30.379999	76.769997	1944-01-01 00:00:00	1948-12-31 00:00:00	/raid60/scratch/leo/scratch/era5/odbs/1759/era5.1759.conv.6:20368
[]	[81601]		15.5	167.25	1943-03-31 00:00:00	1946-12-07 00:00:00	/raid60/scratch/leo/scratch/era5/odbs/1759/era5.1759.conv.2:81601
0-20000-0-14711	[14711]	HARRISBURG, PA, HARRISBURG INT. ARPT	40.200001	-76.769997	1929-01-05 00:00:00	1954-10-12 00:00:00	/raid60/scratch/leo/scratch/era5/odbs/1759/era5.1759.conv.2:14711
0-20000-0-34105	[34105]	AMENDOLA	41.450001	15.55	1944-08-04 00:00:00	1946-01-22 00:00:00	/raid60/scratch/leo/scratch/era5/odbs/1759/era5.1759.conv.2:34105
0-20000-0-33103	[33103]	GELA	37.150002	14.17	1943-08-10 00:00:00	1943-08-19 00:00:00	/raid60/scratch/leo/scratch/era5/odbs/1759/era5.1759.conv.2:33103
0-20000-0-12865	[12865]	WEST PALM BEACH/ INT. FL.	26.68	-80.120003	1943-01-12 00:00:00	1945-09-14 00:00:00	/raid60/scratch/leo/scratch/era5/odbs/1759/era5.1759.conv.2:12865
0-20000-0-50303	[50303]	RECIFE (82900-0)	-8.12	-34.919998	1944-04-01 00:00:00	1964-12-31 00:00:00	/raid60/scratch/leo/scratch/era5/odbs/1759/era5.1759.conv.2:50303
0-20000-0-24114	[24114]	SPOKANE, WA.	47.619999	-117.650002	1944-07-16 00:00:00	1952-07-25 00:00:00	/raid60/scratch/leo/scratch/era5/odbs/1759/era5.1759.conv.2:24114
0-20000-0-34017	[34017]	BASTIA	42.549999	9.48	1945-06-01 00:00:00	1945-11-11 00:00:00	/raid60/scratch/leo/scratch/era5/odbs/1759/era5.1759.conv.2:34017
[]	[81403]		15.45	145.179993	1942-10-28 00:00:00	1944-11-26 00:00:00	/raid60/scratch/leo/scratch/era5/odbs/1759/era5.1759.conv.2:81403
0-20000-0-87925	[87925]	RIO GALLEGOS AERO	-51.669998	-69.269997	1937-01-03 00:00:00	1955-12-19 00:00:00	/raid60/scratch/leo/scratch/era5/odbs/1759/era5.1759.conv.1:87925
0-20000-0-71358	[17601]	CLYDE RIVER CLIMATE, NU	70.449997	-68.550003	1943-12-04 00:00:00	1962-12-31 00:00:00	/raid60/scratch/leo/scratch/era5/odbs/1759/era5.1759.conv.2:17601
0-20000-0-47765	[47765]	HIROSHIMA	34.369999	132.429993	1929-12-31 00:00:00	1930-12-31 00:00:00	/raid60/scratch/leo/scratch/era5/odbs/1759/era5.1759.conv.1930
[]	[81603]		17.68	168.300003	1943-03-15 00:00:00	1944-10-14 00:00:00	/raid60/scratch/leo/scratch/era5/odbs/1759/era5.1759.conv.2:81603
0-20000-0-14725	[14725]	LAKEHURST/NAS, NJ.	40.32	-74.029999	1929-02-03 00:00:00	1935-09-30 00:00:00	/raid60/scratch/leo/scratch/era5/odbs/1759/era5.1759.conv.2:14725
0-20000-0-34107	[34107]	AMENDOLA	41.700001	15.43	1944-05-14 00:00:00	1944-07-31 00:00:00	/raid60/scratch/leo/scratch/era5/odbs/1759/era5.1759.conv.2:34107
0-20000-0-33104	[33104]	KELIBIA	36.779999	11.0	1943-05-27 00:00:00	1943-05-27 00:00:00	/raid60/scratch/leo/scratch/era5/odbs/1759/era5.1759.conv.2:33104
[]	[12925]	BEEVILLE CHASE NAAS	28.370001	-97.669998	1943-06-06 00:00:00	1957-02-28 00:00:00	/raid60/scratch/leo/scratch/era5/odbs/1759/era5.1759.conv.2:12925
0-20000-0-24204	[24204]	ROBERT FIELD ARPT	44.669998	-121.169998	1944-05-14 00:00:00	1944-05-14 00:00:00	/raid60/scratch/leo/scratch/era5/odbs/1759/era5.1759.conv.2:24204
[]	[50304]		5.9	-35.25	1944-09-23 00:00:00	1946-09-30 00:00:00	/raid60/scratch/leo/scratch/era5/odbs/1759/era5.1759.conv.2:50304
0-20000-0-34019	[34019]	MILANO LINATE RDS	45.470001	9.3	1945-09-19 00:00:00	1946-02-01 00:00:00	/raid60/scratch/leo/scratch/era5/odbs/1759/era5.1759.conv.2:34019
[]	[81405]		12.7	143.300003	1942-11-08 00:00:00	1944-11-13 00:00:00	/raid60/scratch/leo/scratch/era5/odbs/1759/era5.1759.conv.2:81405
0-20000-0-20369	[20369]	NEW DELHI/SAFDARJUNG	28.58	77.199997	1944-01-01 00:00:00	1948-12-31 00:00:00	/raid60/scratch/leo/scratch/era5/odbs/1759/era5.1759.conv.6:20369
[]	[81606]		15.33	167.169998	1943-01-02 00:00:00	1944-06-30 00:00:00	/raid60/scratch/leo/scratch/era5/odbs/1759/era5.1759.conv.2:81606
0-20000-0-14726	[14726]	NEWARK/INT., NJ.	40.57	-74.099998	1929-01-02 00:00:00	1931-12-11 00:00:00	/raid60/scratch/leo/scratch/era5/odbs/1759/era5.1759.conv.2:14726
0-20000-0-16270	[34109]	BARI/PALESE	41.130001	16.780001	1944-04-23 00:00:00	1945-03-31 00:00:00	/raid60/scratch/leo/scratch/era5/odbs/1759/era5.1759.conv.2:34109
0-20000-0-20692	[20692]	JEJU	33.52	126.529999	1937-07-31 00:00:00	1943-01-29 00:00:00	/raid60/scratch/leo/scratch/era5/odbs/1759/era5.1759.conv.6:20692
0-20000-0-33105	[33105]	ZAGHOUAN	36.450001	10.05	1943-08-27 00:00:00	1943-11-27 00:00:00	/raid60/scratch/leo/scratch/era5/odbs/1759/era5.1759.conv.2:33105
[]	[12927]	HOUMA NAS	29.52	-90.669998	1943-06-01 00:00:00	1945-07-31 00:00:00	/raid60/scratch/leo/scratch/era5/odbs/1759/era5.1759.conv.2:12927
[]	[50305]		3.85	-32.419998	1944-08-01 00:00:00	1945-05-12 00:00:00	/raid60/scratch/leo/scratch/era5/odbs/1759/era5.1759.conv.2:50305
0-20000-0-34113	[34113]	NAPOLI/CAPODICHINO	40.900002	14.3	1945-09-04 00:00:00	1947-02-26 00:00:00	/raid60/scratch/leo/scratch/era5/odbs/1759/era5.1759.conv.2:34113
[]	[81406]		17.049999	145.399994	1942-06-15 00:00:00	1944-06-29 00:00:00	/raid60/scratch/leo/scratch/era5/odbs/1759/era5.1759.conv.2:81406
0-20000-0-13701	[13701]	ABERDEEN PROVING GROUNDS, MD.	39.470001	-76.169998	1921-04-01 00:00:00	1952-07-31 00:00:00	/raid60/scratch/leo/scratch/era5/odbs/1759/era5.1759.conv.2:13701
[]	[81609]		15.52	167.25	1943-10-01 00:00:00	1943-10-31 00:00:00	/raid60/scratch/leo/scratch/era5/odbs/1759/era5.1759.conv.2:81609
0-20000-0-47626	[47626]	KUMAGAYA	36.150002	139.380005	1930-12-31 00:00:00	1931-12-31 00:00:00	/raid60/scratch/leo/scratch/era5/odbs/1759/era5.1759.conv.1931
0-20000-0-16261	[34110]	AMENDOLA	41.27	15.92	1944-04-01 00:00:00	1945-05-31 00:00:00	/raid60/scratch/leo/scratch/era5/odbs/1759/era5.1759.conv.2:34110
0-20000-0-20377	[20377]	MULTAN	30.200001	71.519997	1944-01-01 00:00:00	1948-12-31 00:00:00	/raid60/scratch/leo/scratch/era5/odbs/1759/era5.1759.conv.6:20377
0-20000-0-33106	[33106]	ENFIDHA	36.080002	10.37	1943-11-11 00:00:00	1943-11-11 00:00:00	/raid60/scratch/leo/scratch/era5/odbs/1759/era5.1759.conv.2:33106
0-20000-0-12928	[12928]	CORPUS CHRISTI/INT., TX.	27.5	-97.800003	1943-01-01 00:00:00	1946-03-29 00:00:00	/raid60/scratch/leo/scratch/era5/odbs/1759/era5.1759.conv.2:12928
[]	[50306]		3.73	-38.57	1944-01-09 00:00:00	1945-04-30 00:00:00	/raid60/scratch/leo/scratch/era5/odbs/1759/era5.1759.conv.2:50306
0-20000-0-20693	[20693]	MOKPO	34.779999	126.379997	1937-07-31 00:00:00	1943-01-29 00:00:00	/raid60/scratch/leo/scratch/era5/odbs/1759/era5.1759.conv.6:20693
0-20000-0-34133	[34133]	AMENDOLA	41.299999	15.83	1945-04-01 00:00:00	1945-05-31 00:00:00	/raid60/scratch/leo/scratch/era5/odbs/1759/era5.1759.conv.2:34133
[]	[81407]		19.77	146.850006	1942-10-12 00:00:00	1943-03-22 00:00:00	/raid60/scratch/leo/scratch/era5/odbs/1759/era5.1759.conv.2:81407
0-20000-0-82101	[82101]	TUEN MUN CHILDREN AND JUVENILE HOME	22.33	114.050003	1943-05-09 00:00:00	1944-06-29 00:00:00	/raid60/scratch/leo/scratch/era5/odbs/1759/era5.1759.conv.2:82101
0-20000-0-13773	[13773]	WASHINGTON/NAT., VA.	38.5	-77.32	1921-12-21 00:00:00	1959-01-31 00:00:00	/raid60/scratch/leo/scratch/era5/odbs/1759/era5.1759.conv.2:13773
0-20000-0-34111	[34111]	LECCE (16333-0)	40.23	18.129999	1944-07-17 00:00:00	1944-11-28 00:00:00	/raid60/scratch/leo/scratch/era5/odbs/1759/era5.1759.conv.2:34111
0-20000-0-17602	[17602]	PITUFFIK (THULE AIR BASE)	76.550003	-68.82	1943-09-03 00:00:00	1952-07-31 00:00:00	/raid60/scratch/leo/scratch/era5/odbs/1759/era5.1759.conv.2:17602
0-20000-0-33107	[33107]	GELA	37.130001	14.28	1943-09-05 00:00:00	1943-09-30 00:00:00	/raid60/scratch/leo/scratch/era5/odbs/1759/era5.1759.conv.2:33107
[]	[50307]		9.52	-35.82	1944-07-17 00:00:00	1945-06-04 00:00:00	/raid60/scratch/leo/scratch/era5/odbs/1759/era5.1759.conv.2:50307
0-20000-0-12929	[12929]	GALVESTON, TX.	29.35	-95.07	1943-07-06 00:00:00	1943-10-31 00:00:00	/raid60/scratch/leo/scratch/era5/odbs/1759/era5.1759.conv.2:12929
0-20000-0-16171	[34139]	FIRENZE	43.77	11.25	1945-01-22 00:00:00	1945-08-31 00:00:00	/raid60/scratch/leo/scratch/era5/odbs/1759/era5.1759.conv.2:34139
[]	[81501]		10.32	150.330002	1942-10-02 00:00:00	1945-07-31 00:00:00	/raid60/scratch/leo/scratch/era5/odbs/1759/era5.1759.conv.2:81501
0-20000-0-23396	[23396]	JEONJU	35.82	127.150002	1937-07-31 00:00:00	1943-01-31 00:00:00	/raid60/scratch/leo/scratch/era5/odbs/1759/era5.1759.conv.6:23396
0-20000-0-20380	[20380]	KARACHI AIRPORT	24.879999	67.120003	1944-01-01 00:00:00	1955-10-30 00:00:00	/raid60/scratch/leo/scratch/era5/odbs/1759/era5.1759.conv.6:20380
0-20000-0-14717	[14717]	VERONA, NY. (AF)	43.23	-75.400002	1943-03-01 00:00:00	1955-10-11 00:00:00	/raid60/scratch/leo/scratch/era5/odbs/1759/era5.1759.conv.2:14717
[]	[82403]		20.68	140.5	1943-11-01 00:00:00	1944-10-26 00:00:00	/raid60/scratch/leo/scratch/era5/odbs/1759/era5.1759.conv.2:82403
0-20000-0-47626	[47626]	KUMAGAYA	36.150002	139.380005	1931-12-31 00:00:00	1932-12-31 00:00:00	/raid60/scratch/leo/scratch/era5/odbs/1759/era5.1759.conv.1932
0-20000-0-34114	[34114]	GRAZZANISE	41.200001	14.02	1944-03-28 00:00:00	1944-05-12 00:00:00	/raid60/scratch/leo/scratch/era5/odbs/1759/era5.1759.conv.2:34114
0-20000-0-20502	[20502]	FANNING ISLAND (91487-0)	3.9	-159.399994	1943-04-25 00:00:00	1945-06-12 00:00:00	/raid60/scratch/leo/scratch/era5/odbs/1759/era5.1759.conv.2:20502
[]	[50309]		8.12	-34.919998	1944-02-01 00:00:00	1944-07-31 00:00:00	/raid60/scratch/leo/scratch/era5/odbs/1759/era5.1759.conv.2:50309
0-20000-0-33108	[33108]	CATANIA SIGONELLA	37.349998	15.02	1943-08-22 00:00:00	1943-09-16 00:00:00	/raid60/scratch/leo/scratch/era5/odbs/1759/era5.1759.conv.2:33108
0-20000-0-13003	[13003]	FES-SAIS	34.080002	-4.92	1943-02-01 00:00:00	1943-08-01 00:00:00	/raid60/scratch/leo/scratch/era5/odbs/1759/era5.1759.conv.2:13003
0-20000-0-34149	[34149]	PISA S. GIUSTO	43.650002	10.62	1945-01-16 00:00:00	1945-05-25 00:00:00	/raid60/scratch/leo/scratch/era5/odbs/1759/era5.1759.conv.2:34149
[]	[81608]		17.73	168.320007	1942-06-01 00:00:00	1942-06-30 00:00:00	/raid60/scratch/leo/scratch/era5/odbs/1759/era5.1759.conv.2:81608
0-20000-0-14719	[14719]	UPTON, NY.	40.869999	-72.650002	1943-10-18 00:00:00	1945-10-14 00:00:00	/raid60/scratch/leo/scratch/era5/odbs/1759/era5.1759.conv.2:14719
0-20000-0-47430	[47430]	HAKODATE	41.82	140.75	1938-06-07 00:00:00	1944-09-30 00:00:00	/raid60/scratch/leo/scratch/era5/odbs/1759/era5.1759.conv.1:47430
0-20000-0-20385	[20385]	JACOBABAD	28.280001	68.480003	1944-01-01 00:00:00	1948-12-31 00:00:00	/raid60/scratch/leo/scratch/era5/odbs/1759/era5.1759.conv.6:20385
0-20000-0-47778	[47778]	SHIONOMISAKI (47778-0)	33.450001	135.770004	1942-01-11 00:00:00	1979-12-31 00:00:00	/raid60/scratch/leo/scratch/era5/odbs/1759/era5.1759.conv.1:47778
[]	[82405]		21.17	149.169998	1943-12-12 00:00:00	1945-08-16 00:00:00	/raid60/scratch/leo/scratch/era5/odbs/1759/era5.1759.conv.2:82405
[]	[34115]	SPINAZZOLA MU 10	40.950001	16.1	1944-04-04 00:00:00	1945-04-30 00:00:00	/raid60/scratch/leo/scratch/era5/odbs/1759/era5.1759.conv.2:34115
[]	[20701]	BAKER ISLAND AAF	0.22	-176.470001	1943-10-21 00:00:00	1945-09-30 00:00:00	/raid60/scratch/leo/scratch/era5/odbs/1759/era5.1759.conv.2:20701
[]	[50310]		3.85	-32.419998	1944-06-01 00:00:00	1944-07-31 00:00:00	/raid60/scratch/leo/scratch/era5/odbs/1759/era5.1759.conv.2:50310
0-20000-0-33117	[33117]	PALERMO BOCCADIFALCO	38.119999	13.33	1943-09-08 00:00:00	1945-07-31 00:00:00	/raid60/scratch/leo/scratch/era5/odbs/1759/era5.1759.conv.2:33117
0-20000-0-13005	[13005]	MARRAKECH	31.65	-8.02	1943-02-01 00:00:00	1945-12-30 00:00:00	/raid60/scratch/leo/scratch/era5/odbs/1759/era5.1759.conv.2:13005
0-20000-0-34155	[34155]	FALCONARA	43.830002	13.03	1945-04-20 00:00:00	1945-07-31 00:00:00	/raid60/scratch/leo/scratch/era5/odbs/1759/era5.1759.conv.2:34155
0-20000-0-47600	[47600]	WAJIMA	37.380001	136.899994	1941-10-09 00:00:00	1979-12-31 00:00:00	/raid60/scratch/leo/scratch/era5/odbs/1759/era5.1759.conv.1:47600
[]	[81702]		17.75	177.419998	1942-04-20 00:00:00	1946-05-31 00:00:00	/raid60/scratch/leo/scratch/era5/odbs/1759/era5.1759.conv.2:81702
0-20000-0-47616	[47616]	FUKUI	36.049999	136.229996	1938-06-01 00:00:00	1941-06-25 00:00:00	/raid60/scratch/leo/scratch/era5/odbs/1759/era5.1759.conv.1:47616
0-20000-0-14720	[14720]	SYRACUSE/HANCOCK, NY.	43.099998	-76.120003	1943-07-01 00:00:00	1945-03-11 00:00:00	/raid60/scratch/leo/scratch/era5/odbs/1759/era5.1759.conv.2:14720
[]	[82501]		27.58	153.0	1943-06-24 00:00:00	1944-01-12 00:00:00	/raid60/scratch/leo/scratch/era5/odbs/1759/era5.1759.conv.2:82501
0-20000-0-34118	[34118]	GRAZZANISE	41.369999	14.07	1944-03-03 00:00:00	1944-03-27 00:00:00	/raid60/scratch/leo/scratch/era5/odbs/1759/era5.1759.conv.2:34118
0-20000-0-42182	[42182]	NEW DELHI/SAFDARJUNG	28.58	77.199997	1951-02-01 00:00:00	1979-12-31 00:00:00	/raid60/scratch/leo/scratch/era5/odbs/1759/era5.1759.conv.1:42182
0-20000-0-21501	[21501]	HILO HI, HAWAII	19.719999	-155.070007	1943-04-16 00:00:00	1943-12-30 00:00:00	/raid60/scratch/leo/scratch/era5/odbs/1759/era5.1759.conv.2:21501
[]	[50402]		2.9	-40.869999	1944-06-03 00:00:00	1945-09-13 00:00:00	/raid60/scratch/leo/scratch/era5/odbs/1759/era5.1759.conv.2:50402
0-20000-0-33118	[33118]	PANTELLERIA	36.799999	11.95	1943-08-17 00:00:00	1943-08-17 00:00:00	/raid60/scratch/leo/scratch/era5/odbs/1759/era5.1759.conv.2:33118
0-20000-0-12909	[12909]	SAN ANTONIO/INT., TX.	29.379999	-98.57	1932-12-31 00:00:00	1933-12-31 00:00:00	/raid60/scratch/leo/scratch/era5/odbs/1759/era5.1759.conv.1933
0-20000-0-13009	[13009]	RABAT-SALE	34.080002	-6.83	1943-01-14 00:00:00	1943-03-14 00:00:00	/raid60/scratch/leo/scratch/era5/odbs/1759/era5.1759.conv.2:13009
0-20000-0-34201	[34201]	ISTANBUL/ATATURK	40.970001	28.870001	1945-06-01 00:00:00	1946-02-28 00:00:00	/raid60/scratch/leo/scratch/era5/odbs/1759/era5.1759.conv.2:34201
0-20000-0-20387	[20387]	JODHPUR	26.299999	73.019997	1944-01-01 00:00:00	1948-12-31 00:00:00	/raid60/scratch/leo/scratch/era5/odbs/1759/era5.1759.conv.6:20387
0-20000-0-47671	[47671]	TOKYO INTERNATIONAL AIRPORT	35.549999	139.770004	1941-01-06 00:00:00	1950-05-18 00:00:00	/raid60/scratch/leo/scratch/era5/odbs/1759/era5.1759.conv.1:47671
[]	[82401]		20.030001	146.130005	1942-07-10 00:00:00	1944-12-10 00:00:00	/raid60/scratch/leo/scratch/era5/odbs/1759/era5.1759.conv.2:82401
0-20000-0-14722	[14722]	LAKEHURST/NAS, NJ.	40.130001	-74.050003	1943-11-03 00:00:00	1945-12-31 00:00:00	/raid60/scratch/leo/scratch/era5/odbs/1759/era5.1759.conv.2:14722
0-20000-0-47631	[47631]	TSURUGA	35.650002	136.070007	1938-08-03 00:00:00	1941-06-10 00:00:00	/raid60/scratch/leo/scratch/era5/odbs/1759/era5.1759.conv.1:47631
[]	[82503]		23.4	150.5	1943-05-12 00:00:00	1945-09-07 00:00:00	/raid60/scratch/leo/scratch/era5/odbs/1759/era5.1759.conv.2:82503
0-20000-0-14780	[14780]	LAKEHURST/NAS, NJ.	40.029999	-74.309998	1921-02-01 00:00:00	1959-01-31 00:00:00	/raid60/scratch/leo/scratch/era5/odbs/1759/era5.1759.conv.2:14780
0-20000-0-34119	[34119]	NAPOLI/CAPODICHINO	40.880001	14.28	1944-03-13 00:00:00	1944-05-07 00:00:00	/raid60/scratch/leo/scratch/era5/odbs/1759/era5.1759.conv.2:34119
0-20000-0-33119	[33119]	TUNIS-CARTHAGE	36.799999	10.3	1943-07-08 00:00:00	1943-07-28 00:00:00	/raid60/scratch/leo/scratch/era5/odbs/1759/era5.1759.conv.2:33119
[]	[50403]		2.58	-44.23	1944-07-01 00:00:00	1946-08-30 00:00:00	/raid60/scratch/leo/scratch/era5/odbs/1759/era5.1759.conv.2:50403
0-20000-0-47426	[47426]	URAKAWA	42.169998	142.779999	1945-11-01 00:00:00	1948-09-30 00:00:00	/raid60/scratch/leo/scratch/era5/odbs/1759/era5.1759.conv.1:47426
0-20000-0-13016	[13016]	AGADIR INEZGANNE	30.450001	-9.55	1943-04-23 00:00:00	1944-08-31 00:00:00	/raid60/scratch/leo/scratch/era5/odbs/1759/era5.1759.conv.2:13016
0-20000-0-10224	[35001]	BREMEN	53.049999	8.8	1945-11-08 00:00:00	1948-02-20 00:00:00	/raid60/scratch/leo/scratch/era5/odbs/1759/era5.1759.conv.2:35001
0-20000-0-20393	[20393]	UDAIPUR DABOK	25.049999	73.879997	1944-01-02 00:00:00	1947-06-27 00:00:00	/raid60/scratch/leo/scratch/era5/odbs/1759/era5.1759.conv.6:20393
[]	[82404]		23.450001	144.130005	1942-07-31 00:00:00	1943-07-22 00:00:00	/raid60/scratch/leo/scratch/era5/odbs/1759/era5.1759.conv.2:82404
0-20000-0-14782	[14782]	PROVIDENCE/GREEN STATE, RI.	41.330002	-71.669998	1943-08-04 00:00:00	1947-04-29 00:00:00	/raid60/scratch/leo/scratch/era5/odbs/1759/era5.1759.conv.2:14782
[]	[82507]		27.450001	153.080002	1943-10-01 00:00:00	1944-10-30 00:00:00	/raid60/scratch/leo/scratch/era5/odbs/1759/era5.1759.conv.2:82507
0-20000-0-34120	[34120]	NAPOLI/CAPODICHINO	40.869999	14.47	1944-01-13 00:00:00	1944-01-20 00:00:00	/raid60/scratch/leo/scratch/era5/odbs/1759/era5.1759.conv.2:34120
0-20000-0-47755	[47755]	HAMADA	34.900002	132.070007	1938-12-01 00:00:00	1941-06-11 00:00:00	/raid60/scratch/leo/scratch/era5/odbs/1759/era5.1759.conv.1:47755
[]	[50405]		1.07	-47.619999	1944-05-02 00:00:00	1945-03-31 00:00:00	/raid60/scratch/leo/scratch/era5/odbs/1759/era5.1759.conv.2:50405
0-20000-0-33120	[33120]	ESSBEEA	32.68	13.17	1943-07-01 00:00:00	1945-12-31 00:00:00	/raid60/scratch/leo/scratch/era5/odbs/1759/era5.1759.conv.2:33120
0-20000-0-13941	[13941]	LAKE CHARLES/MUN., LA.	30.219999	-93.150002	1942-07-15 00:00:00	1961-12-31 00:00:00	/raid60/scratch/leo/scratch/era5/odbs/1759/era5.1759.conv.2:13941
0-20000-0-81002	[81002]	TIMEHRI/CHEDDI JAGAN INTERNATIONAL	6.5	-58.25	1941-08-25 00:00:00	1949-05-13 00:00:00	/raid60/scratch/leo/scratch/era5/odbs/1759/era5.1759.conv.1:81002
0-20000-0-82243	[82243]	SANTAREM (AERO)	-2.42	-54.330002	1945-05-05 00:00:00	1946-08-30 00:00:00	/raid60/scratch/leo/scratch/era5/odbs/1759/era5.1759.conv.1:82243
0-20000-0-47626	[47626]	KUMAGAYA	36.150002	139.380005	1933-12-31 00:00:00	1934-12-31 00:00:00	/raid60/scratch/leo/scratch/era5/odbs/1759/era5.1759.conv.1934
0-20000-0-14804	[14804]	DETROIT/METROPOLITAN, MI.	42.220001	-83.349998	1929-01-22 00:00:00	1956-09-18 00:00:00	/raid60/scratch/leo/scratch/era5/odbs/1759/era5.1759.conv.2:14804
0-20000-0-20402	[20402]	BAREILLY	28.370001	79.400002	1944-01-01 00:00:00	1948-12-31 00:00:00	/raid60/scratch/leo/scratch/era5/odbs/1759/era5.1759.conv.6:20402
[]	[82408]		21.42	145.229996	1942-09-21 00:00:00	1942-10-03 00:00:00	/raid60/scratch/leo/scratch/era5/odbs/1759/era5.1759.conv.2:82408
0-20000-0-14783	[14783]	CHATHAM, MA.	41.650002	-70.279999	1943-12-13 00:00:00	1944-03-31 00:00:00	/raid60/scratch/leo/scratch/era5/odbs/1759/era5.1759.conv.2:14783
[]	[82606]		21.27	164.919998	1943-02-02 00:00:00	1945-11-13 00:00:00	/raid60/scratch/leo/scratch/era5/odbs/1759/era5.1759.conv.2:82606
0-20000-0-16261	[34123]	AMENDOLA	41.549999	15.72	1944-02-01 00:00:00	1944-08-24 00:00:00	/raid60/scratch/leo/scratch/era5/odbs/1759/era5.1759.conv.2:34123
0-20000-0-47762	[47762]	SHIMONOSEKI	33.950001	130.929993	1938-01-03 00:00:00	1941-01-27 00:00:00	/raid60/scratch/leo/scratch/era5/odbs/1759/era5.1759.conv.1:47762
[]	[50406]		2.6	-44.52	1944-01-02 00:00:00	1944-05-31 00:00:00	/raid60/scratch/leo/scratch/era5/odbs/1759/era5.1759.conv.2:50406
0-20000-0-33121	[33121]	MONASTIR-SKANES	35.330002	10.67	1943-08-17 00:00:00	1943-08-17 00:00:00	/raid60/scratch/leo/scratch/era5/odbs/1759/era5.1759.conv.2:33121
0-20000-0-24205	[24205]	ROBERT FIELD ARPT	44.25	-121.150002	1944-05-01 00:00:00	1945-07-19 00:00:00	/raid60/scratch/leo/scratch/era5/odbs/1759/era5.1759.conv.2:24205
[]	[13942]	MONROE (SELMAN FIELD)	32.52	-92.050003	1942-11-01 00:00:00	1944-10-15 00:00:00	/raid60/scratch/leo/scratch/era5/odbs/1759/era5.1759.conv.2:13942
0-20000-0-20408	[20408]	GORAKHPUR	26.75	83.370003	1944-01-01 00:00:00	1948-12-31 00:00:00	/raid60/scratch/leo/scratch/era5/odbs/1759/era5.1759.conv.6:20408
[]	[83405]		35.799999	145.600006	1942-09-08 00:00:00	1942-11-15 00:00:00	/raid60/scratch/leo/scratch/era5/odbs/1759/era5.1759.conv.2:83405
0-20000-0-22517	[22517]	HONOLULU, OAHU, HAWAII	21.35	-157.949997	1921-05-03 00:00:00	1952-06-30 00:00:00	/raid60/scratch/leo/scratch/era5/odbs/1759/era5.1759.conv.2:22517
0-20000-0-82397	[82397]	FORTALEZA (82397-0)	-3.77	-38.549999	1945-04-08 00:00:00	1973-12-25 00:00:00	/raid60/scratch/leo/scratch/era5/odbs/1759/era5.1759.conv.1:82397
0-20000-0-14784	[14784]	GRAY, ME.	44.049999	-70.25	1943-09-03 00:00:00	1945-08-14 00:00:00	/raid60/scratch/leo/scratch/era5/odbs/1759/era5.1759.conv.2:14784
0-20000-0-34124	[34124]	AMENDOLA	41.68	15.33	1944-06-20 00:00:00	1945-05-20 00:00:00	/raid60/scratch/leo/scratch/era5/odbs/1759/era5.1759.conv.2:34124
[]	[82607]		22.02	166.199997	1943-02-05 00:00:00	1946-05-23 00:00:00	/raid60/scratch/leo/scratch/era5/odbs/1759/era5.1759.conv.2:82607
[]	[51303]		17.67	-39.27	1944-01-15 00:00:00	1944-12-31 00:00:00	/raid60/scratch/leo/scratch/era5/odbs/1759/era5.1759.conv.2:51303
0-20000-0-83842	[83842]	CURITIBA (83842-0)	-25.43	-49.27	1938-04-01 00:00:00	1946-08-30 00:00:00	/raid60/scratch/leo/scratch/era5/odbs/1759/era5.1759.conv.1:83842
0-20000-0-13943	[13943]	NEW ORLEANS/MOISANT INT., LA.	30.030001	-90.029999	1942-09-01 00:00:00	1944-02-04 00:00:00	/raid60/scratch/leo/scratch/era5/odbs/1759/era5.1759.conv.2:13943
0-20000-0-24206	[24206]	REDDING/MUN, CA	40.52	-122.300003	1944-09-08 00:00:00	1944-12-01 00:00:00	/raid60/scratch/leo/scratch/era5/odbs/1759/era5.1759.conv.2:24206
0-20000-0-33202	[33202]	BENINA	32.029999	20.049999	1943-11-01 00:00:00	1945-11-18 00:00:00	/raid60/scratch/leo/scratch/era5/odbs/1759/era5.1759.conv.2:33202
[]	[83504]		30.32	153.130005	1942-10-26 00:00:00	1943-02-07 00:00:00	/raid60/scratch/leo/scratch/era5/odbs/1759/era5.1759.conv.2:83504
0-20000-0-20417	[20417]	BHOPAL/BAIRAGHAR	23.27	77.419998	1944-01-01 00:00:00	1948-12-31 00:00:00	/raid60/scratch/leo/scratch/era5/odbs/1759/era5.1759.conv.6:20417
[]	[41407]	GUAM MARSHALL ISLAND	13.47	144.25	1921-07-01 00:00:00	1941-05-30 00:00:00	/raid60/scratch/leo/scratch/era5/odbs/1759/era5.1759.conv.2:41407
[]	[14785]	FALMOUTH OTIS AFB	41.400002	-70.620003	1943-12-01 00:00:00	1944-09-30 00:00:00	/raid60/scratch/leo/scratch/era5/odbs/1759/era5.1759.conv.2:14785
0-20000-0-47626	[47626]	KUMAGAYA	36.150002	139.380005	1934-12-31 00:00:00	1935-12-31 00:00:00	/raid60/scratch/leo/scratch/era5/odbs/1759/era5.1759.conv.1935
0-20000-0-34127	[34127]	MONTE ARGENTARIO	42.43	11.27	1944-06-24 00:00:00	1944-07-18 00:00:00	/raid60/scratch/leo/scratch/era5/odbs/1759/era5.1759.conv.2:34127
[]	[61501]		18.83	-159.820007	1944-02-19 00:00:00	1946-08-22 00:00:00	/raid60/scratch/leo/scratch/era5/odbs/1759/era5.1759.conv.2:61501
[]	[82608]		22.27	166.429993	1943-01-03 00:00:00	1945-11-29 00:00:00	/raid60/scratch/leo/scratch/era5/odbs/1759/era5.1759.conv.2:82608
0-20000-0-11618	[11618]	SAN JUAN/INT.,  PUERTO RICO	18.469999	-66.120003	1938-02-01 00:00:00	1945-11-29 00:00:00	/raid60/scratch/leo/scratch/era5/odbs/1759/era5.1759.conv.2:11618
0-20000-0-33303	[33303]	CAIRO	30.129999	31.4	1943-11-01 00:00:00	1946-01-29 00:00:00	/raid60/scratch/leo/scratch/era5/odbs/1759/era5.1759.conv.2:33303
0-20000-0-94677	[94677]	HINDMARSH ISLAND AWS	-34.619999	138.630005	1949-02-06 00:00:00	1955-02-14 00:00:00	/raid60/scratch/leo/scratch/era5/odbs/1759/era5.1759.conv.1:94677
0-20000-0-24207	[24207]	TACOMA/MC CHORD AFB, WA.	47.150002	-122.480003	1944-05-01 00:00:00	1954-01-15 00:00:00	/raid60/scratch/leo/scratch/era5/odbs/1759/era5.1759.conv.2:24207
[]	[83508]		32.799999	151.800003	1942-09-03 00:00:00	1943-01-13 00:00:00	/raid60/scratch/leo/scratch/era5/odbs/1759/era5.1759.conv.2:83508
0-20000-0-20418	[20418]	GWALIOR	26.219999	78.129997	1944-01-01 00:00:00	1948-12-30 00:00:00	/raid60/scratch/leo/scratch/era5/odbs/1759/era5.1759.conv.6:20418
0-20000-0-14791	[14791]	PORTLAND/INTNL. JET PORT, ME.	43.400002	-70.75	1943-10-01 00:00:00	1945-10-15 00:00:00	/raid60/scratch/leo/scratch/era5/odbs/1759/era5.1759.conv.2:14791
0-20000-0-35104	[35104]	BERLIN-TEMPELHOF	52.48	13.4	1945-09-01 00:00:00	1955-06-30 00:00:00	/raid60/scratch/leo/scratch/era5/odbs/1759/era5.1759.conv.2:35104
0-20000-0-34128	[34128]	ROMA/CENTOCELLE	41.869999	12.67	1944-06-18 00:00:00	1944-12-14 00:00:00	/raid60/scratch/leo/scratch/era5/odbs/1759/era5.1759.conv.2:34128
[]	[80301]		0.95	134.820007	1944-07-15 00:00:00	1945-01-31 00:00:00	/raid60/scratch/leo/scratch/era5/odbs/1759/era5.1759.conv.2:80301
0-20000-0-93101	[93101]	LONG BEACH/LB AIRP. DAUGHERTY FIELD,  CA.	33.669998	-117.720001	1943-04-20 00:00:00	1959-01-17 00:00:00	/raid60/scratch/leo/scratch/era5/odbs/1759/era5.1759.conv.2:93101
[]	[10808]	COCLE DEL NORTE	9.08	-80.57	1945-04-08 00:00:00	1945-04-25 00:00:00	/raid60/scratch/leo/scratch/era5/odbs/1759/era5.1759.conv.2:10808
0-20000-0-33401	[33401]	ABADAN	30.370001	48.23	1943-11-01 00:00:00	1946-02-25 00:00:00	/raid60/scratch/leo/scratch/era5/odbs/1759/era5.1759.conv.2:33401
0-20000-0-24208	[24208]	SEATTLE/S.-TACOMA, WA.	47.529999	-122.300003	1944-09-01 00:00:00	1945-07-02 00:00:00	/raid60/scratch/leo/scratch/era5/odbs/1759/era5.1759.conv.2:24208
0-20000-0-93830	[93830]	MARIETTA/DOBBINS AFB, GA.	33.869999	-84.300003	1942-06-01 00:00:00	1945-10-27 00:00:00	/raid60/scratch/leo/scratch/era5/odbs/1759/era5.1759.conv.2:93830
0-20000-0-14792	[14792]	LAKEHURST/NAS, NJ.	40.27	-74.82	1943-11-15 00:00:00	1945-08-31 00:00:00	/raid60/scratch/leo/scratch/era5/odbs/1759/era5.1759.conv.2:14792
0-20000-0-13807	[13807]	FT.KNOX, KY. (ARMY)	37.900002	-85.970001	1938-03-25 00:00:00	1954-10-02 00:00:00	/raid60/scratch/leo/scratch/era5/odbs/1759/era5.1759.conv.2:13807
0-20000-0-47807	[47807]	FUKUOKA	33.580002	130.380005	1942-10-02 00:00:00	1979-12-31 00:00:00	/raid60/scratch/leo/scratch/era5/odbs/1759/era5.1759.conv.1:47807
0-20000-0-98618	[40101]	PUERTO PRINCESA	9.73	118.75	1945-04-01 00:00:00	1947-01-31 00:00:00	/raid60/scratch/leo/scratch/era5/odbs/1759/era5.1759.conv.2:40101
[]	[80302]		1.93	139.0	1944-05-26 00:00:00	1945-09-21 00:00:00	/raid60/scratch/leo/scratch/era5/odbs/1759/era5.1759.conv.2:80302
0-20000-0-34132	[34132]	CASERTA	41.029999	14.33	1944-07-29 00:00:00	1947-04-19 00:00:00	/raid60/scratch/leo/scratch/era5/odbs/1759/era5.1759.conv.2:34132
0-20000-0-93108	[93108]	EDWARDS AFB, CA.	35.119999	-118.150002	1943-04-21 00:00:00	1945-09-30 00:00:00	/raid60/scratch/leo/scratch/era5/odbs/1759/era5.1759.conv.2:93108
0-20000-0-47819	[47819]	KUMAMOTO	32.82	130.720001	1935-12-31 00:00:00	1936-12-31 00:00:00	/raid60/scratch/leo/scratch/era5/odbs/1759/era5.1759.conv.1936
0-20000-0-20420	[20420]	NAGPUR SONEGAON	21.15	79.120003	1944-01-01 00:00:00	1948-12-31 00:00:00	/raid60/scratch/leo/scratch/era5/odbs/1759/era5.1759.conv.6:20420
0-20000-0-11701	[11701]	PORT-AU-PRINCE/AEROPORT INT.	18.549999	-72.349998	1945-03-01 00:00:00	1945-12-31 00:00:00	/raid60/scratch/leo/scratch/era5/odbs/1759/era5.1759.conv.2:11701
0-20000-0-24209	[24209]	MEDFORD/MEDFORD-JACKSON COUNTY, OR.	42.380001	-122.870003	1944-11-23 00:00:00	1945-02-13 00:00:00	/raid60/scratch/leo/scratch/era5/odbs/1759/era5.1759.conv.2:24209
0-20000-0-33402	[33402]	SAFI-ABAD DEZFUL	32.450001	48.349998	1943-11-21 00:00:00	1945-08-14 00:00:00	/raid60/scratch/leo/scratch/era5/odbs/1759/era5.1759.conv.2:33402
0-20000-0-93839	[93839]	MEMPHIS/INTNL., TN.	35.349998	-89.870003	1942-12-01 00:00:00	1957-09-30 00:00:00	/raid60/scratch/leo/scratch/era5/odbs/1759/era5.1759.conv.2:93839
0-20000-0-14793	[14793]	PHILADELPHIA/INT., PA.	40.200001	-75.150002	1943-08-02 00:00:00	1950-07-31 00:00:00	/raid60/scratch/leo/scratch/era5/odbs/1759/era5.1759.conv.2:14793
[]	[40102]	SANGA SANGA ISLAND	5.03	119.730003	1945-05-23 00:00:00	1945-08-09 00:00:00	/raid60/scratch/leo/scratch/era5/odbs/1759/era5.1759.conv.2:40102
0-20000-0-47891	[47891]	TAKAMATSU	34.32	134.050003	1942-01-23 00:00:00	1946-02-27 00:00:00	/raid60/scratch/leo/scratch/era5/odbs/1759/era5.1759.conv.1:47891
0-20000-0-34138	[34138]	PISA S. GIUSTO	43.349998	10.48	1944-09-17 00:00:00	1944-09-26 00:00:00	/raid60/scratch/leo/scratch/era5/odbs/1759/era5.1759.conv.2:34138
[]	[80303]		1.23	136.199997	1944-06-22 00:00:00	1944-11-05 00:00:00	/raid60/scratch/leo/scratch/era5/odbs/1759/era5.1759.conv.2:80303
0-20000-0-93114	[93114]	LONG BEACH/LB AIRP. DAUGHERTY FIELD,  CA.	33.700001	-117.830002	1943-05-02 00:00:00	1953-03-31 00:00:00	/raid60/scratch/leo/scratch/era5/odbs/1759/era5.1759.conv.2:93114
0-20000-0-20425	[20425]	JABALPUR	23.17	79.949997	1944-01-01 00:00:00	1948-12-31 00:00:00	/raid60/scratch/leo/scratch/era5/odbs/1759/era5.1759.conv.6:20425
[]	[24247]	EVERETT (PAINE FIELD)	48.200001	-122.18	1944-10-01 00:00:00	1944-12-31 00:00:00	/raid60/scratch/leo/scratch/era5/odbs/1759/era5.1759.conv.2:24247
[]	[12102]	CABO JUBY RIO DE ORO	27.93	-13.0	1945-08-29 00:00:00	1945-10-10 00:00:00	/raid60/scratch/leo/scratch/era5/odbs/1759/era5.1759.conv.2:12102
[]	[33403]	DOROUD	33.470001	49.049999	1943-12-26 00:00:00	1945-12-09 00:00:00	/raid60/scratch/leo/scratch/era5/odbs/1759/era5.1759.conv.2:33403
0-20000-0-93906	[93906]	NEW ORLEANS/MOISANT INT., LA.	30.030001	-90.07	1942-11-02 00:00:00	1945-07-31 00:00:00	/raid60/scratch/leo/scratch/era5/odbs/1759/era5.1759.conv.2:93906
0-20000-0-14794	[14794]	PROVIDENCE/GREEN STATE, RI.	41.349998	-71.800003	1943-10-01 00:00:00	1944-09-30 00:00:00	/raid60/scratch/leo/scratch/era5/odbs/1759/era5.1759.conv.2:14794
0-20000-0-40202	[40202]	ZAMBOANGA	6.93	122.07	1945-03-20 00:00:00	1946-01-27 00:00:00	/raid60/scratch/leo/scratch/era5/odbs/1759/era5.1759.conv.2:40202
[]	[80304]		1.17	136.229996	1944-06-05 00:00:00	1944-06-19 00:00:00	/raid60/scratch/leo/scratch/era5/odbs/1759/era5.1759.conv.2:80304
0-20000-0-34143	[34143]	AREZZO	43.25	11.23	1944-11-14 00:00:00	1945-01-16 00:00:00	/raid60/scratch/leo/scratch/era5/odbs/1759/era5.1759.conv.2:34143
0-20000-0-93118	[93118]	SALTON SEA, CA. (AFS)	33.200001	-115.830002	1943-01-01 00:00:00	1945-08-28 00:00:00	/raid60/scratch/leo/scratch/era5/odbs/1759/era5.1759.conv.2:93118
0-20000-0-24248	[24248]	EUGENE/MAHLON SWEET, OR.	44.5	-123.279999	1944-05-25 00:00:00	1944-11-28 00:00:00	/raid60/scratch/leo/scratch/era5/odbs/1759/era5.1759.conv.2:24248
0-20000-0-12103	[12103]	DAKHLA	23.75	-15.93	1945-11-08 00:00:00	1946-03-16 00:00:00	/raid60/scratch/leo/scratch/era5/odbs/1759/era5.1759.conv.2:12103
0-20000-0-34002	[34002]	BASTIA	42.700001	9.45	1943-12-08 00:00:00	1944-05-23 00:00:00	/raid60/scratch/leo/scratch/era5/odbs/1759/era5.1759.conv.2:34002
0-20000-0-72446	[93909]	KANSAS CITY,  INTNL., MO.	38.830002	-94.879997	1942-11-24 00:00:00	1946-05-31 00:00:00	/raid60/scratch/leo/scratch/era5/odbs/1759/era5.1759.conv.2:93909
0-20000-0-47650	[47650]	TSU	34.849998	136.470001	1936-12-31 00:00:00	1937-12-31 00:00:00	/raid60/scratch/leo/scratch/era5/odbs/1759/era5.1759.conv.1937
[]	[14801]	BATTLE CK KLG FD ANG	42.299999	-85.25	1943-06-17 00:00:00	1945-01-24 00:00:00	/raid60/scratch/leo/scratch/era5/odbs/1759/era5.1759.conv.2:14801
0-20000-0-40203	[40203]	COTOBATO	7.63	124.07	1945-04-20 00:00:00	1945-08-09 00:00:00	/raid60/scratch/leo/scratch/era5/odbs/1759/era5.1759.conv.2:40203
0-20000-0-20442	[20442]	CUTTACK	20.48	85.870003	1944-01-01 00:00:00	1948-12-31 00:00:00	/raid60/scratch/leo/scratch/era5/odbs/1759/era5.1759.conv.6:20442
0-20000-0-34144	[34144]	PISA S. GIUSTO	43.529999	10.25	1944-10-02 00:00:00	1945-03-23 00:00:00	/raid60/scratch/leo/scratch/era5/odbs/1759/era5.1759.conv.2:34144
[]	[93124]	SANTA BARBARA MCAS	34.43	-119.849998	1943-09-01 00:00:00	1945-10-31 00:00:00	/raid60/scratch/leo/scratch/era5/odbs/1759/era5.1759.conv.2:93124
[]	[80306]		1.18	136.050003	1944-11-08 00:00:00	1946-01-14 00:00:00	/raid60/scratch/leo/scratch/era5/odbs/1759/era5.1759.conv.2:80306
0-20000-0-14806	[14806]	RANTOUL/CHANUTE AFB, IL.	40.299999	-88.150002	1929-06-01 00:00:00	1956-09-11 00:00:00	/raid60/scratch/leo/scratch/era5/odbs/1759/era5.1759.conv.2:14806
[]	[24249]	KLAMATH FALLS	42.130001	-121.75	1944-03-18 00:00:00	1945-09-30 00:00:00	/raid60/scratch/leo/scratch/era5/odbs/1759/era5.1759.conv.2:24249
0-20000-0-12704	[12704]	GEORGE TOWN, EXUMA	23.5	-75.75	1945-06-23 00:00:00	1945-07-15 00:00:00	/raid60/scratch/leo/scratch/era5/odbs/1759/era5.1759.conv.2:12704
0-20000-0-34106	[34106]	AMENDOLA	41.450001	15.48	1943-10-15 00:00:00	1944-01-10 00:00:00	/raid60/scratch/leo/scratch/era5/odbs/1759/era5.1759.conv.2:34106
0-20000-0-22001	[22001]	DEL RIO/INT., TX.	29.370001	-100.760002	1943-07-27 00:00:00	1963-03-04 00:00:00	/raid60/scratch/leo/scratch/era5/odbs/1759/era5.1759.conv.2:22001
0-20000-0-14802	[14802]	DUNNE CRIB IL.	41.779999	-87.599998	1943-09-27 00:00:00	1944-06-15 00:00:00	/raid60/scratch/leo/scratch/era5/odbs/1759/era5.1759.conv.2:14802
0-20000-0-40304	[40304]	WEATHER SERVICE OFFICE, KOROR, PALAU WCI.	6.97	134.229996	1945-05-09 00:00:00	1945-12-31 00:00:00	/raid60/scratch/leo/scratch/era5/odbs/1759/era5.1759.conv.2:40304
0-20000-0-61900	[61900]	WIDE AWAKE FIELD (ASCENSION IS.)	-7.97	-14.73	1943-10-05 00:00:00	1945-06-16 00:00:00	/raid60/scratch/leo/scratch/era5/odbs/1759/era5.1759.conv.1:61900
0-20000-0-20448	[20448]	GAYA (42591-0)	24.75	84.949997	1944-01-01 00:00:00	1948-12-31 00:00:00	/raid60/scratch/leo/scratch/era5/odbs/1759/era5.1759.conv.6:20448
0-20000-0-34147	[34147]	PISA S. GIUSTO	43.68	10.4	1944-12-01 00:00:00	1947-10-26 00:00:00	/raid60/scratch/leo/scratch/era5/odbs/1759/era5.1759.conv.2:34147
[]	[80310]		1.25	136.369995	1944-08-20 00:00:00	1944-08-30 00:00:00	/raid60/scratch/leo/scratch/era5/odbs/1759/era5.1759.conv.2:80310
[]	[93831]	WALTERBORO AAF	32.470001	-80.720001	1943-10-04 00:00:00	1945-10-31 00:00:00	/raid60/scratch/leo/scratch/era5/odbs/1759/era5.1759.conv.2:93831
0-20000-0-72261	[22003]	DEL RIO/INT., TX.	29.299999	-100.43	1929-01-01 00:00:00	1930-11-26 00:00:00	/raid60/scratch/leo/scratch/era5/odbs/1759/era5.1759.conv.2:22003
[]	[24250]	LAKEVIEW NAS	42.150002	-120.400002	1944-04-22 00:00:00	1945-03-30 00:00:00	/raid60/scratch/leo/scratch/era5/odbs/1759/era5.1759.conv.2:24250
0-20000-0-12826	[12826]	MIAMI, FL (72202-0)	25.48	-80.379997	1945-06-01 00:00:00	1945-09-14 00:00:00	/raid60/scratch/leo/scratch/era5/odbs/1759/era5.1759.conv.2:12826
0-20000-0-34112	[34112]	BRINDISI	40.43	17.85	1943-12-06 00:00:00	1944-06-26 00:00:00	/raid60/scratch/leo/scratch/era5/odbs/1759/era5.1759.conv.2:34112
0-20000-0-22002	[22002]	PIEDRAS NEGRAS, COAH.	28.870001	-100.519997	1943-06-21 00:00:00	1945-04-29 00:00:00	/raid60/scratch/leo/scratch/era5/odbs/1759/era5.1759.conv.2:22002
0-20000-0-78641	[78641]	GUATEMALA (AEROPUERTO LA AURORA)	14.58	-90.57	1942-06-01 00:00:00	1978-08-31 00:00:00	/raid60/scratch/leo/scratch/era5/odbs/1759/era5.1759.conv.1:78641
[]	[14808]	OSCODA WURTSMITH AFB	44.470001	-83.400002	1943-10-19 00:00:00	1945-06-25 00:00:00	/raid60/scratch/leo/scratch/era5/odbs/1759/era5.1759.conv.2:14808
0-20000-0-91408	[40305]	WEATHER SERVICE OFFICE, KOROR, PALAU WCI.	7.0	134.25	1945-03-17 00:00:00	1947-05-31 00:00:00	/raid60/scratch/leo/scratch/era5/odbs/1759/era5.1759.conv.2:40305
0-20000-0-72290	[93112]	SAN DIEGO/LINDBERGH,  CA.	32.720001	-117.209999	1921-10-05 00:00:00	1956-06-15 00:00:00	/raid60/scratch/leo/scratch/era5/odbs/1759/era5.1759.conv.2:93112
0-20000-0-82191	[82191]	BELEM (82191-0)	-1.4	-48.5	1943-10-09 00:00:00	1945-03-31 00:00:00	/raid60/scratch/leo/scratch/era5/odbs/1759/era5.1759.conv.1:82191
0-20000-0-20455	[20455]	BANKURA	23.68	86.980003	1944-01-01 00:00:00	1948-12-31 00:00:00	/raid60/scratch/leo/scratch/era5/odbs/1759/era5.1759.conv.6:20455
[]	[80311]		1.25	136.380005	1944-11-01 00:00:00	1944-12-30 00:00:00	/raid60/scratch/leo/scratch/era5/odbs/1759/era5.1759.conv.2:80311
0-20000-0-34150	[34150]	ROMA/CIAMPINO	41.799999	12.6	1944-12-16 00:00:00	1947-07-31 00:00:00	/raid60/scratch/leo/scratch/era5/odbs/1759/era5.1759.conv.2:34150
0-20000-0-22513	[22513]	WAHIAWA (WHEELER/SCHOFIELD), OAHU,  HAWAII	21.5	-158.020004	1929-01-31 00:00:00	1935-06-23 00:00:00	/raid60/scratch/leo/scratch/era5/odbs/1759/era5.1759.conv.2:22513
0-20000-0-72311	[93835]	ATHENS/MUN., GA.	34.18	-83.68	1943-04-09 00:00:00	1945-12-20 00:00:00	/raid60/scratch/leo/scratch/era5/odbs/1759/era5.1759.conv.2:93835
0-20000-0-12827	[12827]	APALACHICOLA/MUN.,  FL.	29.73	-85.029999	1945-01-06 00:00:00	1945-08-20 00:00:00	/raid60/scratch/leo/scratch/era5/odbs/1759/era5.1759.conv.2:12827
0-20000-0-24252	[24252]	QUILLAYUTE, WA.	47.950001	-124.529999	1944-05-11 00:00:00	1945-08-31 00:00:00	/raid60/scratch/leo/scratch/era5/odbs/1759/era5.1759.conv.2:24252
0-20000-0-34121	[34121]	GROTTAGLIE	40.529999	17.43	1943-09-27 00:00:00	1943-10-14 00:00:00	/raid60/scratch/leo/scratch/era5/odbs/1759/era5.1759.conv.2:34121
0-20000-0-13201	[13201]	LAJES (ACORES) (8508-0)	38.75	-27.09	1944-01-30 00:00:00	1971-03-31 00:00:00	/raid60/scratch/leo/scratch/era5/odbs/1759/era5.1759.conv.2:13201
0-20000-0-22502	[22502]	MOLOKAI, MOLOKAI, HAWAII	21.15	-157.100006	1943-09-09 00:00:00	1945-11-14 00:00:00	/raid60/scratch/leo/scratch/era5/odbs/1759/era5.1759.conv.2:22502
0-20000-0-20695	[20695]	INCHEON	37.48	126.629997	1937-12-31 00:00:00	1938-12-31 00:00:00	/raid60/scratch/leo/scratch/era5/odbs/1759/era5.1759.conv.1938
[]	[14854]	ROYAL CENTER	40.669998	-86.120003	1943-05-01 00:00:00	1945-10-27 00:00:00	/raid60/scratch/leo/scratch/era5/odbs/1759/era5.1759.conv.2:14854
0-20000-0-41203	[41203]	DAGUPAN	16.030001	120.230003	1945-01-22 00:00:00	1947-02-28 00:00:00	/raid60/scratch/leo/scratch/era5/odbs/1759/era5.1759.conv.2:41203
[]	[80413]		5.63	146.5	1944-02-18 00:00:00	1944-09-18 00:00:00	/raid60/scratch/leo/scratch/era5/odbs/1759/era5.1759.conv.2:80413
[]	[40201]	MOROTAI AAF	2.03	128.300003	1944-09-17 00:00:00	1945-09-21 00:00:00	/raid60/scratch/leo/scratch/era5/odbs/1759/era5.1759.conv.2:40201
0-20000-0-47407	[47407]	ASAHIKAWA	43.77	142.369995	1922-07-12 00:00:00	1941-07-21 00:00:00	/raid60/scratch/leo/scratch/era5/odbs/1759/era5.1759.conv.1:47407
0-20000-0-81878	[82598]	CAMARATUBA	-6.77	-35.200001	1942-03-06 00:00:00	1946-08-27 00:00:00	/raid60/scratch/leo/scratch/era5/odbs/1759/era5.1759.conv.1:82598
0-20000-0-24253	[24253]	OLYMPIA, WA.	47.25	-123.129997	1944-03-01 00:00:00	1945-09-12 00:00:00	/raid60/scratch/leo/scratch/era5/odbs/1759/era5.1759.conv.2:24253
0-20000-0-12829	[12829]	MIAMI, FL (72202-1)	25.780001	-80.279999	1945-06-20 00:00:00	1946-01-22 00:00:00	/raid60/scratch/leo/scratch/era5/odbs/1759/era5.1759.conv.2:12829
[]	[93836]	BRUNSWICK GLYNN CO A	31.25	-81.470001	1943-03-05 00:00:00	1959-04-30 00:00:00	/raid60/scratch/leo/scratch/era5/odbs/1759/era5.1759.conv.2:93836
0-20000-0-91601	[40701]	BUTARITARI	3.03	172.800003	1943-12-11 00:00:00	1944-10-31 00:00:00	/raid60/scratch/leo/scratch/era5/odbs/1759/era5.1759.conv.2:40701
0-20000-0-13203	[13203]	SANTA MARIA (ACORES)	36.970001	-25.17	1944-11-09 00:00:00	1946-09-09 00:00:00	/raid60/scratch/leo/scratch/era5/odbs/1759/era5.1759.conv.2:13203
0-20000-0-22505	[22505]	WAIALEE, OAHU,  HAWAII	21.700001	-157.970001	1943-06-21 00:00:00	1946-01-04 00:00:00	/raid60/scratch/leo/scratch/era5/odbs/1759/era5.1759.conv.2:22505
0-20000-0-72264	[23022]	MARFA/MUN., TX.	30.27	-104.019997	1929-01-02 00:00:00	1959-05-20 00:00:00	/raid60/scratch/leo/scratch/era5/odbs/1759/era5.1759.conv.2:23022
0-20000-0-14855	[14855]	CHICAGO/O'HARE, IL.	42.080002	-87.830002	1943-05-01 00:00:00	1946-04-30 00:00:00	/raid60/scratch/leo/scratch/era5/odbs/1759/era5.1759.conv.2:14855
0-20000-0-41205	[41205]	GUIUAN	11.03	125.720001	1945-01-16 00:00:00	1945-08-09 00:00:00	/raid60/scratch/leo/scratch/era5/odbs/1759/era5.1759.conv.2:41205
[]	[40301]	ANGAUR ISLAND AF	6.9	134.149994	1944-10-17 00:00:00	1945-05-06 00:00:00	/raid60/scratch/leo/scratch/era5/odbs/1759/era5.1759.conv.2:40301
[]	[80415]		5.47	148.419998	1944-02-23 00:00:00	1944-10-31 00:00:00	/raid60/scratch/leo/scratch/era5/odbs/1759/era5.1759.conv.2:80415
[]	[93840]	ST SIMONS IS NAS	31.17	-81.400002	1943-07-20 00:00:00	1947-04-22 00:00:00	/raid60/scratch/leo/scratch/era5/odbs/1759/era5.1759.conv.2:93840
0-20000-0-25002	[25002]	HUDSON BAY (AUT), SASK	52.869999	-102.400002	1944-01-03 00:00:00	1945-07-11 00:00:00	/raid60/scratch/leo/scratch/era5/odbs/1759/era5.1759.conv.2:25002
0-20000-0-20460	[20460]	KOLKATA/ALIPORE	22.530001	88.330002	1944-01-01 00:00:00	1955-10-27 00:00:00	/raid60/scratch/leo/scratch/era5/odbs/1759/era5.1759.conv.6:20460
[]	[40705]	APAMAMA NF	0.47	173.830002	1943-12-23 00:00:00	1944-09-13 00:00:00	/raid60/scratch/leo/scratch/era5/odbs/1759/era5.1759.conv.2:40705
0-20000-0-47626	[47626]	KUMAGAYA	36.150002	139.380005	1922-10-01 00:00:00	1941-07-27 00:00:00	/raid60/scratch/leo/scratch/era5/odbs/1759/era5.1759.conv.1:47626
0-20000-0-13204	[13204]	LAJES (ACORES) (8509-0)	38.82	-27.08	1944-11-01 00:00:00	1945-07-31 00:00:00	/raid60/scratch/leo/scratch/era5/odbs/1759/era5.1759.conv.2:13204
0-20000-0-82400	[82400]	FERNANDO DE NORONHA	-3.83	-32.419998	1943-08-16 00:00:00	1979-11-30 00:00:00	/raid60/scratch/leo/scratch/era5/odbs/1759/era5.1759.conv.1:82400
0-20000-0-84111	[84111]	SALINAS AEROPUERTO	-2.2	-81.019997	1942-07-26 00:00:00	1946-01-30 00:00:00	/raid60/scratch/leo/scratch/era5/odbs/1759/era5.1759.conv.1:84111
0-20000-0-22514	[22514]	KALAELOA, OAHU, HI.	21.32	-158.070007	1943-06-02 00:00:00	1959-01-31 00:00:00	/raid60/scratch/leo/scratch/era5/odbs/1759/era5.1759.conv.2:22514
0-20000-0-23030	[23030]	SANDERSON, TX.	30.049999	-102.220001	1929-01-02 00:00:00	1935-09-29 00:00:00	/raid60/scratch/leo/scratch/era5/odbs/1759/era5.1759.conv.2:23030
0-20000-0-14856	[14856]	DETROIT/METROPOLITAN, MI.	42.099998	-83.169998	1943-03-01 00:00:00	1946-07-31 00:00:00	/raid60/scratch/leo/scratch/era5/odbs/1759/era5.1759.conv.2:14856
