file_statid	station_id	station_name	latitude	longitude	elevation	original_lat	original_lon	distance_km	lat_file	lon_file	inventory	WIGOS	WMO_id	WIGOS_calc	file_min_date	file_max_date	start_date	end_date	isRadio	WIGOS_best	city	variables
94120	94120	DARWIN AIRPORT	-12.423888888888888	130.89249999999998	35.0	12 25 26S	130 53 33E	0.0	[-12.4239, -12.4239]	[130.8925, 130.8925]	OSCAR	0-20000-0-94120		0-20000-0-94120	1943	2021	999.0	999.0	True	0-20000-0-94120	darwin	['85', '38', '106', '107']
94120	94105	NOONAMAH AIRSTRIP	-12.61	131.04749999999999	18.9	12 36 36S	131 02 51E	26.6	[-12.4239, -12.4239]	[130.8925, 130.8925]	OSCAR	0-20000-0-94105		0-20000-0-94105	1943	2021	999.0	999.0	False	0-20000-0-94120	darwin	['85', '38', '106', '107']
94120	94120	DARWIN AIRPORT	-12.4239	130.8925	31.4			0.0	[-12.4239, -12.4239]	[130.8925, 130.8925]	IGRA2			0-20300-0-94120	1943	2021	1943.0	2021.0	True	0-20000-0-94120	darwin	['85', '38', '106', '107']
94120	81302	DARWIN	-12.43	130.87	37.1856			2.5	[-12.4239, -12.4239]	[130.8925, 130.8925]	WBAN			0-20500-0-81302	1943	2021	19440801.0	19450131.0		0-20000-0-94120	darwin	['85', '38', '106', '107']
94120									[-12.4239, -12.4239]	[130.8925, 130.8925]	CHUAN			0-20400-0-nan	1943	2021				0-20000-0-94120	darwin	['85', '38', '106', '107']
94120	94120	Darwin Royal Australian Air Force Base, Northern Territory, Australia	-12.47	130.92	-999.0			5.9	[-12.4239, -12.4239]	[130.8925, 130.8925]	SCHROEDER		94120	0-20600-0-94120	1943	2021				0-20000-0-94120	darwin	['85', '38', '106', '107']
94120	94115	(made up station ID) Darwin 50 MHz wind profiler, Northern Territory, Australia	-12.44	130.95	-999.0			6.5	[-12.4239, -12.4239]	[130.8925, 130.8925]	SCHROEDER		94115	0-20600-0-94115	1943	2021				0-20000-0-94120	darwin	['85', '38', '106', '107']
94120	94124	(made up station ID) Noonamah DUNDEE radiosonde site, Northern Territory, Australia	-12.61	131.06	-999.0			27.5	[-12.4239, -12.4239]	[130.8925, 130.8925]	SCHROEDER		94124	0-20600-0-94124	1943	2021				0-20000-0-94120	darwin	['85', '38', '106', '107']
94120	94120	DARWIN                   	-12.416666666666666	130.86666666666667	35.0			2.9	[-12.4239, -12.4239]	[130.8925, 130.8925]	WMO		94120	0-20700-0-94120	1943	2021				0-20000-0-94120	darwin	['85', '38', '106', '107']
