file_statid	station_id	station_name	latitude	longitude	elevation	original_lat	original_lon	distance_km	lat_file	lon_file	inventory	WIGOS	WMO_id	WIGOS_calc	file_min_date	file_max_date	start_date	end_date	isRadio	WIGOS_best	city	variables
94367	94367	MACKAY M.O	-21.11722222222222	149.21694444444444	36.3	21 07 02S	149 13 01E	0.0	[-21.1172, -21.1172]	[149.2169, 149.2169]	OSCAR	0-20000-0-94367		0-20000-0-94367	1959	2016	999.0	999.0	False	0-20000-0-94367	mackay	['85', '38', '106', '107']
94367	95367	MACKAY AERO	-21.170555555555556	149.17944444444444	5.0	21 10 14S	149 10 46E	7.1	[-21.1172, -21.1172]	[149.2169, 149.2169]	OSCAR	0-20000-0-95367		0-20000-0-95367	1959	2016	999.0	999.0	False	0-20000-0-94367	mackay	['85', '38', '106', '107']
94367	94367	MACKAY M.O	-21.1172	149.2169	30.3			0.0	[-21.1172, -21.1172]	[149.2169, 149.2169]	IGRA2			0-20300-0-94367	1959	2016	1959.0	2016.0	True	0-20000-0-94367	mackay	['85', '38', '106', '107']
94367	82405	MACKAY	-21.17	149.17	8.2296			7.6	[-21.1172, -21.1172]	[149.2169, 149.2169]	WBAN			0-20500-0-82405	1959	2016	19430401.0	19450831.0		0-20000-0-94367	mackay	['85', '38', '106', '107']
94367									[-21.1172, -21.1172]	[149.2169, 149.2169]	CHUAN			0-20400-0-nan	1959	2016				0-20000-0-94367	mackay	['85', '38', '106', '107']
94367	94367	Mackay, Queensland, Australia (WBAN=82405)	-21.17	149.22	-999.0			5.9	[-21.1172, -21.1172]	[149.2169, 149.2169]	SCHROEDER		94367	0-20600-0-94367	1959	2016				0-20000-0-94367	mackay	['85', '38', '106', '107']
94367	94367	MACKAY                   	-21.116666666666667	149.21666666666667	32.0			0.1	[-21.1172, -21.1172]	[149.2169, 149.2169]	WMO		94367	0-20700-0-94367	1959	2016				0-20000-0-94367	mackay	['85', '38', '106', '107']
