file_statid	station_id	station_name	latitude	longitude	elevation	original_lat	original_lon	distance_km	lat_file	lon_file	inventory	WIGOS	WMO_id	WIGOS_calc	file_min_date	file_max_date	start_date	end_date	isRadio	WIGOS_best	city	variables
85041	85041	COBIJA	-11.033333333333333	-68.78333333333333	235.0	11 02 00S	068 47 00W	0.0	[-11.0333, -11.0333]	[-68.7833, -68.7833]	OSCAR	0-20000-0-85041		0-20000-0-85041	2002	2003	999.0	999.0	False	0-20000-0-85041	cobija	['85', '38', '106', '107']
85041	86620	EPITACIOLANDIA	-11.024444444444445	-68.735	218.5	11 01 28S	068 44 06W	5.4	[-11.0333, -11.0333]	[-68.7833, -68.7833]	OSCAR	0-20000-0-86620		0-20000-0-86620	2002	2003	999.0	999.0	False	0-20000-0-85041	cobija	['85', '38', '106', '107']
85041	83010	BRASILEIA	-11.016666666666667	-68.73333333333333		11 01 00S	068 44 00W	5.8	[-11.0333, -11.0333]	[-68.7833, -68.7833]	OSCAR	0-20000-0-83010		0-20000-0-83010	2002	2003	999.0	999.0	False	0-20000-0-85041	cobija	['85', '38', '106', '107']
85041	85041	COBIJA	-11.0333	-68.7833	235.0			0.0	[-11.0333, -11.0333]	[-68.7833, -68.7833]	IGRA2			0-20300-0-85041	2002	2003	2002.0	2003.0	True	0-20000-0-85041	cobija	['85', '38', '106', '107']
85041									[-11.0333, -11.0333]	[-68.7833, -68.7833]	WBAN			0-20500-0-nan	2002	2003				0-20000-0-85041	cobija	['85', '38', '106', '107']
85041									[-11.0333, -11.0333]	[-68.7833, -68.7833]	CHUAN			0-20400-0-nan	2002	2003				0-20000-0-85041	cobija	['85', '38', '106', '107']
85041	85041	Cobija PACS-SONET pibal site (operated by AASANA = Administration of Airports and Aerial Navigation Services), Bolivia	-11.04	-68.78	-999.0			0.8	[-11.0333, -11.0333]	[-68.7833, -68.7833]	SCHROEDER		85041	0-20600-0-85041	2002	2003				0-20000-0-85041	cobija	['85', '38', '106', '107']
85041	85041	COBIJA                   	-11.016666666666667	-68.78333333333333	-999.0			1.8	[-11.0333, -11.0333]	[-68.7833, -68.7833]	WMO		85041	0-20700-0-85041	2002	2003				0-20000-0-85041	cobija	['85', '38', '106', '107']
