level_0	index	WIGOS	station_name	latitude	longitude	elevation	ObsRems	original_lat	original_lon	station_id	start_date	end_date	isRadio	distance_km	distance_km_minusLat	inventory	WIGOS_calc	city	city_dist_km	city_lat	city_lon	station_id_igra	WMO_id	Unnamed: 0	date_min	date_max	lat_file	lon_file	file	file_dataset	file_min_date	file_max_date	file_statid	WIGOS_best	variables
0	0	0-20000-0-04270	MITTARFIK NARSARSUAQ (4270-0)	61.166666666666664	-45.416666666666664	31.0	Surface land meteorological station (SYNOP), GOS, RBSN(S)	61 10 00N	045 25 00W	04270	999.0	999.0	False	0.0		OSCAR	0-20000-0-04270	None	None	None	None						[61.1667, 61.1667]	[-45.4167, -45.4167]	GLM00004270	igra2	1946	2021	04270	0-20001-0-04270	['85', '38', '106', '107']
1	1	0-20001-0-04270	MITTARFIK NARSARSUAQ (4270-1)	61.166666666666664	-45.416666666666664		Upper-air / Radiosonde station, RBSN(T), GOS, GUAN	61 10 00N	045 25 00W	04270	999.0	999.0	True	0.0		OSCAR	0-20001-0-04270	None	None	None	None						[61.1667, 61.1667]	[-45.4167, -45.4167]	GLM00004270	igra2	1946	2021	04270	0-20001-0-04270	['85', '38', '106', '107']
0	0		MITTARFIK NARSARSUAQ	61.1667	-45.4167	34.0				04270	1946.0	2021.0	True	0.0		IGRA2	0-20300-0-04270	None	None	None	None	GLM00004270					[61.1667, 61.1667]	[-45.4167, -45.4167]	GLM00004270	igra2	1946	2021	04270	0-20001-0-04270	['85', '38', '106', '107']
0	0		NARSARSSUAK	61.18	-45.42	11.277600000000001				16405	19410701.0	19581031.0		1.5		WBAN	0-20500-0-16405	None	None	None	None						[61.1667, 61.1667]	[-45.4167, -45.4167]	GLM00004270	igra2	1946	2021	04270	0-20001-0-04270	['85', '38', '106', '107']
1	1		WEST BLUIE	61.17	-45.67	21.031200000000002				16413	19420501.0	19420831.0		13.6		WBAN	0-20500-0-16413	None	None	None	None						[61.1667, 61.1667]	[-45.4167, -45.4167]	GLM00004270	igra2	1946	2021	04270	0-20001-0-04270	['85', '38', '106', '107']
0	0															CHUAN	0-20400-0-nan	None	None	None	None						[61.1667, 61.1667]	[-45.4167, -45.4167]	GLM00004270	igra2	1946	2021	04270	0-20001-0-04270	['85', '38', '106', '107']
0	0		BGBW Narsarsuaq, Greenland (Denmark)	61.18	-45.43	-999.0				4270				1.6		SCHROEDER	0-20600-0-4270	None	None	None	None		4270	184.0	1979-06-01 00:00:00	2009-08-15 00:00:00	[61.1667, 61.1667]	[-45.4167, -45.4167]	GLM00004270	igra2	1946	2021	04270	0-20001-0-04270	['85', '38', '106', '107']
0	0		MITTARFIK NARSARSUAQ     	61.16666666666666	-45.41666666666666	-999.0				04270				0.0		WMO	0-20700-0-04270	None	None	None	None		04270	3625.0			[61.1667, 61.1667]	[-45.4167, -45.4167]	GLM00004270	igra2	1946	2021	04270	0-20001-0-04270	['85', '38', '106', '107']
