level_0	index	WIGOS	station_name	latitude	longitude	elevation	ObsRems	original_lat	original_lon	station_id	start_date	end_date	isRadio	distance_km	distance_km_minusLat	inventory	WIGOS_calc	city	city_dist_km	city_lat	city_lon	station_id_igra	WMO_id	Unnamed: 0	date_min	date_max	lat_file	lon_file	file	file_dataset	file_min_date	file_max_date	file_statid	WIGOS_best	variables
0	0	0-20000-0-06621	GUETTINGEN	47.60166666666667	9.279444444444445	441.13	Automatic weather station (AWS), Cryosphere station, Precipitation station, Radiation station, Surface land meteorological station (SYNOP), GOS	47 36 06N	009 16 46E	06621	999	999	False	16.2		OSCAR	0-20000-0-06621	friedrichshafen	0.0	47.65	9.483333						[47.65, 47.65]	[9.4833, 9.4833]	GMM00010934	igra2	1909	1954	10934	0-20000-0-06621	['85', '38', '106', '107']
1	1	0-20000-0-06690	ALTENRHEIN	47.48361111111111	9.566666666666666	398.56	Automatic weather station (AWS), Precipitation station, Radiation station, Surface land meteorological station (SYNOP), GOS	47 29 01N	009 34 00E	06690	999	999	False	19.5		OSCAR	0-20000-0-06690	friedrichshafen	0.0	47.65	9.483333						[47.65, 47.65]	[9.4833, 9.4833]	GMM00010934	igra2	1909	1954	10934	0-20000-0-06621	['85', '38', '106', '107']
2	2	0-20000-0-06678	BISCHOFSZELL	47.4975	9.23472222222222	468.5	Automatic weather station (AWS), Cryosphere station, Precipitation station, Radiation station, Surface land meteorological station (SYNOP), GOS	47 29 51N	009 14 05E	06678	999	999	False	25.2		OSCAR	0-20000-0-06678	friedrichshafen	0.0	47.65	9.483333						[47.65, 47.65]	[9.4833, 9.4833]	GMM00010934	igra2	1909	1954	10934	0-20000-0-06621	['85', '38', '106', '107']
3	3	0-20000-0-06681	ST. GALLEN	47.425555555555555	9.39861111111111	777.08	Automatic weather station (AWS), Cryosphere station, Precipitation station, Radiation station, Surface land meteorological station (SYNOP), GOS	47 25 32N	009 23 55E	06681	999	999	False	25.8		OSCAR	0-20000-0-06681	friedrichshafen	0.0	47.65	9.483333						[47.65, 47.65]	[9.4833, 9.4833]	GMM00010934	igra2	1909	1954	10934	0-20000-0-06621	['85', '38', '106', '107']
4	4	0-20000-0-11101	BREGENZ	47.49916666666667	9.74611111111111	437.0	Precipitation station, Surface land meteorological station (SYNOP), GOS	47 29 57N	009 44 46E	11101	999	999	False	25.9		OSCAR	0-20000-0-11101	friedrichshafen	0.0	47.65	9.483333						[47.65, 47.65]	[9.4833, 9.4833]	GMM00010934	igra2	1909	1954	10934	0-20000-0-06621	['85', '38', '106', '107']
5	5	0-20000-0-10929	KONSTANZ	47.695277777777775	9.130833333333333	429.56	Agricultural meteorological station, Automatic weather station (AWS), Climatological station, Cryosphere station, Precipitation station, Radiation station, Surface land meteorological station (SYNOP), RBCN, CLIMAT(C), GCW, GOS	47 41 43N	009 07 51E	10929	999	999	False	26.9		OSCAR	0-20000-0-10929	friedrichshafen	0.0	47.65	9.483333						[47.65, 47.65]	[9.4833, 9.4833]	GMM00010934	igra2	1909	1954	10934	0-20000-0-06621	['85', '38', '106', '107']
0	0		FRIEDRICHSHAFEN	47.65	9.4833	407.0				10934	1909	1954	True	0.0		IGRA2	0-20300-0-10934	friedrichshafen	0.0	47.65	9.483333	GMM00010934					[47.65, 47.65]	[9.4833, 9.4833]	GMM00010934	igra2	1909	1954	10934	0-20000-0-06621	['85', '38', '106', '107']
0	0															WBAN	0-20500-0-nan	friedrichshafen	0.0	47.65	9.483333						[47.65, 47.65]	[9.4833, 9.4833]	GMM00010934	igra2	1909	1954	10934	0-20000-0-06621	['85', '38', '106', '107']
0	0		Friedrichshafen	47.65	9.48	400				5674	-999-999	-999-999		0.2		CHUAN	0-20400-0-5674	friedrichshafen	0.0	47.65	9.483333		-999				[47.65, 47.65]	[9.4833, 9.4833]	GMM00010934	igra2	1909	1954	10934	0-20000-0-06621	['85', '38', '106', '107']
1	1		Friedrichshafen	47.65	9.48	400				5673	-999-999	-999-999		0.2		CHUAN	0-20400-0-5673	friedrichshafen	0.0	47.65	9.483333		-999				[47.65, 47.65]	[9.4833, 9.4833]	GMM00010934	igra2	1909	1954	10934	0-20000-0-06621	['85', '38', '106', '107']
2	2		Friedrichshafen	47.65	9.48	400				5672	-999-999	-999-999		0.2		CHUAN	0-20400-0-5672	friedrichshafen	0.0	47.65	9.483333		-999				[47.65, 47.65]	[9.4833, 9.4833]	GMM00010934	igra2	1909	1954	10934	0-20000-0-06621	['85', '38', '106', '107']
3	3		Friedrichshafen	47.67	9.52	419				5557	-999-999	-999-999		3.5		CHUAN	0-20400-0-5557	friedrichshafen	0.0	47.65	9.483333		-999				[47.65, 47.65]	[9.4833, 9.4833]	GMM00010934	igra2	1909	1954	10934	0-20000-0-06621	['85', '38', '106', '107']
0	0		Friedrichshafen - Lake Constance / Bodensee, Germany)	47.65	9.48	-999				10934				0.2		SCHROEDER	0-20600-0-10934	friedrichshafen	0.0	47.65	9.483333		10934	464.0	1900-07-01 00:00:00	1908-04-01 00:00:00	[47.65, 47.65]	[9.4833, 9.4833]	GMM00010934	igra2	1909	1954	10934	0-20000-0-06621	['85', '38', '106', '107']
1	1		Sitterdorf, Switzerland	47.5097	9.2614	-999				6842				22.8		SCHROEDER	0-20600-0-6842	friedrichshafen	0.0	47.65	9.483333		6842	240.0	1999-09-16 00:00:00	1999-09-16 00:00:00	[47.65, 47.65]	[9.4833, 9.4833]	GMM00010934	igra2	1909	1954	10934	0-20000-0-06621	['85', '38', '106', '107']
0	0		FRIEDRICHSHAFEN         0	47.65	9.483333333333333	-999.0				10934				0.0		WMO	0-20700-0-10934	friedrichshafen	0.0	47.65	9.483333		10934	876.0			[47.65, 47.65]	[9.4833, 9.4833]	GMM00010934	igra2	1909	1954	10934	0-20000-0-06621	['85', '38', '106', '107']
1	2		GUETTINGEN               	47.6	9.283333333333331	-999.0				06621				16.0		WMO	0-20700-0-06621	friedrichshafen	0.0	47.65	9.483333		06621	3653.0			[47.65, 47.65]	[9.4833, 9.4833]	GMM00010934	igra2	1909	1954	10934	0-20000-0-06621	['85', '38', '106', '107']
2	3		ALTENRHEIN               	47.48333333333333	9.566666666666666	-999.0				06690				19.6		WMO	0-20700-0-06690	friedrichshafen	0.0	47.65	9.483333		06690	3696.0			[47.65, 47.65]	[9.4833, 9.4833]	GMM00010934	igra2	1909	1954	10934	0-20000-0-06621	['85', '38', '106', '107']
3	4		KONSTANZ                 	47.68333333333333	9.183333333333334	-999.0				10929				22.8		WMO	0-20700-0-10929	friedrichshafen	0.0	47.65	9.483333		10929	2332.0			[47.65, 47.65]	[9.4833, 9.4833]	GMM00010934	igra2	1909	1954	10934	0-20000-0-06621	['85', '38', '106', '107']
4	5		BISCHOFSZELL             	47.5	9.233333333333333	-999.0				06678				25.1		WMO	0-20700-0-06678	friedrichshafen	0.0	47.65	9.483333		06678	3686.0			[47.65, 47.65]	[9.4833, 9.4833]	GMM00010934	igra2	1909	1954	10934	0-20000-0-06621	['85', '38', '106', '107']
5	6		BREGENZ                  	47.5	9.75	-999.0				11101				26.1		WMO	0-20700-0-11101	friedrichshafen	0.0	47.65	9.483333		11101	3891.0			[47.65, 47.65]	[9.4833, 9.4833]	GMM00010934	igra2	1909	1954	10934	0-20000-0-06621	['85', '38', '106', '107']
6	7		ST. GALLEN               	47.41666666666666	9.4	-999.0				06681				26.7		WMO	0-20700-0-06681	friedrichshafen	0.0	47.65	9.483333		06681	3688.0			[47.65, 47.65]	[9.4833, 9.4833]	GMM00010934	igra2	1909	1954	10934	0-20000-0-06621	['85', '38', '106', '107']
