level_0	index	WIGOS	station_name	latitude	longitude	elevation	ObsRems	original_lat	original_lon	station_id	start_date	end_date	isRadio	distance_km	distance_km_minusLat	inventory	WIGOS_calc	city	city_dist_km	city_lat	city_lon	station_id_igra	WMO_id	Unnamed: 0	date_min	date_max	lat_file	lon_file	file	file_dataset	file_min_date	file_max_date	file_statid	WIGOS_best	variables
0	0	0-20000-0-10338	HANNOVER	52.464444444444446	9.678055555555554	59.4	Agricultural meteorological station, Automatic weather station (AWS), Climatological station, Cryosphere station, Precipitation station, Radiation station, Surface land meteorological station (SYNOP), Weather radar, CLIMAT(C), WRO, GCW, GOS, RBCN, RBSN(S)	52 27 52N	009 40 41E	10338	999	999	False	1.5		OSCAR	0-20000-0-10338	langenhagen	3.9	52.45	9.75						[52.467, 52.467]	[9.7, 9.7]	GMM00010338	igra2	1949	1997	10338	0-20000-0-10339	['85', '38', '106', '107']
1	1	0-20000-0-10339	HANNOVER (RADAR)	52.46	9.694444444444445		Precipitation station, Surface land meteorological station (SYNOP), Weather radar, WRO, GOS	52 27 36N	009 41 40E	10339	999	999	False	0.9		OSCAR	0-20000-0-10339	langenhagen	3.9	52.45	9.75						[52.467, 52.467]	[9.7, 9.7]	GMM00010338	igra2	1949	1997	10338	0-20000-0-10339	['85', '38', '106', '107']
2	3	0-20000-0-10334	WUNSTORF	52.46055555555556	9.431111111111111	69.23	Cryosphere station, Surface land meteorological station (SYNOP), GOS	52 27 38N	009 25 52E	10334	999	999	False	18.3		OSCAR	0-20000-0-10334	langenhagen	3.9	52.45	9.75						[52.467, 52.467]	[9.7, 9.7]	GMM00010338	igra2	1949	1997	10338	0-20000-0-10339	['85', '38', '106', '107']
3	4	0-20000-0-10343	CELLE	52.59583333333334	10.029444444444445	52.55	Agricultural meteorological station, Automatic weather station (AWS), Cryosphere station, Precipitation station, Surface land meteorological station (SYNOP), GOS	52 35 45N	010 01 46E	10343	999	999	False	26.6		OSCAR	0-20000-0-10343	langenhagen	3.9	52.45	9.75						[52.467, 52.467]	[9.7, 9.7]	GMM00010338	igra2	1949	1997	10338	0-20000-0-10339	['85', '38', '106', '107']
0	0		HANNOVER	52.467	9.7	55.0				10338	1949	1997	True	0.0		IGRA2	0-20300-0-10338	langenhagen	3.9	52.45	9.75	GMM00010338					[52.467, 52.467]	[9.7, 9.7]	GMM00010338	igra2	1949	1997	10338	0-20000-0-10339	['85', '38', '106', '107']
0	0		CELLE	52.58	10.03	40.2336				35109	19481201	19490831		25.7		WBAN	0-20500-0-35109	langenhagen	3.9	52.45	9.75						[52.467, 52.467]	[9.7, 9.7]	GMM00010338	igra2	1949	1997	10338	0-20000-0-10339	['85', '38', '106', '107']
0	0		Hannover	52.47	9.7	55				5596	-999-999	-999-999		0.3		CHUAN	0-20400-0-5596	langenhagen	3.9	52.45	9.75		-999				[52.467, 52.467]	[9.7, 9.7]	GMM00010338	igra2	1949	1997	10338	0-20000-0-10339	['85', '38', '106', '107']
0	0		Hannover, Germany	52.42	9.73	-999				10338				5.6		SCHROEDER	0-20600-0-10338	langenhagen	3.9	52.45	9.75		10338	403.0	1932-09-01 00:00:00	1990-10-01 00:00:00	[52.467, 52.467]	[9.7, 9.7]	GMM00010338	igra2	1949	1997	10338	0-20000-0-10339	['85', '38', '106', '107']
0	0		HANNOVER-LANGENHAGEN    0	52.46666666666667	9.7	59.0				10338				0.0		WMO	0-20700-0-10338	langenhagen	3.9	52.45	9.75		10338	879.0			[52.467, 52.467]	[9.7, 9.7]	GMM00010338	igra2	1949	1997	10338	0-20000-0-10339	['85', '38', '106', '107']
