file_statid	station_id	station_name	latitude	longitude	elevation	original_lat	original_lon	distance_km	lat_file	lon_file	inventory	WIGOS	WMO_id	WIGOS_calc	file_min_date	file_max_date	start_date	end_date	isRadio	WIGOS_best	city	variables
47787	47787	OZUKI AB	34.04694444444444	131.05222222222224	6.96	34 02 49N	131 03 08E	0.4	[34.05, 34.05]	[131.05, 131.05]	OSCAR	0-20000-0-47787		0-20000-0-47787	1977	1979	999.0	999.0	False	0-20000-0-47787	onoda	['85', '38', '106', '107']
47787	47762	SHIMONOSEKI	33.948611111111106	130.92638888888888	19.5	33 56 55N	130 55 35E	16.0	[34.05, 34.05]	[131.05, 131.05]	OSCAR	0-20000-0-47762		0-20000-0-47762	1977	1979	999.0	999.0	False	0-20000-0-47787	onoda	['85', '38', '106', '107']
47787	47853	KITAKYUSHU AIRPORT	33.845555555555556	131.035	9.41	33 50 44N	131 02 06E	22.7	[34.05, 34.05]	[131.05, 131.05]	OSCAR	0-20000-0-47853		0-20000-0-47853	1977	1979	999.0	999.0	False	0-20000-0-47787	onoda	['85', '38', '106', '107']
47787	47786	YAMAGUCHI-UBE AIRPORT	33.93	131.27861111111113	7.58	33 55 48N	131 16 43E	25.0	[34.05, 34.05]	[131.05, 131.05]	OSCAR	0-20000-0-47786		0-20000-0-47786	1977	1979	999.0	999.0	False	0-20000-0-47787	onoda	['85', '38', '106', '107']
47787	47787	OZUKI AB	34.05	131.05	7.0			0.0	[34.05, 34.05]	[131.05, 131.05]	IGRA2			0-20300-0-47787	1977	1979	1977.0	1979.0	True	0-20000-0-47787	onoda	['85', '38', '106', '107']
47787									[34.05, 34.05]	[131.05, 131.05]	WBAN			0-20500-0-nan	1977	1979				0-20000-0-47787	onoda	['85', '38', '106', '107']
47787									[34.05, 34.05]	[131.05, 131.05]	CHUAN			0-20400-0-nan	1977	1979				0-20000-0-47787	onoda	['85', '38', '106', '107']
47787									[34.05, 34.05]	[131.05, 131.05]	SCHROEDER			0-20600-0-nan	1977	1979				0-20000-0-47787	onoda	['85', '38', '106', '107']
47787	47762	SHIMONOSEKI              	33.95	130.93333333333334	-999.0			15.5	[34.05, 34.05]	[131.05, 131.05]	WMO		47762	0-20700-0-47762	1977	1979				0-20000-0-47787	onoda	['85', '38', '106', '107']
