file_statid	station_id	station_name	latitude	longitude	elevation	original_lat	original_lon	distance_km	lat_file	lon_file	inventory	WIGOS	WMO_id	WIGOS_calc	file_min_date	file_max_date	start_date	end_date	isRadio	WIGOS_best	city	variables
47938	47938	IEJIMA (US BASE)	26.716666666666665	127.78333333333333		26 43 00N	127 47 00E	0.0	[26.717, 26.717]	[127.783, 127.783]	OSCAR	0-20000-0-47938		0-20000-0-47938	1975	1980	999.0	999.0	False	0-20000-0-47938	nago	['85', '38', '106', '107']
47938	47940	NAGO	26.594166666666666	127.96638888888889	7.1	26 35 39N	127 57 59E	22.8	[26.717, 26.717]	[127.783, 127.783]	OSCAR	0-20000-0-47940		0-20000-0-47940	1975	1980	999.0	999.0	False	0-20000-0-47938	nago	['85', '38', '106', '107']
47938	47938	IEJIMA AUXILIARY AB	26.717	127.783	73.0			0.0	[26.717, 26.717]	[127.783, 127.783]	IGRA2			0-20300-0-47938	1975	1980	1975.0	1980.0	True	0-20000-0-47938	nago	['85', '38', '106', '107']
47938	42217	OKINAWA RYUKYU ISLAN	26.72	127.77	57.302400000000006			1.3	[26.717, 26.717]	[127.783, 127.783]	WBAN			0-20500-0-42217	1975	1980	19690401.0	99991231.0		0-20000-0-47938	nago	['85', '38', '106', '107']
47938	42203	OKINAWA RYUKYU ISLAN	26.75	127.75	76.2			4.9	[26.717, 26.717]	[127.783, 127.783]	WBAN			0-20500-0-42203	1975	1980	19450501.0	19450630.0		0-20000-0-47938	nago	['85', '38', '106', '107']
47938									[26.717, 26.717]	[127.783, 127.783]	CHUAN			0-20400-0-nan	1975	1980				0-20000-0-47938	nago	['85', '38', '106', '107']
47938	47938	RODE Ie Shima Auxiliary Air Base, Ie Jima, Okinawa Prefecture, Japan	26.72	127.78	-999.0			0.4	[26.717, 26.717]	[127.783, 127.783]	SCHROEDER		47938.0	0-20600-0-47938	1975	1980				0-20000-0-47938	nago	['85', '38', '106', '107']
47938	47950	(made up station ID) Onna - NICT Okinawa Subtropical Environment Remote Sensing Center, 4484 Aza-Onna, Onna, Kunigami, Okinawa 904-0411, Japan	26.5	127.84	-999.0			24.7	[26.717, 26.717]	[127.783, 127.783]	SCHROEDER		47950.0	0-20600-0-47950	1975	1980				0-20000-0-47938	nago	['85', '38', '106', '107']
47938									[26.717, 26.717]	[127.783, 127.783]	WMO			0-20700-0-nan	1975	1980				0-20000-0-47938	nago	['85', '38', '106', '107']
