file_statid	station_id	station_name	latitude	longitude	elevation	original_lat	original_lon	distance_km	lat_file	lon_file	inventory	WIGOS	WMO_id	WIGOS_calc	file_min_date	file_max_date	start_date	end_date	isRadio	WIGOS_best	city	variables
40265	40265	MAFRAQ	32.36666666666667	36.25	683.0	32 22 00N	036 15 00E	0.0	[32.3667, 32.3667]	[36.25, 36.25]	OSCAR	0-20000-0-40265		0-20000-0-40265	1963	2021	999.0	999.0	True	0-20000-0-40265	hawwarah	['85', '38', '106', '107']
40265	40267	WADI DHULAIL	32.15	36.28333333333333	580.0	32 09 00N	036 17 00E	24.2	[32.3667, 32.3667]	[36.25, 36.25]	OSCAR	0-20000-0-40267		0-20000-0-40267	1963	2021	999.0	999.0	False	0-20000-0-40265	hawwarah	['85', '38', '106', '107']
40265	40095	DARA'A	32.6	36.1	543.0	32 36 00N	036 06 00E	29.5	[32.3667, 32.3667]	[36.25, 36.25]	OSCAR	0-20000-0-40095		0-20000-0-40095	1963	2021	999.0	999.0	False	0-20000-0-40265	hawwarah	['85', '38', '106', '107']
40265	40265	MAFRAQ	32.3667	36.25	683.0			0.0	[32.3667, 32.3667]	[36.25, 36.25]	IGRA2			0-20300-0-40265	1963	2021	1963.0	2021.0	True	0-20000-0-40265	hawwarah	['85', '38', '106', '107']
40265									[32.3667, 32.3667]	[36.25, 36.25]	WBAN			0-20500-0-nan	1963	2021				0-20000-0-40265	hawwarah	['85', '38', '106', '107']
40265									[32.3667, 32.3667]	[36.25, 36.25]	CHUAN			0-20400-0-nan	1963	2021				0-20000-0-40265	hawwarah	['85', '38', '106', '107']
40265	40265	OJMF Mafraq - King Hussein Air College, Jordan	32.37	36.27	-999.0			1.9	[32.3667, 32.3667]	[36.25, 36.25]	SCHROEDER		40265	0-20600-0-40265	1963	2021				0-20000-0-40265	hawwarah	['85', '38', '106', '107']
40265	40265	MAFRAQ                   	32.35	36.25	-999.0			1.9	[32.3667, 32.3667]	[36.25, 36.25]	WMO		40265	0-20700-0-40265	1963	2021				0-20000-0-40265	hawwarah	['85', '38', '106', '107']
