file_statid	station_id	station_name	latitude	longitude	elevation	original_lat	original_lon	distance_km	lat_file	lon_file	inventory	WIGOS	WMO_id	WIGOS_calc	file_min_date	file_max_date	start_date	end_date	isRadio	WIGOS_best	city	variables
47090	47090	SOKCHO	38.25083333333333	128.56472222222223	19.36	38 15 03N	128 33 53E	0.0	[38.2508, 38.2508]	[128.5647, 128.5647]	OSCAR	0-20000-0-47090		0-20000-0-47090	2001	2015	999.0	999.0	False	0-20000-0-47090	seoul	['85', '38', '106', '107']
47090	47090	SOKCHO	38.2508	128.5647	18.7			0.0	[38.2508, 38.2508]	[128.5647, 128.5647]	IGRA2			0-20300-0-47090	2001	2015	2001.0	2015.0	True	0-20000-0-47090	seoul	['85', '38', '106', '107']
47090	43254	KANSONG TEAM 850	38.32	128.52	18.288			8.6	[38.2508, 38.2508]	[128.5647, 128.5647]	WBAN			0-20500-0-43254	2001	2015	19520901.0	19541130.0		0-20000-0-47090	seoul	['85', '38', '106', '107']
47090	43237	YANGYANG	38.07	128.62	6.096			20.6	[38.2508, 38.2508]	[128.5647, 128.5647]	WBAN			0-20500-0-43237	2001	2015	19510601.0	19510630.0		0-20000-0-47090	seoul	['85', '38', '106', '107']
47090									[38.2508, 38.2508]	[128.5647, 128.5647]	CHUAN			0-20400-0-nan	2001	2015				0-20000-0-47090	seoul	['85', '38', '106', '107']
47090	47090	Sokcho (Goseong Gun, Toseongmyeon Bongpori 111-3), South Korea	38.2509	128.5644	-999.0			0.0	[38.2508, 38.2508]	[128.5647, 128.5647]	SCHROEDER		47090	0-20600-0-47090	2001	2015				0-20000-0-47090	seoul	['85', '38', '106', '107']
47090	47090	SOKCHO                   	38.25	128.56666666666666	-999.0			0.2	[38.2508, 38.2508]	[128.5647, 128.5647]	WMO		47090	0-20700-0-47090	2001	2015				0-20000-0-47090	seoul	['85', '38', '106', '107']
