file_statid	station_id	station_name	latitude	longitude	elevation	original_lat	original_lon	distance_km	lat_file	lon_file	inventory	WIGOS	WMO_id	WIGOS_calc	file_min_date	file_max_date	start_date	end_date	isRadio	WIGOS_best	city	variables
47129	47129	SEOSAN	36.776666666666664	126.49388888888889	30.03	36 46 36N	126 29 38E	2.6	[36.767, 36.767]	[126.467, 126.467]	OSCAR	0-20000-0-47129		0-20000-0-47129	1997	2000	999.0	999.0	False	0-20000-0-47129	seoul	['85', '38', '106', '107']
47129	47149	SEOSAN AB	36.68333333333333	126.48333333333333	11.6	36 41 00N	126 29 00E	9.4	[36.767, 36.767]	[126.467, 126.467]	OSCAR	0-20000-0-47149		0-20000-0-47149	1997	2000	999.0	999.0	False	0-20000-0-47129	seoul	['85', '38', '106', '107']
47129	47177	Hongsung	36.6575	126.68777777777778		36 39 27N	126 41 16E	23.2	[36.767, 36.767]	[126.467, 126.467]	OSCAR	0-20000-0-47177		0-20000-0-47177	1997	2000	999.0	999.0	False	0-20000-0-47129	seoul	['85', '38', '106', '107']
47129	47129	SEOSAN	36.767	126.467	21.0			0.0	[36.767, 36.767]	[126.467, 126.467]	IGRA2			0-20300-0-47129	1997	2000	1997.0	2000.0	True	0-20000-0-47129	seoul	['85', '38', '106', '107']
47129	43266	SUSAN ROK	36.78	126.45	27.127200000000002			2.1	[36.767, 36.767]	[126.467, 126.467]	WBAN			0-20500-0-43266	1997	2000	19540701.0	19551231.0		0-20000-0-47129	seoul	['85', '38', '106', '107']
47129	43276	MANG IL SAN ROK M 88	36.93	126.45	302.0568			18.2	[36.767, 36.767]	[126.467, 126.467]	WBAN			0-20500-0-43276	1997	2000	19690401.0	99991231.0		0-20000-0-47129	seoul	['85', '38', '106', '107']
47129									[36.767, 36.767]	[126.467, 126.467]	CHUAN			0-20400-0-nan	1997	2000				0-20000-0-47129	seoul	['85', '38', '106', '107']
47129									[36.767, 36.767]	[126.467, 126.467]	SCHROEDER			0-20600-0-nan	1997	2000				0-20000-0-47129	seoul	['85', '38', '106', '107']
47129	47129	SEOSAN                   	36.78333333333333	126.5	-999.0			3.5	[36.767, 36.767]	[126.467, 126.467]	WMO		47129	0-20700-0-47129	1997	2000				0-20000-0-47129	seoul	['85', '38', '106', '107']
