level_0	index	WIGOS	station_name	latitude	longitude	elevation	ObsRems	original_lat	original_lon	station_id	start_date	end_date	isRadio	distance_km	distance_km_minusLat	inventory	WIGOS_calc	city	city_dist_km	city_lat	city_lon	station_id_igra	WMO_id	Unnamed: 0	date_min	date_max	lat_file	lon_file	file	file_dataset	file_min_date	file_max_date	file_statid	WIGOS_best	variables
0	0	0-20000-0-76644	AEROP.INTERNACIONAL MERIDA, YUC	20.946944444444444	-89.65222222222222	11.0	Climatological station, Upper-air / Radiosonde station, Surface land meteorological station (SYNOP), RBCN, GOS, Centennial Observing Stations, RBSN(ST), GSN, CLIMAT(C)	20 56 49N	089 39 08W	76644	999.0	999.0	True	0.4		OSCAR	0-20000-0-76644	merida	3.9	20.966667	-89.616667						[20.95, 20.95]	[-89.65, -89.65]	MXM00076644	igra2	1948	2021	76644	0-20000-0-76644	['85', '38', '106', '107']
0	0		AEROP.INTERNACIONAL MERIDA	20.95	-89.65	11.0				76644	1948.0	2021.0	True	0.0		IGRA2	0-20300-0-76644	merida	3.9	20.966667	-89.616667	MXM00076644					[20.95, 20.95]	[-89.65, -89.65]	MXM00076644	igra2	1948	2021	76644	0-20000-0-76644	['85', '38', '106', '107']
0	0		MERIDA	20.95	-89.68	10.0584				12878	19561001.0	99991231.0		3.1		WBAN	0-20500-0-12878	merida	3.9	20.966667	-89.616667						[20.95, 20.95]	[-89.65, -89.65]	MXM00076644	igra2	1948	2021	76644	0-20000-0-76644	['85', '38', '106', '107']
1	1		MERIDA	20.97	-89.52	27.127200000000002				12866	19440801.0	19561031.0		13.7		WBAN	0-20500-0-12866	merida	3.9	20.966667	-89.616667						[20.95, 20.95]	[-89.65, -89.65]	MXM00076644	igra2	1948	2021	76644	0-20000-0-76644	['85', '38', '106', '107']
0	0															CHUAN	0-20400-0-nan	merida	3.9	20.966667	-89.616667						[20.95, 20.95]	[-89.65, -89.65]	MXM00076644	igra2	1948	2021	76644	0-20000-0-76644	['85', '38', '106', '107']
0	0		Merida AP, Yucatan, Mexico	20.95	-89.67	-999.0				76644				2.1		SCHROEDER	0-20600-0-76644	merida	3.9	20.966667	-89.616667		76644	3326.0	1972-02-15 00:00:00	1999-10-23 00:00:00	[20.95, 20.95]	[-89.65, -89.65]	MXM00076644	igra2	1948	2021	76644	0-20000-0-76644	['85', '38', '106', '107']
1	1		Merida AP (Operated by Pan American Airways), Yucatan, Mexico	20.93	-89.68	-999.0				76106				3.8		SCHROEDER	0-20600-0-76106	merida	3.9	20.966667	-89.616667		76106	3280.0	1938-01-01 00:00:00	1944-08-22 00:00:00	[20.95, 20.95]	[-89.65, -89.65]	MXM00076644	igra2	1948	2021	76644	0-20000-0-76644	['85', '38', '106', '107']
2	2		Merida, Yucatan, Mexico	20.99	-89.67	-999.0				76642				4.9		SCHROEDER	0-20600-0-76642	merida	3.9	20.966667	-89.616667		76642	3325.0	1994-07-01 00:00:00	1994-07-01 00:00:00	[20.95, 20.95]	[-89.65, -89.65]	MXM00076644	igra2	1948	2021	76644	0-20000-0-76644	['85', '38', '106', '107']
0	0		MERIDA                   	20.966666666666665	-89.63333333333334	-999.0				76644				2.5		WMO	0-20700-0-76644	merida	3.9	20.966667	-89.616667		76644	1301.0			[20.95, 20.95]	[-89.65, -89.65]	MXM00076644	igra2	1948	2021	76644	0-20000-0-76644	['85', '38', '106', '107']
