file_statid	station_id	station_name	latitude	longitude	elevation	original_lat	original_lon	distance_km	lat_file	lon_file	inventory	WIGOS	WMO_id	WIGOS_calc	file_min_date	file_max_date	start_date	end_date	isRadio	WIGOS_best	city	variables
67261	67261	TETE	-16.183333333333334	33.583333333333336	150.0	16 11 00S	033 35 00E	0.1	[-16.183, -16.183]	[33.583, 33.583]	OSCAR	0-20000-0-67261		0-20000-0-67261	1953	1983	999	999	False	0-20000-0-67261	tete	['85', '38', '106', '107']
67261	67262	TETE CHINGODZE	-16.116666666666667	33.65	129.0	16 07 00S	033 39 00E	10.3	[-16.183, -16.183]	[33.583, 33.583]	OSCAR	0-20000-0-67262		0-20000-0-67262	1953	1983	999	999	False	0-20000-0-67261	tete	['85', '38', '106', '107']
67261	67261	TETE	-16.183	33.583	150.0			0.0	[-16.183, -16.183]	[33.583, 33.583]	IGRA2			0-20300-0-67261	1953	1983	1953	1983	True	0-20000-0-67261	tete	['85', '38', '106', '107']
67261									[-16.183, -16.183]	[33.583, 33.583]	WBAN			0-20500-0-nan	1953	1983				0-20000-0-67261	tete	['85', '38', '106', '107']
67261	4830	Tete	-16.07	33.67	140			15.6	[-16.183, -16.183]	[33.583, 33.583]	CHUAN		-999	0-20400-0-4830	1953	1983	-999-999	-999-999		0-20000-0-67261	tete	['85', '38', '106', '107']
67261	67261	Tete, Mozambique	-16.12	33.63	-999			8.6	[-16.183, -16.183]	[33.583, 33.583]	SCHROEDER		67261	0-20600-0-67261	1953	1983				0-20000-0-67261	tete	['85', '38', '106', '107']
67261	67261	TETE                     	-16.183333333333334	33.583333333333336	150.0			0.1	[-16.183, -16.183]	[33.583, 33.583]	WMO		67261	0-20700-0-67261	1953	1983				0-20000-0-67261	tete	['85', '38', '106', '107']
