file_statid	station_id	station_name	latitude	longitude	elevation	original_lat	original_lon	distance_km	lat_file	lon_file	inventory	WIGOS	WMO_id	WIGOS_calc	file_min_date	file_max_date	start_date	end_date	isRadio	WIGOS_best	city	variables
01010	01010	ANDOYA (1010-0)	69.30722222222222	16.130833333333335	13.1	69 18 26N	016 07 51E	0.9	[69.3153, 69.3153]	[16.1308, 16.1308]	OSCAR	0-20000-0-01010		0-20000-0-01010	2014	2019	999.0	999.0	False	0-20001-0-01010	harstad	['85', '38', '106', '107']
01010	01010	ANDOYA (1010-1)	69.31527777777778	16.130833333333335		69 18 55N	016 07 51E	0.0	[69.3153, 69.3153]	[16.1308, 16.1308]	OSCAR	0-20001-0-01010		0-20001-0-01010	2014	2019	999.0	999.0	True	0-20001-0-01010	harstad	['85', '38', '106', '107']
01010	01018	ANDOYA-TROLLTINDEN	69.24138888888889	16.003055555555555		69 14 29N	016 00 11E	9.7	[69.3153, 69.3153]	[16.1308, 16.1308]	OSCAR	0-20000-0-01018		0-20000-0-01018	2014	2019	999.0	999.0	False	0-20001-0-01010	harstad	['85', '38', '106', '107']
01010	01010	ANDOYA	69.3153	16.1308	10.0			0.0	[69.3153, 69.3153]	[16.1308, 16.1308]	IGRA2			0-20300-0-01010	2014	2019	2014.0	2019.0	True	0-20001-0-01010	harstad	['85', '38', '106', '107']
01010									[69.3153, 69.3153]	[16.1308, 16.1308]	WBAN			0-20500-0-nan	2014	2019				0-20001-0-01010	harstad	['85', '38', '106', '107']
01010									[69.3153, 69.3153]	[16.1308, 16.1308]	CHUAN			0-20400-0-nan	2014	2019				0-20001-0-01010	harstad	['85', '38', '106', '107']
01010	1010	ENAN Andenes - ALOMAR Radiosonde Station, Norway	69.32	16.13	-999.0			0.5	[69.3153, 69.3153]	[16.1308, 16.1308]	SCHROEDER		1010.0	0-20600-0-1010	2014	2019				0-20001-0-01010	harstad	['85', '38', '106', '107']
01010	1011	(made up station ID) Andenes 53.5 MHz ALOMAR SOUSY wind profiler site, Norway	69.2984	16.0421	-999.0			4.0	[69.3153, 69.3153]	[16.1308, 16.1308]	SCHROEDER		1011.0	0-20600-0-1011	2014	2019				0-20001-0-01010	harstad	['85', '38', '106', '107']
01010									[69.3153, 69.3153]	[16.1308, 16.1308]	WMO			0-20700-0-nan	2014	2019				0-20001-0-01010	harstad	['85', '38', '106', '107']
