file_statid	station_id	station_name	latitude	longitude	elevation	original_lat	original_lon	distance_km	lat_file	lon_file	inventory	WIGOS	WMO_id	WIGOS_calc	file_min_date	file_max_date	start_date	end_date	isRadio	WIGOS_best	city	variables
84377	84377	IQUITOS	-3.783333333333333	-73.3	126.0	03 47 00S	073 18 00W	0.0	[-3.783, -3.783]	[-73.3, -73.3]	OSCAR	0-20000-0-84377		0-20000-0-84377	1973	1980	999.0	999.0	False	0-20000-0-84378	iquitos	['85', '38', '106', '107']
84377	84378	MORONA	-3.7333333333333334	-73.25		03 44 00S	073 15 00W	7.8	[-3.783, -3.783]	[-73.3, -73.3]	OSCAR	0-20000-0-84378		0-20000-0-84378	1973	1980	999.0	999.0	True	0-20000-0-84378	iquitos	['85', '38', '106', '107']
84377	84377	IQUITOS	-3.783	-73.3	126.0			0.0	[-3.783, -3.783]	[-73.3, -73.3]	IGRA2			0-20300-0-84377	1973	1980	1973.0	1980.0	True	0-20000-0-84378	iquitos	['85', '38', '106', '107']
84377	84378	MORONA	-3.7333	-73.25	117.0			7.8	[-3.783, -3.783]	[-73.3, -73.3]	IGRA2			0-20300-0-84378	1973	1980	2003.0	2010.0	True	0-20000-0-84378	iquitos	['85', '38', '106', '107']
84377									[-3.783, -3.783]	[-73.3, -73.3]	WBAN			0-20500-0-nan	1973	1980				0-20000-0-84378	iquitos	['85', '38', '106', '107']
84377									[-3.783, -3.783]	[-73.3, -73.3]	CHUAN			0-20400-0-nan	1973	1980				0-20000-0-84378	iquitos	['85', '38', '106', '107']
84377	84377	SPQT Iquitos - Coronel Francisco Secada Vignetta AP, Peru	-3.75	-73.25	-999.0			6.6	[-3.783, -3.783]	[-73.3, -73.3]	SCHROEDER		84377	0-20600-0-84377	1973	1980				0-20000-0-84378	iquitos	['85', '38', '106', '107']
84377	84378	Iquitos - Morona - , Peru	-3.73	-73.25	-999.0			8.1	[-3.783, -3.783]	[-73.3, -73.3]	SCHROEDER		84378	0-20600-0-84378	1973	1980				0-20000-0-84378	iquitos	['85', '38', '106', '107']
84377	84377	IQUITOS                  	-3.75	-73.25	126.0			6.6	[-3.783, -3.783]	[-73.3, -73.3]	WMO		84377	0-20700-0-84377	1973	1980				0-20000-0-84378	iquitos	['85', '38', '106', '107']
