file_statid	station_id	station_name	latitude	longitude	elevation	original_lat	original_lon	distance_km	lat_file	lon_file	inventory	WIGOS	WMO_id	WIGOS_calc	file_min_date	file_max_date	start_date	end_date	isRadio	WIGOS_best	city	variables
68588	68588	DURBAN INTNL. AIRPORT	-30.013333333333332	30.92638888888889	14.0	30 00 48S	030 55 35E	5.6	[-29.9667, -29.9667]	[30.95, 30.95]	OSCAR	0-20000-0-68588		0-20000-0-68588	1949	2010	999.0	999.0	False	0-20000-0-68588	durban	['85', '38', '106', '107']
68588	68593	DURBAN-VIRGINIA	-29.766944444444444	31.055555555555557	14.0	29 46 01S	031 03 20E	24.4	[-29.9667, -29.9667]	[30.95, 30.95]	OSCAR	0-20000-0-68593		0-20000-0-68593	1949	2010	999.0	999.0	False	0-20000-0-68588	durban	['85', '38', '106', '107']
68588	68588	DURBAN/LOUIS BOTHA	-29.9667	30.95	8.0			0.0	[-29.9667, -29.9667]	[30.95, 30.95]	IGRA2			0-20300-0-68588	1949	2010	1949.0	2010.0	True	0-20000-0-68588	durban	['85', '38', '106', '107']
68588									[-29.9667, -29.9667]	[30.95, 30.95]	WBAN			0-20500-0-nan	1949	2010				0-20000-0-68588	durban	['85', '38', '106', '107']
68588									[-29.9667, -29.9667]	[30.95, 30.95]	CHUAN			0-20400-0-nan	1949	2010				0-20000-0-68588	durban	['85', '38', '106', '107']
68588	68588	FADN Durban (Umlazi - Louis Botha AP), South Africa	-29.97	30.95	-999.0			0.4	[-29.9667, -29.9667]	[30.95, 30.95]	SCHROEDER		68588	0-20600-0-68588	1949	2010				0-20000-0-68588	durban	['85', '38', '106', '107']
68588	68590	Durban - Stamford Hill AP, South Africa	-29.85	31.05	-999.0			16.1	[-29.9667, -29.9667]	[30.95, 30.95]	SCHROEDER		68590	0-20600-0-68590	1949	2010				0-20000-0-68588	durban	['85', '38', '106', '107']
68588	68588	DURBAN/LOUIS BOTHA       	-29.966666666666665	30.95	8.0			0.0	[-29.9667, -29.9667]	[30.95, 30.95]	WMO		68588	0-20700-0-68588	1949	2010				0-20000-0-68588	durban	['85', '38', '106', '107']
