file_statid	station_id	station_name	latitude	longitude	elevation	original_lat	original_lon	distance_km	lat_file	lon_file	inventory	WIGOS	WMO_id	WIGOS_calc	file_min_date	file_max_date	start_date	end_date	isRadio	WIGOS_best	city	variables
08430	08430	MURCIA	38.00194444444445	-1.1708333333333334	62.0	38 00 07N	001 10 15W	0.0	[38.0019, 38.0019]	[-1.1708, -1.1708]	OSCAR	0-20000-0-08430		0-20000-0-08430	1984	2021	999.0	999.0	True	0-20000-0-08430	murcia	['85', '38', '106', '107']
08430	08429	MURCIA/AL CANTARILLA	37.95777777777778	-1.2286111111111113	75.0	37 57 28N	001 13 43W	7.1	[38.0019, 38.0019]	[-1.1708, -1.1708]	OSCAR	0-20000-0-08429		0-20000-0-08429	1984	2021	999.0	999.0	False	0-20000-0-08430	murcia	['85', '38', '106', '107']
08430	08364	FORTUNA	38.26444444444444	-1.1897222222222223		38 15 52N	001 11 23W	29.2	[38.0019, 38.0019]	[-1.1708, -1.1708]	OSCAR	0-20000-0-08364		0-20000-0-08364	1984	2021	999.0	999.0	False	0-20000-0-08430	murcia	['85', '38', '106', '107']
08430	08430	MURCIA	38.0019	-1.1708	61.0			0.0	[38.0019, 38.0019]	[-1.1708, -1.1708]	IGRA2			0-20300-0-08430	1984	2021	1984.0	2021.0	True	0-20000-0-08430	murcia	['85', '38', '106', '107']
08430									[38.0019, 38.0019]	[-1.1708, -1.1708]	WBAN			0-20500-0-nan	1984	2021				0-20000-0-08430	murcia	['85', '38', '106', '107']
08430									[38.0019, 38.0019]	[-1.1708, -1.1708]	CHUAN			0-20400-0-nan	1984	2021				0-20000-0-08430	murcia	['85', '38', '106', '107']
08430	8430	Murcia (Zarandona), Spain	37.98	-1.12	-999.0			5.1	[38.0019, 38.0019]	[-1.1708, -1.1708]	SCHROEDER		8430	0-20600-0-8430	1984	2021				0-20000-0-08430	murcia	['85', '38', '106', '107']
08430	08430	MURCIA ALFONSO X         	37.98333333333333	-1.1166666666666667	-999.0			5.2	[38.0019, 38.0019]	[-1.1708, -1.1708]	WMO		08430	0-20700-0-08430	1984	2021				0-20000-0-08430	murcia	['85', '38', '106', '107']
08430	08429	MURCIA/ALCANTARILLA      	37.95	-1.2333333333333334	-999.0			8.0	[38.0019, 38.0019]	[-1.1708, -1.1708]	WMO		08429	0-20700-0-08429	1984	2021				0-20000-0-08430	murcia	['85', '38', '106', '107']
