file_statid	station_id	station_name	latitude	longitude	elevation	original_lat	original_lon	distance_km	lat_file	lon_file	inventory	WIGOS	WMO_id	WIGOS_calc	file_min_date	file_max_date	start_date	end_date	isRadio	WIGOS_best	city	variables
60018	60018	TENERIFE-GUIMAR	28.31833333333333	-16.38222222222222		28 19 06N	016 22 56W	0.0	[28.3183, 28.3183]	[-16.3822, -16.3822]	OSCAR	0-20000-0-60018		0-20000-0-60018	2002	2021	999	999	True	0-20000-0-60018	candelaria	['85', '38', '106', '107']
60018	0000000000060018	TENERIFE-GÜIMAR	28.31833333333333	-16.38222222222222		28 19 06N	016 22 56W	0.0	[28.3183, 28.3183]	[-16.3822, -16.3822]	OSCAR	0-724-0-0000000000060018		0-724-0-0000000000060018	2002	2021	999	999	False	0-20000-0-60018	candelaria	['85', '38', '106', '107']
60018	60010	IZANA	28.30888888888889	-16.499444444444446	2368.0	28 18 32N	016 29 58W	11.5	[28.3183, 28.3183]	[-16.3822, -16.3822]	OSCAR	0-20000-0-60010		0-20000-0-60010	2002	2021	999	999	False	0-20000-0-60018	candelaria	['85', '38', '106', '107']
60018	60015	TENERIFE/LOS RODEOS	28.4775	-16.329444444444444	617.0	28 28 39N	016 19 46W	18.4	[28.3183, 28.3183]	[-16.3822, -16.3822]	OSCAR	0-20000-0-60015		0-20000-0-60015	2002	2021	999	999	False	0-20000-0-60018	candelaria	['85', '38', '106', '107']
60018	0000000000060012	PUERTO DE LA CRUZ	28.418055555555558	-16.548333333333336		28 25 05N	016 32 54W	19.7	[28.3183, 28.3183]	[-16.3822, -16.3822]	OSCAR	0-724-0-0000000000060012		0-724-0-0000000000060012	2002	2021	999	999	False	0-20000-0-60018	candelaria	['85', '38', '106', '107']
60018	60020	STA. CRUZ DE TENERIFE	28.455	-16.24888888888889	36.0	28 27 18N	016 14 56W	20.0	[28.3183, 28.3183]	[-16.3822, -16.3822]	OSCAR	0-20000-0-60020		0-20000-0-60020	2002	2021	999	999	False	0-20000-0-60018	candelaria	['85', '38', '106', '107']
60018	60018	TENERIFE-GUIMAR	28.3183	-16.3822	105.0			0.0	[28.3183, 28.3183]	[-16.3822, -16.3822]	IGRA2			0-20300-0-60018	2002	2021	2002	2021	True	0-20000-0-60018	candelaria	['85', '38', '106', '107']
60018	60020	STA. CRUZ DE TENERI	28.467	-16.25	36.0			21.0	[28.3183, 28.3183]	[-16.3822, -16.3822]	IGRA2			0-20300-0-60020	2002	2021	1960	2002	True	0-20000-0-60018	candelaria	['85', '38', '106', '107']
60018	12104	TENERIFE AIR SAMPLE	28.3	-16.48	2300.0208000000002			9.8	[28.3183, 28.3183]	[-16.3822, -16.3822]	WBAN			0-20500-0-12104	2002	2021	19911116	99991231		0-20000-0-60018	candelaria	['85', '38', '106', '107']
60018	5166	Izaña	28.32	-16.48	2367			9.6	[28.3183, 28.3183]	[-16.3822, -16.3822]	CHUAN		-999	0-20400-0-5166	2002	2021	-999-999	-999-999		0-20000-0-60018	candelaria	['85', '38', '106', '107']
60018	5358	Tenerife	28.32	-16.5	89			11.6	[28.3183, 28.3183]	[-16.3822, -16.3822]	CHUAN		-999	0-20400-0-5358	2002	2021	-999-999	-999-999		0-20000-0-60018	candelaria	['85', '38', '106', '107']
60018	6071	Las Cañadas de Teide	28.3	-16.51	2300			12.7	[28.3183, 28.3183]	[-16.3822, -16.3822]	CHUAN		-999	0-20400-0-6071	2002	2021	-999-999	-999-999		0-20000-0-60018	candelaria	['85', '38', '106', '107']
60018	60018	Guimar - La Planta Autosonde, Tenerife, Canary Is. (Spain)	28.3185	-16.3822	-999			0.0	[28.3183, 28.3183]	[-16.3822, -16.3822]	SCHROEDER		60018	0-20600-0-60018	2002	2021				0-20000-0-60018	candelaria	['85', '38', '106', '107']
60018	60020	Santa Cruz - Instituto Nacional de Meteorologia - Canarias Occidentales, Tenerife, Canary Is. (Spain)	28.4634	-16.2554	-999			20.3	[28.3183, 28.3183]	[-16.3822, -16.3822]	SCHROEDER		60020	0-20600-0-60020	2002	2021				0-20000-0-60018	candelaria	['85', '38', '106', '107']
60018	60021	(made up station ID) Santa Cruz de Tenerife ozonesondes, Tenerife, Canary Is. (Spain)	28.4634	-16.2554	-999			20.3	[28.3183, 28.3183]	[-16.3822, -16.3822]	SCHROEDER		60021	0-20600-0-60021	2002	2021				0-20000-0-60018	candelaria	['85', '38', '106', '107']
60018	60010	(assigned station ID) Pico del Tiede Volcano, Tenerife, Canary Is. (Spain)	28.27	-16.64	-999			25.8	[28.3183, 28.3183]	[-16.3822, -16.3822]	SCHROEDER		60010	0-20600-0-60010	2002	2021				0-20000-0-60018	candelaria	['85', '38', '106', '107']
60018	60018	TENERIFE-GÜIMAR          	28.316666666666663	-16.383333333333333	-999.0			0.2	[28.3183, 28.3183]	[-16.3822, -16.3822]	WMO		60018	0-20700-0-60018	2002	2021				0-20000-0-60018	candelaria	['85', '38', '106', '107']
60018	60010	IZANA                    	28.3	-16.5	-999.0			11.7	[28.3183, 28.3183]	[-16.3822, -16.3822]	WMO		60010	0-20700-0-60010	2002	2021				0-20000-0-60018	candelaria	['85', '38', '106', '107']
60018	60015	TENERIFE/LOS RODEOS      	28.48333333333333	-16.333333333333332	-999.0			18.9	[28.3183, 28.3183]	[-16.3822, -16.3822]	WMO		60015	0-20700-0-60015	2002	2021				0-20000-0-60018	candelaria	['85', '38', '106', '107']
60018	60020	SANTA CRUZ DE TENERIFE   	28.466666666666665	-16.25	-999.0			20.9	[28.3183, 28.3183]	[-16.3822, -16.3822]	WMO		60020	0-20700-0-60020	2002	2021				0-20000-0-60018	candelaria	['85', '38', '106', '107']
