level_0	index	WIGOS	station_name	latitude	longitude	elevation	ObsRems	original_lat	original_lon	station_id	start_date	end_date	isRadio	distance_km	distance_km_minusLat	inventory	WIGOS_calc	city	city_dist_km	city_lat	city_lon	station_id_igra	WMO_id	Unnamed: 0	date_min	date_max	lat_file	lon_file	file	file_dataset	file_min_date	file_max_date	file_statid	WIGOS_best	variables
0	0	0-20000-0-08023	SANTANDER	43.49111111111111	-3.8005555555555555	59.0	Climatological station, Upper-air / Radiosonde station, Surface land meteorological station (SYNOP), GOS, CLIMAT(C), RBCN, RBSN(ST)	43 29 28N	003 48 02W	08023	999	999	True	0.0		OSCAR	0-20000-0-08023	santander	2.9	43.464722	-3.804444						[43.4911, 43.4911]	[-3.8006, -3.8006]	SPM00008023	igra2	1973	2021	08023	0-20000-0-08023	['85', '38', '106', '107']
1	2	0-20000-0-08021	SANTANDER/PARAYAS	43.42916666666667	-3.8313888888888887	1.0	Surface land meteorological station (SYNOP), GOS, CLIMAT(C)	43 25 45N	003 49 53W	08021	999	999	False	7.3		OSCAR	0-20000-0-08021	santander	2.9	43.464722	-3.804444						[43.4911, 43.4911]	[-3.8006, -3.8006]	SPM00008023	igra2	1973	2021	08023	0-20000-0-08023	['85', '38', '106', '107']
0	0		SANTANDER	43.4911	-3.8006	52.0				08023	1973	2021	True	0.0		IGRA2	0-20300-0-08023	santander	2.9	43.464722	-3.804444	SPM00008023					[43.4911, 43.4911]	[-3.8006, -3.8006]	SPM00008023	igra2	1973	2021	08023	0-20000-0-08023	['85', '38', '106', '107']
0	0															WBAN	0-20500-0-nan	santander	2.9	43.464722	-3.804444						[43.4911, 43.4911]	[-3.8006, -3.8006]	SPM00008023	igra2	1973	2021	08023	0-20000-0-08023	['85', '38', '106', '107']
0	0		Santander	43.47	-3.78	66				5320	-999-999	-999-999		2.9		CHUAN	0-20400-0-5320	santander	2.9	43.464722	-3.804444		-999				[43.4911, 43.4911]	[-3.8006, -3.8006]	SPM00008023	igra2	1973	2021	08023	0-20000-0-08023	['85', '38', '106', '107']
0	0		Santander, Spain	43.47	-3.82	-999				8023				2.8		SCHROEDER	0-20600-0-8023	santander	2.9	43.464722	-3.804444		8023	333.0	1986-04-19 00:00:00	1999-05-17 00:00:00	[43.4911, 43.4911]	[-3.8006, -3.8006]	SPM00008023	igra2	1973	2021	08023	0-20000-0-08023	['85', '38', '106', '107']
0	0		SANTANDER                	43.46666666666667	-3.8166666666666655	-999.0				08023				3.0		WMO	0-20700-0-08023	santander	2.9	43.464722	-3.804444		08023	1107.0			[43.4911, 43.4911]	[-3.8006, -3.8006]	SPM00008023	igra2	1973	2021	08023	0-20000-0-08023	['85', '38', '106', '107']
1	2		SANTANDER/PARAYAS        	43.43333333333333	-3.8333333333333335	-999.0				08021				6.9		WMO	0-20700-0-08021	santander	2.9	43.464722	-3.804444		08021	4997.0			[43.4911, 43.4911]	[-3.8006, -3.8006]	SPM00008023	igra2	1973	2021	08023	0-20000-0-08023	['85', '38', '106', '107']
