file_statid	station_id	station_name	latitude	longitude	elevation	original_lat	original_lon	distance_km	lat_file	lon_file	inventory	WIGOS	WMO_id	WIGOS_calc	file_min_date	file_max_date	start_date	end_date	isRadio	WIGOS_best	city	variables
62760	62760	EL FASHER	13.616666666666667	25.333333333333332	730.0	13 37 00N	025 20 00E	0.1	[13.617, 13.617]	[25.333, 25.333]	OSCAR	0-20000-0-62760		0-20000-0-62760	1939	2008	999	999	True	0-20000-0-62760	umm kaddadah	['85', '38', '106', '107']
62760	62760	EL FASHER	13.617	25.333	733.0			0.0	[13.617, 13.617]	[25.333, 25.333]	IGRA2			0-20300-0-62760	1939	2008	1939	2008	True	0-20000-0-62760	umm kaddadah	['85', '38', '106', '107']
62760	31201	EL FASHER SUDAN	13.63	25.35	731.2152			2.3	[13.617, 13.617]	[25.333, 25.333]	WBAN			0-20500-0-31201	1939	2008	19430401	19450630		0-20000-0-62760	umm kaddadah	['85', '38', '106', '107']
62760	4949	Al-Fashir	13.62	25.32	732			1.4	[13.617, 13.617]	[25.333, 25.333]	CHUAN		-999	0-20400-0-4949	1939	2008	-999-999	-999-999		0-20000-0-62760	umm kaddadah	['85', '38', '106', '107']
62760	62760	El Fasher, Sudan	13.62	25.33	-999			0.5	[13.617, 13.617]	[25.333, 25.333]	SCHROEDER		62760	0-20600-0-62760	1939	2008				0-20000-0-62760	umm kaddadah	['85', '38', '106', '107']
62760	62760	EL FASHER                	13.633333333333333	25.33333333333333	733.0			1.8	[13.617, 13.617]	[25.333, 25.333]	WMO		62760	0-20700-0-62760	1939	2008				0-20000-0-62760	umm kaddadah	['85', '38', '106', '107']
