level_0	index	WIGOS	station_name	latitude	longitude	elevation	ObsRems	original_lat	original_lon	station_id	start_date	end_date	isRadio	distance_km	distance_km_minusLat	inventory	WIGOS_calc	city	city_dist_km	city_lat	city_lon	station_id_igra	WMO_id	Unnamed: 0	date_min	date_max	lat_file	lon_file	file	file_dataset	file_min_date	file_max_date	file_statid	WIGOS_best	variables
0	0	0-20000-0-03649	BRIZE NORTON	51.75833333333333	-1.5780555555555555	82.0	Upper-air / Radiosonde station, Surface land meteorological station (SYNOP), GOS	51 45 30N	001 34 41W	03649	999.0	999.0	True	1.0		OSCAR	0-20000-0-03649	witney	7.8	51.783333	-1.483333						[51.75, 51.75]	[-1.583, -1.583]	UKM00003649	igra2	1992	2005	03649	0-20000-0-03649	['85', '38', '106', '107']
1	2	0-20000-0-03647	LITTLE RISSINGTON	51.86055555555556	-1.6930555555555555	210.0	Surface land meteorological station (SYNOP), GOS	51 51 38N	001 41 35W	03647	999.0	999.0	False	14.5		OSCAR	0-20000-0-03647	witney	7.8	51.783333	-1.483333						[51.75, 51.75]	[-1.583, -1.583]	UKM00003649	igra2	1992	2005	03649	0-20000-0-03649	['85', '38', '106', '107']
0	0		BRIZE NORTON	51.75	-1.583	88.0				03649	1992.0	2005.0	True	0.0		IGRA2	0-20300-0-03649	witney	7.8	51.783333	-1.483333	UKM00003649					[51.75, 51.75]	[-1.583, -1.583]	UKM00003649	igra2	1992	2005	03649	0-20000-0-03649	['85', '38', '106', '107']
0	0		OXFORD	51.75	-1.58	91.1352				15036	19510801.0	19650430.0		0.2		WBAN	0-20500-0-15036	witney	7.8	51.783333	-1.483333						[51.75, 51.75]	[-1.583, -1.583]	UKM00003649	igra2	1992	2005	03649	0-20000-0-03649	['85', '38', '106', '107']
1	1		FAIRFORD	51.68	-1.78	91.1352				15038	19520601.0	19640630.0		15.7		WBAN	0-20500-0-15038	witney	7.8	51.783333	-1.483333						[51.75, 51.75]	[-1.583, -1.583]	UKM00003649	igra2	1992	2005	03649	0-20000-0-03649	['85', '38', '106', '107']
2	2		GROVE	51.62	-1.45	83.2104				15020	19450301.0	19451130.0		17.1		WBAN	0-20500-0-15020	witney	7.8	51.783333	-1.483333						[51.75, 51.75]	[-1.583, -1.583]	UKM00003649	igra2	1992	2005	03649	0-20000-0-03649	['85', '38', '106', '107']
0	0															CHUAN	0-20400-0-nan	witney	7.8	51.783333	-1.483333						[51.75, 51.75]	[-1.583, -1.583]	UKM00003649	igra2	1992	2005	03649	0-20000-0-03649	['85', '38', '106', '107']
0	0		EGVN Brize Norton AP, England, UK	51.75	-1.58	-999.0				3649				0.2		SCHROEDER	0-20600-0-3649	witney	7.8	51.783333	-1.483333		3649.0	135.0	2000-06-30 00:00:00	2006-02-03 00:00:00	[51.75, 51.75]	[-1.583, -1.583]	UKM00003649	igra2	1992	2005	03649	0-20000-0-03649	['85', '38', '106', '107']
0	0															WMO	0-20700-0-nan	witney	7.8	51.783333	-1.483333						[51.75, 51.75]	[-1.583, -1.583]	UKM00003649	igra2	1992	2005	03649	0-20000-0-03649	['85', '38', '106', '107']
