level_0	index	WIGOS	station_name	latitude	longitude	elevation	ObsRems	original_lat	original_lon	station_id	start_date	end_date	isRadio	distance_km	distance_km_minusLat	inventory	WIGOS_calc	city	city_dist_km	city_lat	city_lon	station_id_igra	WMO_id	Unnamed: 0	date_min	date_max	lat_file	lon_file	file	file_dataset	file_min_date	file_max_date	file_statid	WIGOS_best	variables
0	0	0-20000-0-07002	BOULOGNE	50.7325	1.5997222222222223	68.0	Surface land meteorological station (SYNOP), GOS	50 43 57N	001 35 59E	07002	999	999	False	18.7		OSCAR	0-20000-0-07002	calais	11.9	50.951241	1.85899						[50.875, 50.875]	[1.74, 1.74]	era5.3188.conv.C:6048	era5_3188	19230501	19391103	C:6048	0-20000-0-07002	[106, 107]
0	0															IGRA2	0-20300-0-nan	calais	11.9	50.951241	1.85899						[50.875, 50.875]	[1.74, 1.74]	era5.3188.conv.C:6048	era5_3188	19230501	19391103	C:6048	0-20000-0-07002	[106, 107]
0	0															WBAN	0-20500-0-nan	calais	11.9	50.951241	1.85899						[50.875, 50.875]	[1.74, 1.74]	era5.3188.conv.C:6048	era5_3188	19230501	19391103	C:6048	0-20000-0-07002	[106, 107]
0	0		Saint-Inglevert	50.875	1.74	123				6048	192007	193911		0.0		CHUAN	0-20400-0-6048	calais	11.9	50.951241	1.85899		-999				[50.875, 50.875]	[1.74, 1.74]	era5.3188.conv.C:6048	era5_3188	19230501	19391103	C:6048	0-20000-0-07002	[106, 107]
1	1		Saint-Inglevert	50.875	1.74	123				4500	192007	193911		0.0		CHUAN	0-20400-0-4500	calais	11.9	50.951241	1.85899		-999				[50.875, 50.875]	[1.74, 1.74]	era5.3188.conv.C:6048	era5_3188	19230501	19391103	C:6048	0-20000-0-07002	[106, 107]
2	2		St. Inglevert	50.87	1.73	123				5344	-999-999	-999-999		0.9		CHUAN	0-20400-0-5344	calais	11.9	50.951241	1.85899		-999				[50.875, 50.875]	[1.74, 1.74]	era5.3188.conv.C:6048	era5_3188	19230501	19391103	C:6048	0-20000-0-07002	[106, 107]
3	4		Calais	50.95	1.87	5				5653	-999-999	-999-999		12.4		CHUAN	0-20400-0-5653	calais	11.9	50.951241	1.85899		-999				[50.875, 50.875]	[1.74, 1.74]	era5.3188.conv.C:6048	era5_3188	19230501	19391103	C:6048	0-20000-0-07002	[106, 107]
0	0															SCHROEDER	0-20600-0-nan	calais	11.9	50.951241	1.85899						[50.875, 50.875]	[1.74, 1.74]	era5.3188.conv.C:6048	era5_3188	19230501	19391103	C:6048	0-20000-0-07002	[106, 107]
0	0		BOULOGNE-SEM             	50.71666666666667	1.5833333333333337	-999.0				07002				20.8		WMO	0-20700-0-07002	calais	11.9	50.951241	1.85899		07002	3757.0			[50.875, 50.875]	[1.74, 1.74]	era5.3188.conv.C:6048	era5_3188	19230501	19391103	C:6048	0-20000-0-07002	[106, 107]
