level_0	index	WIGOS	station_name	latitude	longitude	elevation	ObsRems	original_lat	original_lon	station_id	start_date	end_date	isRadio	distance_km	distance_km_minusLat	inventory	WIGOS_calc	city	city_dist_km	city_lat	city_lon	station_id_igra	WMO_id	Unnamed: 0	date_min	date_max	lat_file	lon_file	file	file_dataset	file_min_date	file_max_date	file_statid	WIGOS_best	variables
0	0	0-20000-0-03693	SHOEBURYNESS, LANDWICK	51.55472222222222	0.8269444444444445	2.0	Surface land meteorological station (SYNOP), GOS	51 33 17N	000 49 37E	03693	999	999	False	13.8		OSCAR	0-20000-0-03693	southend-on-sea	9.4	51.533333	0.7						[51.45, 51.45]	[0.72, 0.72]	era5.3188.conv.C:6083	era5_3188	19211027	19240215	C:6083	0-20000-0-03693	[38, 85, 106, 107]
0	0		SHOEBURYNESS	51.5547	0.8269	2.0				03693	1966	2010	True	13.8		IGRA2	0-20300-0-03693	southend-on-sea	9.4	51.533333	0.7	UKM00003693					[51.45, 51.45]	[0.72, 0.72]	era5.3188.conv.C:6083	era5_3188	19211027	19240215	C:6083	0-20000-0-03693	[38, 85, 106, 107]
0	0		WEST MALLING	51.28	0.4	91.1352				35054	19601201	19640630		29.2		WBAN	0-20500-0-35054	southend-on-sea	9.4	51.533333	0.7						[51.45, 51.45]	[0.72, 0.72]	era5.3188.conv.C:6083	era5_3188	19211027	19240215	C:6083	0-20000-0-03693	[38, 85, 106, 107]
0	0		Grain	51.45	0.72	3				6083	-999-999	-999-999		0.0		CHUAN	0-20400-0-6083	southend-on-sea	9.4	51.533333	0.7		-999				[51.45, 51.45]	[0.72, 0.72]	era5.3188.conv.C:6083	era5_3188	19211027	19240215	C:6083	0-20000-0-03693	[38, 85, 106, 107]
1	1		Shoeburyness	51.53	0.78	3				5334	-999-999	-999-999		9.8		CHUAN	0-20400-0-5334	southend-on-sea	9.4	51.533333	0.7		-999				[51.45, 51.45]	[0.72, 0.72]	era5.3188.conv.C:6083	era5_3188	19211027	19240215	C:6083	0-20000-0-03693	[38, 85, 106, 107]
2	3		Manston	51.35	0.35	43				5229	-999-999	-999-999		28.0		CHUAN	0-20400-0-5229	southend-on-sea	9.4	51.533333	0.7		-999				[51.45, 51.45]	[0.72, 0.72]	era5.3188.conv.C:6083	era5_3188	19211027	19240215	C:6083	0-20000-0-03693	[38, 85, 106, 107]
0	0		Shoeburyness Range (operated by Ministry of Defence), Landwick, Foulness Island, England, UK	51.53	0.82	-999				3693				11.3		SCHROEDER	0-20600-0-3693	southend-on-sea	9.4	51.533333	0.7		3693	137.0	1918-01-01 00:00:00	2004-09-30 00:00:00	[51.45, 51.45]	[0.72, 0.72]	era5.3188.conv.C:6083	era5_3188	19211027	19240215	C:6083	0-20000-0-03693	[38, 85, 106, 107]
0	0															WMO	0-20700-0-nan	southend-on-sea	9.4	51.533333	0.7						[51.45, 51.45]	[0.72, 0.72]	era5.3188.conv.C:6083	era5_3188	19211027	19240215	C:6083	0-20000-0-03693	[38, 85, 106, 107]
