file_statid	station_id	station_name	latitude	longitude	elevation	original_lat	original_lon	distance_km	lat_file	lon_file	inventory	WIGOS	WMO_id	WIGOS_calc	file_min_date	file_max_date	start_date	end_date	isRadio	WIGOS_best	city	variables
C:5764	12424	WROCLAW II	51.10333333333333	16.9	120.96	51 06 12N	016 54 00E	9.3	[51.12, 51.12]	[17.03, 17.03]	OSCAR	0-20000-0-12424		0-20000-0-12424	19200124	19340629	999	999	False	0-20000-0-12425	wroclaw	[38, 106, 107]
C:5764	12425	WROCLAW-STARACHOWICE	51.113055555555555	16.88111111111111		51 06 47N	016 52 52E	10.5	[51.12, 51.12]	[17.03, 17.03]	OSCAR	0-20000-0-12425		0-20000-0-12425	19200124	19340629	999	999	True	0-20000-0-12425	wroclaw	[38, 106, 107]
C:5764	05764	WROCLAW	51.12	17.03	118.0			0.0	[51.12, 51.12]	[17.03, 17.03]	IGRA2			0-20300-0-05764	19200124	19340629	1920	1920	True	0-20000-0-12425	wroclaw	[38, 106, 107]
C:5764	12425	WROCLAW I	51.1131	16.8811	119.6			10.5	[51.12, 51.12]	[17.03, 17.03]	IGRA2			0-20300-0-12425	19200124	19340629	1956	2021	True	0-20000-0-12425	wroclaw	[38, 106, 107]
C:5764									[51.12, 51.12]	[17.03, 17.03]	WBAN			0-20500-0-nan	19200124	19340629				0-20000-0-12425	wroclaw	[38, 106, 107]
C:5764	5764	Wroclaw	51.12	17.03	118			0.0	[51.12, 51.12]	[17.03, 17.03]	CHUAN		-999	0-20400-0-5764	19200124	19340629	-999-999	-999-999		0-20000-0-12425	wroclaw	[38, 106, 107]
C:5764	12425	(assigned station ID) Breslau, Germany	51.07	17.0	-999			5.9	[51.12, 51.12]	[17.03, 17.03]	SCHROEDER		12425	0-20600-0-12425	19200124	19340629				0-20000-0-12425	wroclaw	[38, 106, 107]
C:5764	12424	WROCLAW-STRACHOWICE      	51.1	16.883333333333333	124.0			10.5	[51.12, 51.12]	[17.03, 17.03]	WMO		12424	0-20700-0-12424	19200124	19340629				0-20000-0-12425	wroclaw	[38, 106, 107]
