level_0	index	WIGOS	station_name	latitude	longitude	elevation	ObsRems	original_lat	original_lon	station_id	start_date	end_date	isRadio	distance_km	distance_km_minusLat	inventory	WIGOS_calc	city	city_dist_km	city_lat	city_lon	station_id_igra	WMO_id	Unnamed: 0	date_min	date_max	lat_file	lon_file	file	file_dataset	file_min_date	file_max_date	file_statid	WIGOS_best	variables
0	0	0-20000-0-34880	ASTRAHAN' (34880-0)	46.28333333333333	47.983333333333334	-20.6	Climatological station, Surface land meteorological station (SYNOP), RBCN, GOS, GSN, CLIMAT(C), RBSN(S)	46 17 00N	047 59 00E	34880	999	999	False	7.5		OSCAR	0-20000-0-34880	astrakhan	5.4	46.349683	48.040756						[46.35, 46.35]	[47.97, 47.97]	era5.3188.conv.C:6159	era5_3188	19391229	19580410	C:6159	0-20001-0-34882	[38, 85, 106, 107, 117]
1	1	0-20001-0-34882	ASTRAHAN' (34882-1)	46.28333333333333	47.983333333333334		Upper-air / Radiosonde station, GOS, RBSN(T)	46 17 00N	047 59 00E	34882	999	999	True	7.5		OSCAR	0-20001-0-34882	astrakhan	5.4	46.349683	48.040756						[46.35, 46.35]	[47.97, 47.97]	era5.3188.conv.C:6159	era5_3188	19391229	19580410	C:6159	0-20001-0-34882	[38, 85, 106, 107, 117]
0	0		ASTRAHAN	46.2833	47.9833	-17.0				34882	1939	2021	True	7.5		IGRA2	0-20300-0-34882	astrakhan	5.4	46.349683	48.040756	RSM00034882					[46.35, 46.35]	[47.97, 47.97]	era5.3188.conv.C:6159	era5_3188	19391229	19580410	C:6159	0-20001-0-34882	[38, 85, 106, 107, 117]
0	0															WBAN	0-20500-0-nan	astrakhan	5.4	46.349683	48.040756						[46.35, 46.35]	[47.97, 47.97]	era5.3188.conv.C:6159	era5_3188	19391229	19580410	C:6159	0-20001-0-34882	[38, 85, 106, 107, 117]
0	0		Astrakhan	46.35	47.97	-24				6159	-999-999	-999-999		0.0		CHUAN	0-20400-0-6159	astrakhan	5.4	46.349683	48.040756		-999				[46.35, 46.35]	[47.97, 47.97]	era5.3188.conv.C:6159	era5_3188	19391229	19580410	C:6159	0-20001-0-34882	[38, 85, 106, 107, 117]
0	0		Astrakhan, Russia	46.34	48.04	-999				34880				5.5		SCHROEDER	0-20600-0-34880	astrakhan	5.4	46.349683	48.040756		34880	858.0	1935-01-01 00:00:00	2006-02-14 00:00:00	[46.35, 46.35]	[47.97, 47.97]	era5.3188.conv.C:6159	era5_3188	19391229	19580410	C:6159	0-20001-0-34882	[38, 85, 106, 107, 117]
0	0		ASTRAHAN'                	46.266666666666666	48.03333333333333	-21.0				34880				10.5		WMO	0-20700-0-34880	astrakhan	5.4	46.349683	48.040756		34880	1036.0			[46.35, 46.35]	[47.97, 47.97]	era5.3188.conv.C:6159	era5_3188	19391229	19580410	C:6159	0-20001-0-34882	[38, 85, 106, 107, 117]
