level_0	index	WIGOS	station_name	latitude	longitude	elevation	ObsRems	original_lat	original_lon	station_id	start_date	end_date	isRadio	distance_km	distance_km_minusLat	inventory	WIGOS_calc	city	city_dist_km	city_lat	city_lon	station_id_igra	WMO_id	Unnamed: 0	date_min	date_max	lat_file	lon_file	file	file_dataset	file_min_date	file_max_date	file_statid	WIGOS_best	variables
0	0	0-20000-0-08487	ALMERIA/AEROPUERTO	36.84638888888889	-2.3569444444444447	21.0	Climatological station, Surface land meteorological station (SYNOP), GOS, CLIMAT(C), RBCN, RBSN(S)	36 50 47N	002 21 25W	08487	999	999	False	12.8		OSCAR	0-20000-0-08487	almeria	4.8	36.833333	-2.45						[36.85, 36.85]	[-2.5, -2.5]	era5.3188.conv.C:5036	era5_3188	19250124	19280331	C:5036	0-20000-0-08487	[106, 107, 117]
1	1	0-724-0-0000000000008492	ROQUETAS DE MAR-FARO SABINAR	36.68694444444444	-2.7016666666666667		Precipitation station, Surface land meteorological station (SYNOP), GOS	36 41 13N	002 42 06W	0000000000008492	999	999	False	25.5		OSCAR	0-724-0-0000000000008492	almeria	4.8	36.833333	-2.45						[36.85, 36.85]	[-2.5, -2.5]	era5.3188.conv.C:5036	era5_3188	19250124	19280331	C:5036	0-20000-0-08487	[106, 107, 117]
0	0															IGRA2	0-20300-0-nan	almeria	4.8	36.833333	-2.45						[36.85, 36.85]	[-2.5, -2.5]	era5.3188.conv.C:5036	era5_3188	19250124	19280331	C:5036	0-20000-0-08487	[106, 107, 117]
0	0															WBAN	0-20500-0-nan	almeria	4.8	36.833333	-2.45						[36.85, 36.85]	[-2.5, -2.5]	era5.3188.conv.C:5036	era5_3188	19250124	19280331	C:5036	0-20000-0-08487	[106, 107, 117]
0	0		Almeria	36.85	-2.5	65				5036	-999-999	-999-999		0.0		CHUAN	0-20400-0-5036	almeria	4.8	36.833333	-2.45		-999				[36.85, 36.85]	[-2.5, -2.5]	era5.3188.conv.C:5036	era5_3188	19250124	19280331	C:5036	0-20000-0-08487	[106, 107, 117]
1	2		Almeria	36.83	-2.47	75				5633	-999-999	-999-999		3.5		CHUAN	0-20400-0-5633	almeria	4.8	36.833333	-2.45		-999				[36.85, 36.85]	[-2.5, -2.5]	era5.3188.conv.C:5036	era5_3188	19250124	19280331	C:5036	0-20000-0-08487	[106, 107, 117]
0	0															SCHROEDER	0-20600-0-nan	almeria	4.8	36.833333	-2.45						[36.85, 36.85]	[-2.5, -2.5]	era5.3188.conv.C:5036	era5_3188	19250124	19280331	C:5036	0-20000-0-08487	[106, 107, 117]
0	0		ALMERIA                  	36.833333333333336	-2.466666666666667	-999.0				08488				3.5		WMO	0-20700-0-08488	almeria	4.8	36.833333	-2.45		08488	1096.0			[36.85, 36.85]	[-2.5, -2.5]	era5.3188.conv.C:5036	era5_3188	19250124	19280331	C:5036	0-20000-0-08487	[106, 107, 117]
1	1		ALMERIA/AEROPUERTO       	36.85	-2.3833333333333333	-999.0				08487				10.4		WMO	0-20700-0-08487	almeria	4.8	36.833333	-2.45		08487	2369.0			[36.85, 36.85]	[-2.5, -2.5]	era5.3188.conv.C:5036	era5_3188	19250124	19280331	C:5036	0-20000-0-08487	[106, 107, 117]
