file_statid	station_id	station_name	latitude	longitude	elevation	original_lat	original_lon	distance_km	lat_file	lon_file	inventory	WIGOS	WMO_id	WIGOS_calc	file_min_date	file_max_date	start_date	end_date	isRadio	WIGOS_best	city	variables
C:5323	47811	SASEBO (47811-0)	33.15	129.73333333333332		33 09 00N	129 44 00E	2.2	[33.13, 33.13]	[129.73, 129.73]	OSCAR	0-20000-0-47811		0-20000-0-47811	19250414	19251217	999	999	False	0-20000-0-47811	sasebo	[106, 107]
C:5323	47812	SASEBO (47812-0)	33.15972222222222	129.7275	5.5	33 09 35N	129 43 39E	3.3	[33.13, 33.13]	[129.73, 129.73]	OSCAR	0-20000-0-47812		0-20000-0-47812	19250414	19251217	999	999	False	0-20000-0-47811	sasebo	[106, 107]
C:5323	47855	NAGASAKI AIRPORT	32.91694444444444	129.91361111111112	5.44	32 55 01N	129 54 49E	29.2	[33.13, 33.13]	[129.73, 129.73]	OSCAR	0-20000-0-47855		0-20000-0-47855	19250414	19251217	999	999	False	0-20000-0-47811	sasebo	[106, 107]
C:5323	47859	OMURA AB	32.92805555555555	129.93416666666667	8.79	32 55 41N	129 56 03E	29.4	[33.13, 33.13]	[129.73, 129.73]	OSCAR	0-20000-0-47859		0-20000-0-47859	19250414	19251217	999	999	False	0-20000-0-47811	sasebo	[106, 107]
C:5323	47855	NAGASAKI AIRPORT	32.917	129.917	6.0			29.4	[33.13, 33.13]	[129.73, 129.73]	IGRA2			0-20300-0-47855	19250414	19251217	1977	1979	True	0-20000-0-47811	sasebo	[106, 107]
C:5323	43285	SASEBO USN BASE	33.17	129.72	8.2296			4.5	[33.13, 33.13]	[129.73, 129.73]	WBAN			0-20500-0-43285	19250414	19251217	19941101	99991231		0-20000-0-47811	sasebo	[106, 107]
C:5323	5323	Sasebo	33.13	129.73	25			0.0	[33.13, 33.13]	[129.73, 129.73]	CHUAN		-999	0-20400-0-5323	19250414	19251217	-999-999	-999-999		0-20000-0-47811	sasebo	[106, 107]
C:5323									[33.13, 33.13]	[129.73, 129.73]	SCHROEDER			0-20600-0-nan	19250414	19251217				0-20000-0-47811	sasebo	[106, 107]
C:5323									[33.13, 33.13]	[129.73, 129.73]	WMO			0-20700-0-nan	19250414	19251217				0-20000-0-47811	sasebo	[106, 107]
