file_statid	station_id	station_name	latitude	longitude	elevation	original_lat	original_lon	distance_km	lat_file	lon_file	inventory	WIGOS	WMO_id	WIGOS_calc	file_min_date	file_max_date	start_date	end_date	isRadio	WIGOS_best	city	variables
C:5482	78397	KINGSTON/NORMAN MANLEY	17.933333333333334	-76.78333333333333	14.0	17 56 00N	076 47 00W	5.5	[17.98, 17.98]	[-76.8, -76.8]	OSCAR	0-20000-0-78397		0-20000-0-78397	19400127	19410112	999	999	True	0-20000-0-78397	half way tree	[106, 107]
C:5482	78397	COOPERS HILL	18.0667	-76.85	786.0			11.0	[17.98, 17.98]	[-76.8, -76.8]	IGRA2			0-20300-0-78397	19400127	19410112	1956	2021	True	0-20000-0-78397	half way tree	[106, 107]
C:5482	11715	KINGSTON	17.93	-76.78	7.010400000000001			5.9	[17.98, 17.98]	[-76.8, -76.8]	WBAN			0-20500-0-11715	19400127	19410112	19490901	19720901		0-20000-0-78397	half way tree	[106, 107]
C:5482	11715	KINGSTON	17.93	-76.78	7.010400000000001			5.9	[17.98, 17.98]	[-76.8, -76.8]	WBAN		78397.0	0-20500-0-11715	19400127	19410112	19720901	19950101		0-20000-0-78397	half way tree	[106, 107]
C:5482	11715	KINGSTON	17.93	-76.78	7.010400000000001			5.9	[17.98, 17.98]	[-76.8, -76.8]	WBAN		78397.0	0-20500-0-11715	19400127	19410112	19950101	99991231		0-20000-0-78397	half way tree	[106, 107]
C:5482	11707	KINGSTON	17.83	-76.67	18.288			21.6	[17.98, 17.98]	[-76.8, -76.8]	WBAN			0-20500-0-11707	19400127	19410112	19421201	19431231		0-20000-0-78397	half way tree	[106, 107]
C:5482	5482	Kingston	17.98	-76.8	58			0.0	[17.98, 17.98]	[-76.8, -76.8]	CHUAN		-999	0-20400-0-5482	19400127	19410112	-999-999	-999-999		0-20000-0-78397	half way tree	[106, 107]
C:5482	78397	MKJP Kingston, Jamaica	17.95	-76.72	-999			9.1	[17.98, 17.98]	[-76.8, -76.8]	SCHROEDER		78397	0-20600-0-78397	19400127	19410112				0-20000-0-78397	half way tree	[106, 107]
C:5482	78397	PALISADOES (MANLEY AP)   	17.933333333333334	-76.78333333333333	-999.0			5.5	[17.98, 17.98]	[-76.8, -76.8]	WMO		78397	0-20700-0-78397	19400127	19410112				0-20000-0-78397	half way tree	[106, 107]
