level_0	index	WIGOS	station_name	latitude	longitude	elevation	ObsRems	original_lat	original_lon	station_id	start_date	end_date	isRadio	distance_km	distance_km_minusLat	inventory	WIGOS_calc	city	city_dist_km	city_lat	city_lon	station_id_igra	WMO_id	Unnamed: 0	date_min	date_max	lat_file	lon_file	file	file_dataset	file_min_date	file_max_date	file_statid	WIGOS_best	variables
0	0	0-20000-0-07072	REIMS-PRUNAY	49.209722222222226	4.155277777777778	95.0	Climatological station, Surface land meteorological station (SYNOP), CLIMAT(C), RBSN(S), RBCN, GOS	49 12 35N	004 09 19E	07072	999	999	False	17.4		OSCAR	0-20000-0-07072	chalons-en-champagne	18.5	48.953926	4.367238						[49.12, 49.12]	[4.35, 4.35]	era5.3188.conv.C:5248	era5_3188	19270618	19280719	C:5248	0-20000-0-07072	[106, 107]
0	0															IGRA2	0-20300-0-nan	chalons-en-champagne	18.5	48.953926	4.367238						[49.12, 49.12]	[4.35, 4.35]	era5.3188.conv.C:5248	era5_3188	19270618	19280719	C:5248	0-20000-0-07072	[106, 107]
0	0		SUIPPES GUN RANGE	49.15	4.63	193.2432				34072	19600201	19670228		20.7		WBAN	0-20500-0-34072	chalons-en-champagne	18.5	48.953926	4.367238						[49.12, 49.12]	[4.35, 4.35]	era5.3188.conv.C:5248	era5_3188	19270618	19280719	C:5248	0-20000-0-07072	[106, 107]
0	0		Mourmelon	49.12	4.35	131				5248	-999-999	-999-999		0.0		CHUAN	0-20400-0-5248	chalons-en-champagne	18.5	48.953926	4.367238		-999				[49.12, 49.12]	[4.35, 4.35]	era5.3188.conv.C:5248	era5_3188	19270618	19280719	C:5248	0-20000-0-07072	[106, 107]
1	1		Reims	49.25	4.03	85				5730	-999-999	-999-999		27.4		CHUAN	0-20400-0-5730	chalons-en-champagne	18.5	48.953926	4.367238		-999				[49.12, 49.12]	[4.35, 4.35]	era5.3188.conv.C:5248	era5_3188	19270618	19280719	C:5248	0-20000-0-07072	[106, 107]
0	0		Chalons-en-Champagne / Chalons-sur-Marne - Caserne Chanzy, France	48.96	4.36	-999				7165				17.8		SCHROEDER	0-20600-0-7165	chalons-en-champagne	18.5	48.953926	4.367238		7165	267.0	1915-09-01 00:00:00	1915-09-01 00:00:00	[49.12, 49.12]	[4.35, 4.35]	era5.3188.conv.C:5248	era5_3188	19270618	19280719	C:5248	0-20000-0-07072	[106, 107]
0	0		REIMS-PRUNAY             	49.2	4.15	-999.0				07072				17.1		WMO	0-20700-0-07072	chalons-en-champagne	18.5	48.953926	4.367238		07072	4990.0			[49.12, 49.12]	[4.35, 4.35]	era5.3188.conv.C:5248	era5_3188	19270618	19280719	C:5248	0-20000-0-07072	[106, 107]
