file_statid	station_id	station_name	latitude	longitude	elevation	original_lat	original_lon	distance_km	lat_file	lon_file	inventory	WIGOS	WMO_id	WIGOS_calc	file_min_date	file_max_date	start_date	end_date	isRadio	WIGOS_best	city	variables
C:5744	07684	CANNES	43.55638888888888	6.950555555555556	4.0	43 33 23N	006 57 02E	20.5	[43.42, 43.42]	[6.78, 6.78]	OSCAR	0-20000-0-07684		0-20000-0-07684	19310413	19330308	999	999	False	0-20000-0-07684	saint-raphael	[106, 107]
C:5744	07680	SAINT-RAPHAEL	43.417	6.75	6.0			2.5	[43.42, 43.42]	[6.78, 6.78]	IGRA2			0-20300-0-07680	19310413	19330308	1982	1982	True	0-20000-0-07684	saint-raphael	[106, 107]
C:5744	34007	ST TROPEZ	43.52	6.67	18.288			14.2	[43.42, 43.42]	[6.78, 6.78]	WBAN			0-20500-0-34007	19310413	19330308	19440801	19440930		0-20000-0-07684	saint-raphael	[106, 107]
C:5744	5744	St. Raphaël	43.42	6.78	30			0.0	[43.42, 43.42]	[6.78, 6.78]	CHUAN		-999	0-20400-0-5744	19310413	19330308	-999-999	-999-999		0-20000-0-07684	saint-raphael	[106, 107]
C:5744	4516	Saint-Raphaël base	43.416	6.75	2			2.5	[43.42, 43.42]	[6.78, 6.78]	CHUAN		-999	0-20400-0-4516	19310413	19330308	192101	193712		0-20000-0-07684	saint-raphael	[106, 107]
C:5744	7680	Saint-Raphael, France	43.42	6.75	-999			2.4	[43.42, 43.42]	[6.78, 6.78]	SCHROEDER		7680	0-20600-0-7680	19310413	19330308				0-20000-0-07684	saint-raphael	[106, 107]
C:5744	07684	CANNES                   	43.55	6.95	-999.0			19.9	[43.42, 43.42]	[6.78, 6.78]	WMO		07684	0-20700-0-07684	19310413	19330308				0-20000-0-07684	saint-raphael	[106, 107]
