file_statid	station_id	station_name	latitude	longitude	elevation	original_lat	original_lon	distance_km	lat_file	lon_file	inventory	WIGOS	WMO_id	WIGOS_calc	file_min_date	file_max_date	start_date	end_date	isRadio	WIGOS_best	city	variables
C:5161	08027	SAN SEBASTIAN/IGUELDO	43.30638888888888	-2.041111111111111	259.0	43 18 23N	002 02 28W	1.7	[43.32, 43.32]	[-2.05, -2.05]	OSCAR	0-20000-0-08027		0-20000-0-08027	19271001	19280330	999	999	False	0-20000-0-08027	oria	[106, 107, 117]
C:5161	0000000000008026	ZUMAYA,FARO	43.30222222222222	-2.2511111111111113		43 18 08N	002 15 04W	16.4	[43.32, 43.32]	[-2.05, -2.05]	OSCAR	0-724-0-0000000000008026		0-724-0-0000000000008026	19271001	19280330	999	999	False	0-20000-0-08027	oria	[106, 107, 117]
C:5161	08029	SAN SEBASTIAN/FUENTERRABIA	43.36055555555556	-1.787222222222222	8.0	43 21 38N	001 47 14W	21.8	[43.32, 43.32]	[-2.05, -2.05]	OSCAR	0-20000-0-08029		0-20000-0-08029	19271001	19280330	999	999	False	0-20000-0-08027	oria	[106, 107, 117]
C:5161									[43.32, 43.32]	[-2.05, -2.05]	IGRA2			0-20300-0-nan	19271001	19280330				0-20000-0-08027	oria	[106, 107, 117]
C:5161									[43.32, 43.32]	[-2.05, -2.05]	WBAN			0-20500-0-nan	19271001	19280330				0-20000-0-08027	oria	[106, 107, 117]
C:5161	5161	Igueldo	43.32	-2.05	270			0.0	[43.32, 43.32]	[-2.05, -2.05]	CHUAN		-999	0-20400-0-5161	19271001	19280330	-999-999	-999-999		0-20000-0-08027	oria	[106, 107, 117]
C:5161									[43.32, 43.32]	[-2.05, -2.05]	SCHROEDER			0-20600-0-nan	19271001	19280330				0-20000-0-08027	oria	[106, 107, 117]
C:5161	08027	SAN SEBASTIAN/IGUELDO    	43.3	-2.05	-999.0			2.2	[43.32, 43.32]	[-2.05, -2.05]	WMO		08027	0-20700-0-08027	19271001	19280330				0-20000-0-08027	oria	[106, 107, 117]
C:5161	08029	HONDARRIBIA-MALKARROA    	43.35	-1.8	-999.0			20.5	[43.32, 43.32]	[-2.05, -2.05]	WMO		08029	0-20700-0-08029	19271001	19280330				0-20000-0-08027	oria	[106, 107, 117]
