level_0	index	WIGOS	station_name	latitude	longitude	elevation	ObsRems	original_lat	original_lon	station_id	start_date	end_date	isRadio	distance_km	distance_km_minusLat	inventory	WIGOS_calc	city	city_dist_km	city_lat	city_lon	station_id_igra	WMO_id	Unnamed: 0	date_min	date_max	lat_file	lon_file	file	file_dataset	file_min_date	file_max_date	file_statid	WIGOS_best	variables
0	0	0-20000-0-07684	CANNES	43.55638888888888	6.950555555555556	4.0	Surface land meteorological station (SYNOP), GOS	43 33 23N	006 57 02E	07684	999	999	False	20.5		OSCAR	0-20000-0-07684	saint-raphael	1.0	43.424758	6.770236						[43.42, 43.42]	[6.78, 6.78]	era5.3188.conv.C:5744	era5_3188	19310413	19330308	C:5744	0-20000-0-07684	[106, 107]
0	0		SAINT-RAPHAEL	43.417	6.75	6.0				07680	1982	1982	True	2.5		IGRA2	0-20300-0-07680	saint-raphael	1.0	43.424758	6.770236	FRM00007680					[43.42, 43.42]	[6.78, 6.78]	era5.3188.conv.C:5744	era5_3188	19310413	19330308	C:5744	0-20000-0-07684	[106, 107]
0	0		ST TROPEZ	43.52	6.67	18.288				34007	19440801	19440930		14.2		WBAN	0-20500-0-34007	saint-raphael	1.0	43.424758	6.770236						[43.42, 43.42]	[6.78, 6.78]	era5.3188.conv.C:5744	era5_3188	19310413	19330308	C:5744	0-20000-0-07684	[106, 107]
0	0		St. Raphaël	43.42	6.78	30				5744	-999-999	-999-999		0.0		CHUAN	0-20400-0-5744	saint-raphael	1.0	43.424758	6.770236		-999				[43.42, 43.42]	[6.78, 6.78]	era5.3188.conv.C:5744	era5_3188	19310413	19330308	C:5744	0-20000-0-07684	[106, 107]
1	1		Saint-Raphaël base	43.416	6.75	2				4516	192101	193712		2.5		CHUAN	0-20400-0-4516	saint-raphael	1.0	43.424758	6.770236		-999				[43.42, 43.42]	[6.78, 6.78]	era5.3188.conv.C:5744	era5_3188	19310413	19330308	C:5744	0-20000-0-07684	[106, 107]
0	0		Saint-Raphael, France	43.42	6.75	-999				7680				2.4		SCHROEDER	0-20600-0-7680	saint-raphael	1.0	43.424758	6.770236		7680	326.0	1982-03-01 00:00:00	1982-03-01 00:00:00	[43.42, 43.42]	[6.78, 6.78]	era5.3188.conv.C:5744	era5_3188	19310413	19330308	C:5744	0-20000-0-07684	[106, 107]
0	0		CANNES                   	43.55	6.95	-999.0				07684				19.9		WMO	0-20700-0-07684	saint-raphael	1.0	43.424758	6.770236		07684	3876.0			[43.42, 43.42]	[6.78, 6.78]	era5.3188.conv.C:5744	era5_3188	19310413	19330308	C:5744	0-20000-0-07684	[106, 107]
