file_statid	station_id	station_name	latitude	longitude	elevation	original_lat	original_lon	distance_km	lat_file	lon_file	inventory	WIGOS	WMO_id	WIGOS_calc	file_min_date	file_max_date	start_date	end_date	isRadio	WIGOS_best	city	variables
C:5238	07093	GOIN AEROPORT M.N.L.	48.97944444444445	6.243055555555555	258.0	48 58 46N	006 14 35E	13.8	[49.1, 49.1]	[6.2, 6.2]	OSCAR	0-20000-0-07093		0-20000-0-07093	19270215	19280330	999	999	False	0-20000-0-07093	metz	[106, 107]
C:5238									[49.1, 49.1]	[6.2, 6.2]	IGRA2			0-20300-0-nan	19270215	19280330				0-20000-0-07093	metz	[106, 107]
C:5238	34063	CHAMBLEY	49.03	5.87	266.0904			25.3	[49.1, 49.1]	[6.2, 6.2]	WBAN			0-20500-0-34063	19270215	19280330	19541101	19661231		0-20000-0-07093	metz	[106, 107]
C:5238	5238	Metz	49.1	6.2	208			0.0	[49.1, 49.1]	[6.2, 6.2]	CHUAN		-999	0-20400-0-5238	19270215	19280330	-999-999	-999-999		0-20000-0-07093	metz	[106, 107]
C:5238	5610	Metz	49.11	6.18	180			1.8	[49.1, 49.1]	[6.2, 6.2]	CHUAN		-999	0-20400-0-5610	19270215	19280330	-999-999	-999-999		0-20000-0-07093	metz	[106, 107]
C:5238	5625	Thionville	49.35	6.17	155			27.9	[49.1, 49.1]	[6.2, 6.2]	CHUAN		-999	0-20400-0-5625	19270215	19280330	-999-999	-999-999		0-20000-0-07093	metz	[106, 107]
C:5238	5664	Diedenhofen	49.35	6.17	155			27.9	[49.1, 49.1]	[6.2, 6.2]	CHUAN		-999	0-20400-0-5664	19270215	19280330	-999-999	-999-999		0-20000-0-07093	metz	[106, 107]
C:5238									[49.1, 49.1]	[6.2, 6.2]	SCHROEDER			0-20600-0-nan	19270215	19280330				0-20000-0-07093	metz	[106, 107]
C:5238	07093	M.N.L.                   	48.96666666666667	6.233333333333333	-999.0			15.0	[49.1, 49.1]	[6.2, 6.2]	WMO		07093	0-20700-0-07093	19270215	19280330				0-20000-0-07093	metz	[106, 107]
