level_0	index	WIGOS	station_name	latitude	longitude	elevation	ObsRems	original_lat	original_lon	station_id	start_date	end_date	isRadio	distance_km	distance_km_minusLat	inventory	WIGOS_calc	city	city_dist_km	city_lat	city_lon	station_id_igra	WMO_id	Unnamed: 0	date_min	date_max	lat_file	lon_file	file	file_dataset	file_min_date	file_max_date	file_statid	WIGOS_best	variables
0	0	0-20000-0-12424	WROCLAW II	51.10333333333333	16.9	120.96	Climatological station, Surface land meteorological station (SYNOP), GOS, RBCN, CLIMAT(C), RBSN(S)	51 06 12N	016 54 00E	12424	999	999	False	9.3		OSCAR	0-20000-0-12424	wroclaw	2.2	51.1	17.033333						[51.12, 51.12]	[17.03, 17.03]	era5.3188.conv.C:5764	era5_3188	19200124	19340629	C:5764	0-20000-0-12425	[38, 106, 107]
1	1	0-20000-0-12425	WROCLAW-STARACHOWICE	51.113055555555555	16.88111111111111		Upper-air / Radiosonde station, Surface land meteorological station (SYNOP), RBSN(T), GOS	51 06 47N	016 52 52E	12425	999	999	True	10.5		OSCAR	0-20000-0-12425	wroclaw	2.2	51.1	17.033333						[51.12, 51.12]	[17.03, 17.03]	era5.3188.conv.C:5764	era5_3188	19200124	19340629	C:5764	0-20000-0-12425	[38, 106, 107]
0	0		WROCLAW	51.12	17.03	118.0				05764	1920	1920	True	0.0		IGRA2	0-20300-0-05764	wroclaw	2.2	51.1	17.033333	PLXUAE05764					[51.12, 51.12]	[17.03, 17.03]	era5.3188.conv.C:5764	era5_3188	19200124	19340629	C:5764	0-20000-0-12425	[38, 106, 107]
1	1		WROCLAW I	51.1131	16.8811	119.6				12425	1956	2021	True	10.5		IGRA2	0-20300-0-12425	wroclaw	2.2	51.1	17.033333	PLM00012425					[51.12, 51.12]	[17.03, 17.03]	era5.3188.conv.C:5764	era5_3188	19200124	19340629	C:5764	0-20000-0-12425	[38, 106, 107]
0	0															WBAN	0-20500-0-nan	wroclaw	2.2	51.1	17.033333						[51.12, 51.12]	[17.03, 17.03]	era5.3188.conv.C:5764	era5_3188	19200124	19340629	C:5764	0-20000-0-12425	[38, 106, 107]
0	0		Wroclaw	51.12	17.03	118				5764	-999-999	-999-999		0.0		CHUAN	0-20400-0-5764	wroclaw	2.2	51.1	17.033333		-999				[51.12, 51.12]	[17.03, 17.03]	era5.3188.conv.C:5764	era5_3188	19200124	19340629	C:5764	0-20000-0-12425	[38, 106, 107]
0	0		(assigned station ID) Breslau, Germany	51.07	17.0	-999				12425				5.9		SCHROEDER	0-20600-0-12425	wroclaw	2.2	51.1	17.033333		12425	500.0	1932-09-01 00:00:00	1999-04-01 00:00:00	[51.12, 51.12]	[17.03, 17.03]	era5.3188.conv.C:5764	era5_3188	19200124	19340629	C:5764	0-20000-0-12425	[38, 106, 107]
0	0		WROCLAW-STRACHOWICE      	51.1	16.883333333333333	124.0				12424				10.5		WMO	0-20700-0-12424	wroclaw	2.2	51.1	17.033333		12424	1001.0			[51.12, 51.12]	[17.03, 17.03]	era5.3188.conv.C:5764	era5_3188	19200124	19340629	C:5764	0-20000-0-12425	[38, 106, 107]
